,item,articleDE,articleEN,location,distance,lat,lon,sitelinks,thing,itemLabel,thingLabel,tier,color
0,http://www.wikidata.org/entity/Q1156,https://de.wikipedia.org/wiki/Mumbai,https://en.wikipedia.org/wiki/Mumbai,Point(72.8775 19.075833333),4.612,19.075833333333,72.8775,216,http://www.wikidata.org/entity/Q174844,Mumbai,megacity,S,orange
5,http://www.wikidata.org/entity/Q1191,https://de.wikipedia.org/wiki/Maharashtra,https://en.wikipedia.org/wiki/Maharashtra,Point(72.82 18.97),16.013,18.97,72.82,147,http://www.wikidata.org/entity/Q12443800,Maharashtra,state of India,S,orange
6,http://www.wikidata.org/entity/Q207749,https://de.wikipedia.org/wiki/Thane,https://en.wikipedia.org/wiki/Thane,Point(72.963333333 19.18),12.219,19.18,72.963333333333,74,http://www.wikidata.org/entity/Q1549591,Thane,big city,S,orange
8,http://www.wikidata.org/entity/Q61445,https://de.wikipedia.org/wiki/Navi_Mumbai,https://en.wikipedia.org/wiki/Navi_Mumbai,Point(73.01 19.03),10.71,19.03,73.01,69,http://www.wikidata.org/entity/Q1074523,Navi Mumbai,planned community,S,orange
11,http://www.wikidata.org/entity/Q76421,https://de.wikipedia.org/wiki/Anschl%C3%A4ge_in_Mumbai_2008,https://en.wikipedia.org/wiki/2008_Mumbai_attacks,Point(72.833333333 18.921944444),19.617,18.921944444444,72.833333333333,57,http://www.wikidata.org/entity/Q25917186,26/11 Mumbai attacks,coordinated terrorist attack,S,orange
12,http://www.wikidata.org/entity/Q649384,https://de.wikipedia.org/wiki/Elephanta-H%C3%B6hlen,https://en.wikipedia.org/wiki/Elephanta_Caves,Point(72.931388888 18.963333333),12.739,18.963333333333,72.931388888889,56,http://www.wikidata.org/entity/Q35509,Elephanta Caves,cave,S,orange
13,http://www.wikidata.org/entity/Q235884,https://de.wikipedia.org/wiki/Chhatrapati_Shivaji_Terminus,https://en.wikipedia.org/wiki/Chhatrapati_Shivaji_Terminus,Point(72.8355 18.9398),17.774,18.9398,72.8355,52,http://www.wikidata.org/entity/Q11606300,Chhatrapati Shivaji Maharaj Terminus,last station,S,orange
16,http://www.wikidata.org/entity/Q460222,https://de.wikipedia.org/wiki/Ulhasnagar,https://en.wikipedia.org/wiki/Ulhasnagar,Point(73.15 19.216666666),28.569,19.216666666667,73.15,50,http://www.wikidata.org/entity/Q1549591,Ulhasnagar,big city,S,orange
18,http://www.wikidata.org/entity/Q504368,https://de.wikipedia.org/wiki/Flughafen_Mumbai,https://en.wikipedia.org/wiki/Chhatrapati_Shivaji_Maharaj_International_Airport,Point(72.868055555 19.088611111),5.735,19.088611111111,72.868055555556,50,http://www.wikidata.org/entity/Q644371,Chhatrapati Shivaji Maharaj International Airport,international airport,S,orange
20,http://www.wikidata.org/entity/Q645725,https://de.wikipedia.org/wiki/Bhiwandi,https://en.wikipedia.org/wiki/Bhiwandi,Point(73.066666666 19.3),29.066,19.3,73.066666666667,46,http://www.wikidata.org/entity/Q1549591,Bhiwandi,big city,S,orange
22,http://www.wikidata.org/entity/Q19104,https://de.wikipedia.org/wiki/Taj_Mahal_Palace,https://en.wikipedia.org/wiki/Taj_Mahal_Palace_Hotel,Point(72.83317 18.92164),19.655,18.922585,72.833154,46,http://www.wikidata.org/entity/Q27686,Taj Mahal Palace Hotel,hotel,S,orange
24,http://www.wikidata.org/entity/Q864862,https://de.wikipedia.org/wiki/Gateway_of_India,https://en.wikipedia.org/wiki/Gateway_of_India,Point(72.834705 18.921836),19.56,18.921836,72.834705,42,http://www.wikidata.org/entity/Q143912,Gateway of India,triumphal arch,S,orange
25,http://www.wikidata.org/entity/Q581999,https://de.wikipedia.org/wiki/Kalyan-Dombivli,https://en.wikipedia.org/wiki/Kalyan-Dombivli,Point(73.133333333 19.233333333),28.212,19.233333333333,73.133333333333,41,http://www.wikidata.org/entity/Q112684326,Kalyan-Dombivli,municipality of India,S,orange
26,http://www.wikidata.org/entity/Q1006343,https://de.wikipedia.org/wiki/Mira-Bhayandar,https://en.wikipedia.org/wiki/Mira-Bhayandar,Point(72.85 19.3),25.848,19.3,72.85,40,http://www.wikidata.org/entity/Q1549591,Mira-Bhayandar,big city,S,orange
28,http://www.wikidata.org/entity/Q117196,https://de.wikipedia.org/wiki/Salsette,https://en.wikipedia.org/wiki/Salsette_Island,Point(72.9 19.2),13.803,19.2,72.9,35,http://www.wikidata.org/entity/Q23442,Salsette,island,S,orange
29,http://www.wikidata.org/entity/Q297511,https://de.wikipedia.org/wiki/Panvel,https://en.wikipedia.org/wiki/Panvel,Point(73.1 18.98),21.684,18.98,73.1,32,http://www.wikidata.org/entity/Q1549591,Panvel,big city,S,orange
31,http://www.wikidata.org/entity/Q649632,https://de.wikipedia.org/wiki/Dharavi,https://en.wikipedia.org/wiki/Dharavi,Point(72.856388888 19.044),7.778,19.044,72.856388888889,31,http://www.wikidata.org/entity/Q201759,Dharavi,slum,S,orange
32,http://www.wikidata.org/entity/Q584008,https://de.wikipedia.org/wiki/Ambernath,https://en.wikipedia.org/wiki/Ambarnath,Point(73.186 19.209),31.409,19.209,73.186,30,http://www.wikidata.org/entity/Q515,Ambernath,city,S,orange
33,http://www.wikidata.org/entity/Q175304,https://de.wikipedia.org/wiki/Elephanta_(Insel),https://en.wikipedia.org/wiki/Elephanta_Island,Point(72.933888888 18.9625),12.856,18.9625,72.933888888889,29,http://www.wikidata.org/entity/Q23442,Elephanta Island,island,S,orange
34,http://www.wikidata.org/entity/Q891827,https://de.wikipedia.org/wiki/Bombay_(Pr%C3%A4sidentschaft),https://en.wikipedia.org/wiki/Bombay_Presidency,Point(72.833333 18.966667),15.411,18.966667,72.833333,29,http://www.wikidata.org/entity/Q17319258,Bombay Presidency,presidency of British India,S,orange
35,http://www.wikidata.org/entity/Q366754,,https://en.wikipedia.org/wiki/Kalyan,Point(73.15 19.25),30.733,19.25,73.15,27,http://www.wikidata.org/entity/Q58339518,Kalyan,town in India,S,orange
36,http://www.wikidata.org/entity/Q463526,https://de.wikipedia.org/wiki/Matheran,https://en.wikipedia.org/wiki/Matheran,Point(73.27083333 18.98888889),38.033,18.98888889,73.27083333,27,http://www.wikidata.org/entity/Q486972,Matheran,human settlement,S,orange
38,http://www.wikidata.org/entity/Q576952,https://de.wikipedia.org/wiki/Antilia_(Geb%C3%A4ude),https://en.wikipedia.org/wiki/Antilia_(building),Point(72.809722222 18.968333333),16.884,18.968333333333,72.809722222222,26,http://www.wikidata.org/entity/Q11755880,Antilia,residential building,S,orange
39,http://www.wikidata.org/entity/Q588612,https://de.wikipedia.org/wiki/Badlapur,https://en.wikipedia.org/wiki/Badlapur,Point(73.262 19.15),36.685,19.15,73.262,25,http://www.wikidata.org/entity/Q486972,Badlapur,human settlement,S,orange
40,http://www.wikidata.org/entity/Q1356198,https://de.wikipedia.org/wiki/Kanheri-H%C3%B6hlen_(Mumbai),https://en.wikipedia.org/wiki/Kanheri_Caves,Point(72.9064 19.2083),14.627,19.2083,72.9064,25,http://www.wikidata.org/entity/Q35509,Kanheri Caves,cave,S,orange
41,http://www.wikidata.org/entity/Q2487341,,https://en.wikipedia.org/wiki/Virar,Point(72.81136 19.45591),43.629,19.47,72.8,24,http://www.wikidata.org/entity/Q515,Virar,city,S,orange
43,http://www.wikidata.org/entity/Q1661242,https://de.wikipedia.org/wiki/Indian_Institute_of_Technology_Bombay,https://en.wikipedia.org/wiki/IIT_Bombay,Point(72.916944444 19.133611111),6.255,19.133611111111,72.916944444444,23,http://www.wikidata.org/entity/Q1371037,Indian Institute of Technology Bombay,institute of technology,S,orange
44,http://www.wikidata.org/entity/Q2627082,https://de.wikipedia.org/wiki/Bombay_(Bundesstaat),https://en.wikipedia.org/wiki/Bombay_State,Point(72.825833333 18.975),15.19,18.975,72.825833333333,23,http://www.wikidata.org/entity/Q12443800,Bombay State,state of India,S,orange
45,http://www.wikidata.org/entity/Q542756,,https://en.wikipedia.org/wiki/Haji_Ali_Dargah,Point(72.8088 18.9825),15.861,18.9825,72.8088,21,http://www.wikidata.org/entity/Q2639699,Haji Ali Dargah,dargah,S,orange
46,http://www.wikidata.org/entity/Q12435629,,https://en.wikipedia.org/wiki/Nallasopara,Point(72.8613 19.4154),38.095,19.4154,72.8613,21,http://www.wikidata.org/entity/Q3957,Nala Sopara,town,S,orange
47,http://www.wikidata.org/entity/Q142617,https://de.wikipedia.org/wiki/Tata_Institute_of_Fundamental_Research,https://en.wikipedia.org/wiki/Tata_Institute_of_Fundamental_Research,Point(72.80601 18.90757),22.452,18.90757,72.80601,21,http://www.wikidata.org/entity/Q3918,Tata Institute of Fundamental Research,university,S,orange
49,http://www.wikidata.org/entity/Q177067,https://de.wikipedia.org/wiki/Wankhede_Stadium,https://en.wikipedia.org/wiki/Wankhede_Stadium,Point(72.825722 18.938917),18.4,18.938917,72.825722,21,http://www.wikidata.org/entity/Q682943,Wankhede Stadium,cricket field,S,orange
50,http://www.wikidata.org/entity/Q507939,https://de.wikipedia.org/wiki/World_One,https://en.wikipedia.org/wiki/World_One,Point(72.8265301 19.0025407),12.993,19.0025407,72.8265301,21,http://www.wikidata.org/entity/Q11303,World One,skyscraper,S,orange
51,http://www.wikidata.org/entity/Q16942531,https://de.wikipedia.org/wiki/Viktorianisch-gotische_und_Art-d%C3%A9co-Ensembles_in_Mumbai,https://en.wikipedia.org/wiki/Victorian_Gothic_and_Art_Deco_Ensembles_of_Mumbai,Point(72.830083 18.929806),19.021,18.929806,72.830083,21,http://www.wikidata.org/entity/Q29969011,Victorian Gothic and Art Deco Ensembles of Mumbai,urban landscape,S,orange
52,http://www.wikidata.org/entity/Q649218,,https://en.wikipedia.org/wiki/India_Tower,Point(72.821348 18.950159),17.636,18.950159,72.821348,20,http://www.wikidata.org/entity/Q11303,India Tower,skyscraper,S,orange
53,http://www.wikidata.org/entity/Q257622,,https://en.wikipedia.org/wiki/Bandra,Point(72.840555555 19.054444444),8.87,19.054444444444,72.840555555556,19,http://www.wikidata.org/entity/Q188509,Bandra,suburb,A,green
54,http://www.wikidata.org/entity/Q648907,,https://en.wikipedia.org/wiki/Sanjay_Gandhi_National_Park,Point(72.9167 19.25),19.185,19.25,72.9167,19,http://www.wikidata.org/entity/Q46169,Sanjay Gandhi National Park,national park,A,green
55,http://www.wikidata.org/entity/Q1113891,,https://en.wikipedia.org/wiki/Uran,Point(72.95 18.89),21.066,18.89,72.95,19,http://www.wikidata.org/entity/Q3957,Uran,town,A,green
56,http://www.wikidata.org/entity/Q2247572,,"https://en.wikipedia.org/wiki/Neral,_India",Point(73.32 19.03),42.229,19.03,73.32,19,http://www.wikidata.org/entity/Q486972,Neral,human settlement,A,green
57,http://www.wikidata.org/entity/Q153072,https://de.wikipedia.org/wiki/Leopold_Cafe,https://en.wikipedia.org/wiki/Leopold_Cafe,Point(72.824131 18.914195),20.838,18.914195,72.824131,18,http://www.wikidata.org/entity/Q212198,Leopold Cafe,pub,A,green
59,http://www.wikidata.org/entity/Q585640,,https://en.wikipedia.org/wiki/Ambivali_Tarf_Tungaratan,Point(73.1775 18.8915),33.957,18.8915,73.1775,17,http://www.wikidata.org/entity/Q486972,Ambivali Tarf Wankhal,human settlement,A,green
60,http://www.wikidata.org/entity/Q1382194,,"https://en.wikipedia.org/wiki/Pen,_India",Point(73.08 18.75),40.057,18.75,73.0833,17,http://www.wikidata.org/entity/Q486972,Pen,human settlement,A,green
64,http://www.wikidata.org/entity/Q13115097,,"https://en.wikipedia.org/wiki/Siddhivinayak_Temple,_Mumbai",Point(72.830409 19.01692),11.694,19.01692,72.830409,17,http://www.wikidata.org/entity/Q842402,"Siddhivinayak Temple, Mumbai",Hindu temple,A,green
65,http://www.wikidata.org/entity/Q1984452,https://de.wikipedia.org/wiki/Nhava_Sheva,https://en.wikipedia.org/wiki/Jawaharlal_Nehru_Port,Point(72.95 18.95),14.494,18.95,72.95,17,http://www.wikidata.org/entity/Q15310171,Nhava Sheva,seaport,A,green
66,http://www.wikidata.org/entity/Q1156264,https://de.wikipedia.org/wiki/DY_Patil_Stadium,https://en.wikipedia.org/wiki/DY_Patil_Stadium,Point(73.026667 19.041944),11.753,19.041944,73.026667,17,http://www.wikidata.org/entity/Q682943,DY Patil Stadium,cricket field,A,green
68,http://www.wikidata.org/entity/Q1934607,,https://en.wikipedia.org/wiki/Worli,Point(72.815 19.0),14.115,19.0,72.815,16,http://www.wikidata.org/entity/Q123705,Worli,neighborhood,A,green
69,http://www.wikidata.org/entity/Q2442587,,https://en.wikipedia.org/wiki/Kalundre,Point(73.126944444 18.980277777),24.164,18.980277777778,73.126944444444,16,http://www.wikidata.org/entity/Q486972,Kalundre,human settlement,A,green
73,http://www.wikidata.org/entity/Q314572,https://de.wikipedia.org/wiki/Rajiv_Gandhi_Sea_Link,https://en.wikipedia.org/wiki/Bandra%E2%80%93Worli_Sea_Link,Point(72.81725 19.03648),11.854,19.03648,72.81725,16,http://www.wikidata.org/entity/Q158555,Bandra–Worli Sea Link,cable-stayed bridge,A,green
75,http://www.wikidata.org/entity/Q3621720,https://de.wikipedia.org/wiki/Mumbai_Metropolitan_Region,https://en.wikipedia.org/wiki/Mumbai_Metropolitan_Region,Point(72.833333333 18.966666666),15.411,18.966666666667,72.833333333333,16,http://www.wikidata.org/entity/Q1907114,Mumbai Metropolitan Region,metropolitan area,A,green
76,http://www.wikidata.org/entity/Q854682,https://de.wikipedia.org/wiki/Bhabha_Atomic_Research_Centre,https://en.wikipedia.org/wiki/Bhabha_Atomic_Research_Centre,Point(72.917777777 19.004722222),8.102,19.004722222222,72.917777777778,16,http://www.wikidata.org/entity/Q327333,Bhabha Atomic Research Centre,government agency,A,green
78,http://www.wikidata.org/entity/Q1619376,https://de.wikipedia.org/wiki/Hindustan_Unilever,https://en.wikipedia.org/wiki/Hindustan_Unilever,Point(72.855436111 19.113743888),8.012,19.113743888889,72.855436111111,16,http://www.wikidata.org/entity/Q498289,Hindustan Unilever,dual-listed company,A,green
81,http://www.wikidata.org/entity/Q1151775,,https://en.wikipedia.org/wiki/2011_Mumbai_bombings,Point(72.82 18.96),16.859,18.96,72.82,15,http://www.wikidata.org/entity/Q217327,2011 Mumbai bombings,suicide attack,A,green
82,http://www.wikidata.org/entity/Q2719132,,https://en.wikipedia.org/wiki/Taloje_Panchnand,Point(73.0833 19.0833),17.03,19.0833,73.0833,15,http://www.wikidata.org/entity/Q486972,Taloje Panchnad,human settlement,A,green
83,http://www.wikidata.org/entity/Q3348756,,https://en.wikipedia.org/wiki/Powai_Lake,Point(72.91 19.13),5.957,19.13,72.91,15,http://www.wikidata.org/entity/Q23397,Powai Lake,lake,A,green
84,http://www.wikidata.org/entity/Q3632268,,https://en.wikipedia.org/wiki/Nariman_Point,Point(72.823 18.926),19.766,18.926,72.823,15,http://www.wikidata.org/entity/Q738570,Nariman Point,central business district,A,green
85,http://www.wikidata.org/entity/Q3530568,https://de.wikipedia.org/wiki/Mumbai_Monorail,https://en.wikipedia.org/wiki/Mumbai_Monorail,Point(72.8975 19.061111111),3.1,19.061111111111,72.8975,15,http://www.wikidata.org/entity/Q187934,Mumbai Monorail,monorail,A,green
86,http://www.wikidata.org/entity/Q2303685,https://de.wikipedia.org/wiki/Trident_Oberoi,https://en.wikipedia.org/wiki/Oberoi_Trident,Point(72.820833 18.9275),19.745,18.9275,72.820833,15,http://www.wikidata.org/entity/Q27686,Oberoi Trident,hotel,A,green
87,http://www.wikidata.org/entity/Q1071500,https://de.wikipedia.org/wiki/Chhatrapati_Shivaji_Maharaj_Vastu_Sangrahalaya,https://en.wikipedia.org/wiki/Chhatrapati_Shivaji_Maharaj_Vastu_Sangrahalaya,Point(72.832222 18.926667),19.212,18.926667,72.832222,15,http://www.wikidata.org/entity/Q33506,Chhatrapati Shivaji Maharaj Vastu Sangrahalaya,museum,A,green
88,http://www.wikidata.org/entity/Q772252,,https://en.wikipedia.org/wiki/Kegaon,Point(72.912 18.885),21.428,18.885,72.912,14,http://www.wikidata.org/entity/Q486972,Kegaon,human settlement,A,green
89,http://www.wikidata.org/entity/Q985828,,"https://en.wikipedia.org/wiki/Marine_Drive,_Mumbai",Point(72.823 18.944),18.091,18.944,72.823,14,http://www.wikidata.org/entity/Q83620,Marine Drive,thoroughfare,A,green
91,http://www.wikidata.org/entity/Q2248426,,"https://en.wikipedia.org/wiki/Khoni,_Maharashtra",Point(73.0544 19.3113),29.511,19.3113,73.0544,14,http://www.wikidata.org/entity/Q486972,Khoni,human settlement,A,green
92,http://www.wikidata.org/entity/Q2442596,,https://en.wikipedia.org/wiki/Karivali,Point(73.0396 19.2922),26.908,19.2922,73.0396,14,http://www.wikidata.org/entity/Q486972,Karivali,human settlement,A,green
93,http://www.wikidata.org/entity/Q2546649,,"https://en.wikipedia.org/wiki/Katai,_India",Point(73.0424 19.3078),28.587,19.3078,73.0424,14,http://www.wikidata.org/entity/Q486972,Katai,human settlement,A,green
94,http://www.wikidata.org/entity/Q3632559,,https://en.wikipedia.org/wiki/Colaba,Point(72.81 18.91),21.999,18.91,72.81,14,http://www.wikidata.org/entity/Q123705,Colaba,neighborhood,A,green
95,http://www.wikidata.org/entity/Q674812,,https://en.wikipedia.org/wiki/Juhu_Aerodrome,Point(72.833888888 19.098055555),9.47,19.098055555556,72.833888888889,13,http://www.wikidata.org/entity/Q502074,Juhu Aerodrome,heliport,A,green
98,http://www.wikidata.org/entity/Q1706738,,https://en.wikipedia.org/wiki/Gokhivare,Point(72.8445 19.4125),38.111,19.4125,72.8445,13,http://www.wikidata.org/entity/Q486972,Gokhivare,human settlement,A,green
99,http://www.wikidata.org/entity/Q2458919,,https://en.wikipedia.org/wiki/The_Imperial_(Mumbai),Point(72.8129 18.9709),16.446,18.9709,72.8129,13,http://www.wikidata.org/entity/Q118896406,The Imperial,twin towers,A,green
100,http://www.wikidata.org/entity/Q2544678,,https://en.wikipedia.org/wiki/Waliv,Point(72.8613 19.4255),39.203,19.4255,72.8613,13,http://www.wikidata.org/entity/Q486972,Waliv,human settlement,A,green
101,http://www.wikidata.org/entity/Q2718862,,https://en.wikipedia.org/wiki/Padagha,Point(73.1833 19.3667),42.312,19.3667,73.1833,13,http://www.wikidata.org/entity/Q486972,Padagha,human settlement,A,green
102,http://www.wikidata.org/entity/Q2719390,,https://en.wikipedia.org/wiki/Shelar,Point(73.0626 19.3259),31.349,19.3259,73.0626,13,http://www.wikidata.org/entity/Q486972,Shelar,human settlement,A,green
103,http://www.wikidata.org/entity/Q2725688,,https://en.wikipedia.org/wiki/Mohpada,Point(73.1796 18.9098),32.938,18.9098,73.1796,13,http://www.wikidata.org/entity/Q486972,Mohpada,human settlement,A,green
104,http://www.wikidata.org/entity/Q2768808,,https://en.wikipedia.org/wiki/Bombay_Samachar,Point(72.834237517 18.9326025),18.533,18.932602500625,72.83423751771,13,http://www.wikidata.org/entity/Q11032,Bombay Samachar,newspaper,A,green
105,http://www.wikidata.org/entity/Q3034709,,https://en.wikipedia.org/wiki/Dombivli,Point(73.086718 19.218433),23.393,19.218433,73.086718,13,http://www.wikidata.org/entity/Q58339518,Dombivli,town in India,A,green
106,http://www.wikidata.org/entity/Q3520892,,https://en.wikipedia.org/wiki/Mumba_Devi_Temple,Point(72.83 18.95),17.124,18.95,72.83,13,http://www.wikidata.org/entity/Q842402,Mumba Devi Temple,Hindu temple,A,green
107,http://www.wikidata.org/entity/Q674362,https://de.wikipedia.org/wiki/Juhu_(Mumbai),https://en.wikipedia.org/wiki/Juhu,Point(72.83 19.1),9.919,19.1,72.83,13,http://www.wikidata.org/entity/Q188509,Juhu,suburb,A,green
111,http://www.wikidata.org/entity/Q877762,https://de.wikipedia.org/wiki/Bistum_Vasai,https://en.wikipedia.org/wiki/Roman_Catholic_Diocese_of_Vasai,Point(72.811925 19.35105),32.512,19.35105,72.811925,13,http://www.wikidata.org/entity/Q3146899,Roman Catholic Diocese of Vasai,diocese of the Catholic Church,A,green
112,http://www.wikidata.org/entity/Q4786546,https://de.wikipedia.org/wiki/Brabourne_Stadium,https://en.wikipedia.org/wiki/Brabourne_Stadium,Point(72.82472222 18.93222222),19.083,18.93222222,72.82472222,13,http://www.wikidata.org/entity/Q682943,Brabourne Stadium,cricket field,A,green
113,http://www.wikidata.org/entity/Q6268840,https://de.wikipedia.org/wiki/Konkan_(Division),https://en.wikipedia.org/wiki/Konkan_division,Point(72.82583333 18.96472222),16.065,18.96472222,72.82583333,13,http://www.wikidata.org/entity/Q125907357,Konkan division,division of Maharashtra,A,green
114,http://www.wikidata.org/entity/Q12413015,https://de.wikipedia.org/wiki/Andheri,https://en.wikipedia.org/wiki/Andheri,Point(72.846944444 19.119166666),9.087,19.119166666667,72.846944444444,13,http://www.wikidata.org/entity/Q188509,Andheri,suburb,A,green
115,http://www.wikidata.org/entity/Q53233,,https://en.wikipedia.org/wiki/Ulhas_River,Point(72.7912 19.321),30.327,19.321,72.7912,13,http://www.wikidata.org/entity/Q4022,Ulhas River,river,A,green
121,http://www.wikidata.org/entity/Q251170,,https://en.wikipedia.org/wiki/Chembur,Point(72.899694444 19.058711111),3.09,19.058711111111,72.899694444444,12,http://www.wikidata.org/entity/Q188509,Chembur,suburb,A,green
122,http://www.wikidata.org/entity/Q674501,,https://en.wikipedia.org/wiki/Mahim,Point(72.84 19.035),9.769,19.035,72.84,12,http://www.wikidata.org/entity/Q123705,Mahim,neighborhood,A,green
126,http://www.wikidata.org/entity/Q768339,,https://en.wikipedia.org/wiki/Global_Vipassana_Pagoda,Point(72.80605278 19.22805556),20.66,19.22805556,72.80605278,12,http://www.wikidata.org/entity/Q811979,Global Vipassana Pagoda,architectural structure,A,green
127,http://www.wikidata.org/entity/Q2232562,,https://en.wikipedia.org/wiki/Kopharad,Point(72.784 19.4433),43.152,19.4433,72.784,12,http://www.wikidata.org/entity/Q486972,Kopharad,human settlement,A,green
128,http://www.wikidata.org/entity/Q3015728,,https://en.wikipedia.org/wiki/Navi_Mumbai_International_Airport,Point(73.079113888 18.984677777),19.533,18.984677777778,73.079113888889,12,http://www.wikidata.org/entity/Q44665966,Navi Mumbai International Airport,proposed airport,A,green
130,http://www.wikidata.org/entity/Q3230299,,https://en.wikipedia.org/wiki/Fort_Vasai,Point(72.81460489 19.32987469),30.216,19.32987469,72.81460489,12,http://www.wikidata.org/entity/Q1785071,Fort Vasai,fort,A,green
131,http://www.wikidata.org/entity/Q12452801,,https://en.wikipedia.org/wiki/Vidyavihar,Point(72.896 19.08),2.678,19.08,72.896,12,http://www.wikidata.org/entity/Q486972,Vidyavihar,human settlement,A,green
132,http://www.wikidata.org/entity/Q2956390,https://de.wikipedia.org/wiki/Mazagon_Dock_Shipbuilders_Limited,https://en.wikipedia.org/wiki/Mazagon_Dock_Shipbuilders,Point(72.84993 18.96713),14.387,18.96713,72.84993,12,http://www.wikidata.org/entity/Q4830453,Mazagon Dock Shipbuilders,business,A,green
133,http://www.wikidata.org/entity/Q6732862,https://de.wikipedia.org/wiki/Mahakali-H%C3%B6hlen_(Mumbai),https://en.wikipedia.org/wiki/Mahakali_Caves,Point(72.874133 19.130436),7.697,19.130436,72.874133,12,http://www.wikidata.org/entity/Q35509,Mahakali Caves,cave,A,green
134,http://www.wikidata.org/entity/Q15948989,https://de.wikipedia.org/wiki/Indian-Airlines-Flug_171,https://en.wikipedia.org/wiki/Indian_Airlines_Flight_171,Point(72.842666666 19.088583333),8.359,19.088583333333,72.842666666667,12,http://www.wikidata.org/entity/Q744913,Indian Airlines Flight 171,aviation accident,A,green
135,http://www.wikidata.org/entity/Q985666,,https://en.wikipedia.org/wiki/Churchgate,Point(72.8264 18.9322),18.992,18.932315669781,72.826661816654,11,http://www.wikidata.org/entity/Q123705,Churchgate,neighborhood,A,green
139,http://www.wikidata.org/entity/Q2151120,,https://en.wikipedia.org/wiki/Tata_Institute_of_Social_Sciences,Point(72.912483333 19.044697222),3.766,19.044697222222,72.912483333333,11,http://www.wikidata.org/entity/Q3918,Tata Institute of Social Sciences,university,A,green
142,http://www.wikidata.org/entity/Q3595301,,https://en.wikipedia.org/wiki/Indian_Coffee_House,Point(72.87499167 19.12515),7.196,12.500886111111,74.990258333333,11,http://www.wikidata.org/entity/Q18534542,Indian Coffee House,restaurant chain,A,green
146,http://www.wikidata.org/entity/Q3630420,,https://en.wikipedia.org/wiki/Tulsi_Lake,Point(72.9179 19.1901),12.524,19.1901,72.9179,11,http://www.wikidata.org/entity/Q23397,Tulsi Lake,lake,A,green
149,http://www.wikidata.org/entity/Q5121900,,https://en.wikipedia.org/wiki/Mazgaon,Point(72.85 18.97),14.112,18.97,72.85,11,http://www.wikidata.org/entity/Q123705,Mazagaon,neighborhood,A,green
151,http://www.wikidata.org/entity/Q6421993,,https://en.wikipedia.org/wiki/Knesset_Eliyahoo,Point(72.832555555 18.928138888),19.052,18.928138888889,72.832555555556,11,http://www.wikidata.org/entity/Q34627,Knesset Eliyahoo,synagogue,A,green
152,http://www.wikidata.org/entity/Q7568013,,https://en.wikipedia.org/wiki/South_Mumbai,Point(72.82 18.96),16.859,18.96,72.82,11,http://www.wikidata.org/entity/Q82794,South Mumbai,geographic region,A,green
154,http://www.wikidata.org/entity/Q620809,https://de.wikipedia.org/wiki/Palais_Royale,"https://en.wikipedia.org/wiki/Palais_Royale,_Mumbai",Point(72.82027778 18.99916667),13.738,18.99916667,72.82027778,11,http://www.wikidata.org/entity/Q11303,Palais Royale,skyscraper,A,green
155,http://www.wikidata.org/entity/Q3635765,https://de.wikipedia.org/wiki/Basilika_Unserer_Lieben_Frau_vom_Berge_(Mumbai),"https://en.wikipedia.org/wiki/Basilica_of_Our_Lady_of_the_Mount,_Bandra",Point(72.8225 19.046666666),10.94,19.046666666667,72.8225,11,http://www.wikidata.org/entity/Q120560,Mount Mary Church,minor basilica,A,green
157,http://www.wikidata.org/entity/Q4945504,https://de.wikipedia.org/wiki/Borivali,https://en.wikipedia.org/wiki/Borivali,Point(72.86 19.23),18.138,19.23,72.86,11,http://www.wikidata.org/entity/Q188509,Borivali,suburb,A,green
158,http://www.wikidata.org/entity/Q1650914,https://de.wikipedia.org/wiki/EsselWorld,https://en.wikipedia.org/wiki/EsselWorld,Point(72.806 19.232),21.02,19.232,72.806,11,http://www.wikidata.org/entity/Q194195,EsselWorld,amusement park,A,green
159,http://www.wikidata.org/entity/Q6214734,https://de.wikipedia.org/wiki/Jogeshwari-H%C3%B6hlen,https://en.wikipedia.org/wiki/Jogeshwari_Caves,Point(72.8570856 19.13884226),9.596,19.13884226,72.8570856,11,http://www.wikidata.org/entity/Q35509,Jogeshwari Caves,cave,A,green
160,http://www.wikidata.org/entity/Q297732,,https://en.wikipedia.org/wiki/Vashi,Point(73.01 19.08),9.319,19.08,73.01,10,http://www.wikidata.org/entity/Q486972,Vashi,human settlement,A,green
161,http://www.wikidata.org/entity/Q601809,,"https://en.wikipedia.org/wiki/Kon,_India",Point(73.106 19.2489),27.189,19.2489,73.106,10,http://www.wikidata.org/entity/Q486972,"Kon, India",human settlement,A,green
162,http://www.wikidata.org/entity/Q1708373,,https://en.wikipedia.org/wiki/Goregaon,Point(72.85 19.155),11.42,19.155,72.85,10,http://www.wikidata.org/entity/Q188509,Goregaon,suburb,A,green
163,http://www.wikidata.org/entity/Q2722343,,https://en.wikipedia.org/wiki/Kharghar,Point(73.061722222 19.036147222),15.453,19.036147222222,73.061722222222,10,http://www.wikidata.org/entity/Q188509,Kharghar,suburb,A,green
164,http://www.wikidata.org/entity/Q3072027,,"https://en.wikipedia.org/wiki/Film_City,_Mumbai",Point(72.8867 19.1613),10.002,19.1613,72.8867,10,http://www.wikidata.org/entity/Q375336,Film City,film studio,A,green
165,http://www.wikidata.org/entity/Q3633207,,https://en.wikipedia.org/wiki/Mahim_Fort,Point(72.837768 19.039848),9.731,19.039848,72.837768,10,http://www.wikidata.org/entity/Q57831,Mahim Fort,fortress,A,green
166,http://www.wikidata.org/entity/Q3634413,,https://en.wikipedia.org/wiki/Mani_Bhavan,Point(72.81137 18.95993),17.452,18.95993,72.81137,10,http://www.wikidata.org/entity/Q33506,Mani Bhavan,museum,A,green
167,http://www.wikidata.org/entity/Q4701731,,https://en.wikipedia.org/wiki/Aksa_Beach,Point(72.79496667 19.177275),17.301,19.177275,72.79496667,10,http://www.wikidata.org/entity/Q40080,Aksa Beach,beach,A,green
168,http://www.wikidata.org/entity/Q4856263,,https://en.wikipedia.org/wiki/Parel,Point(72.84 18.99),12.954,18.99,72.84,10,http://www.wikidata.org/entity/Q123705,Parel,neighborhood,A,green
169,http://www.wikidata.org/entity/Q5207921,,https://en.wikipedia.org/wiki/Dadar,Point(72.844763888 19.017980555),10.421,19.017980555556,72.844763888889,10,http://www.wikidata.org/entity/Q486972,Dadar,human settlement,A,green
170,http://www.wikidata.org/entity/Q7285587,,https://en.wikipedia.org/wiki/Rajabai_Clock_Tower,Point(72.82999 18.92964),19.042,18.92964,72.82999,10,http://www.wikidata.org/entity/Q853854,Rajabai Clock Tower,clock tower,A,green
171,http://www.wikidata.org/entity/Q10526777,,https://en.wikipedia.org/wiki/2013_Thane_building_collapse,Point(73.027722222 19.170916666),15.256,19.170916666667,73.027722222222,10,http://www.wikidata.org/entity/Q1309431,2013 Thane building collapse,structural failure,A,green
172,http://www.wikidata.org/entity/Q13118508,,https://en.wikipedia.org/wiki/Powai,Point(72.906 19.1176),4.74,19.12,72.91,10,http://www.wikidata.org/entity/Q188509,Powai,suburb,A,green
178,http://www.wikidata.org/entity/Q13564478,,https://en.wikipedia.org/wiki/Kamathipura,Point(72.82 18.96),16.859,18.96,72.82,10,http://www.wikidata.org/entity/Q123705,Kamathipura,neighborhood,A,green
179,http://www.wikidata.org/entity/Q621675,https://de.wikipedia.org/wiki/Namaste_Tower,https://en.wikipedia.org/wiki/Namaste_Tower,Point(72.823257 18.991499),14.063,18.991499,72.823257,10,http://www.wikidata.org/entity/Q124835105,Namaste Tower,proposed tower,A,green
180,http://www.wikidata.org/entity/Q695852,https://de.wikipedia.org/wiki/Bombay_High_Court,https://en.wikipedia.org/wiki/Bombay_High_Court,Point(72.830461111 18.931183333),18.868,18.931183333333,72.830461111111,10,http://www.wikidata.org/entity/Q4959031,Bombay High Court,appellate court,A,green
181,http://www.wikidata.org/entity/Q12444660,https://de.wikipedia.org/wiki/Mandapeshwar-H%C3%B6hlen_(Mumbai),https://en.wikipedia.org/wiki/Mandapeshwar_Caves,Point(72.85322504 19.24511143),19.962,19.24511143,72.85322504,10,http://www.wikidata.org/entity/Q35509,Mandapeshwar Caves,cave,A,green
182,http://www.wikidata.org/entity/Q855497,,"https://en.wikipedia.org/wiki/Cathedral_of_the_Holy_Name,_Mumbai",Point(72.8306699 18.9233592),19.613,18.9233592,72.8306699,9,http://www.wikidata.org/entity/Q2977,Cathedral of the Holy Name,cathedral,B,violet
184,http://www.wikidata.org/entity/Q3309774,,https://en.wikipedia.org/wiki/Ghatkopar,Point(72.91 19.08),1.224,19.08,72.91,9,http://www.wikidata.org/entity/Q188509,Ghatkopar,suburb,B,violet
187,http://www.wikidata.org/entity/Q4058307,,https://en.wikipedia.org/wiki/The_Asiatic_Society_of_Mumbai,Point(72.83621944 18.93216667),18.474,18.93216667,72.83621944,9,http://www.wikidata.org/entity/Q33506,Asiatic Society of Mumbai,museum,B,violet
188,http://www.wikidata.org/entity/Q4120540,,https://en.wikipedia.org/wiki/David_Sassoon_Library,Point(72.831105 18.927976),19.143,18.927976,72.831105,9,http://www.wikidata.org/entity/Q7075,David Sassoon Library,library,B,violet
189,http://www.wikidata.org/entity/Q4159791,,"https://en.wikipedia.org/wiki/Jama_Mosque,_Mumbai",Point(72.8322 18.9491),17.079,18.9491,72.8322,9,http://www.wikidata.org/entity/Q32815,"Jama Masjid, Mumbai",mosque,B,violet
191,http://www.wikidata.org/entity/Q4901615,,https://en.wikipedia.org/wiki/Bhayandar,Point(72.85 19.31),26.914,19.31,72.85,9,http://www.wikidata.org/entity/Q188509,Bhayandar,suburb,B,violet
192,http://www.wikidata.org/entity/Q4940560,,https://en.wikipedia.org/wiki/Bombay_Gymkhana,Point(72.83121111 18.93743056),18.232,18.93743056,72.83121111,9,http://www.wikidata.org/entity/Q682943,Bombay Gymkhana,cricket field,B,violet
195,http://www.wikidata.org/entity/Q5182895,,https://en.wikipedia.org/wiki/Crawford_Market,Point(72.83471 18.947414),17.094,18.947414,72.83471,9,http://www.wikidata.org/entity/Q132510,Crawford Market,market,B,violet
197,http://www.wikidata.org/entity/Q5218318,,https://en.wikipedia.org/wiki/Worli_Fort,Point(72.8166 19.0238),12.525,19.0238,72.8166,9,http://www.wikidata.org/entity/Q1785071,Worli Fort,fort,B,violet
198,http://www.wikidata.org/entity/Q5383056,,https://en.wikipedia.org/wiki/Kurla,Point(72.89 19.06),3.827,19.06,72.89,9,http://www.wikidata.org/entity/Q188509,Kurla,suburb,B,violet
206,http://www.wikidata.org/entity/Q5564239,,https://en.wikipedia.org/wiki/Girgaon_Chowpatty,Point(72.811 18.951),18.233,18.951,72.811,9,http://www.wikidata.org/entity/Q40080,Girgaum Chowpatty,beach,B,violet
208,http://www.wikidata.org/entity/Q16508414,,https://en.wikipedia.org/wiki/Kalavantin_Durg,Point(73.2195 18.9826),33.068,18.9826,73.2195,9,http://www.wikidata.org/entity/Q1404375,Kalavantin Durg,rock pinnacle,B,violet
210,http://www.wikidata.org/entity/Q7710235,https://de.wikipedia.org/wiki/Thane_Creek,https://en.wikipedia.org/wiki/Thane_Creek,Point(72.97 19.02),8.187,19.02,72.97,9,http://www.wikidata.org/entity/Q47521,Thane Creek,stream,B,violet
211,http://www.wikidata.org/entity/Q647766,,https://en.wikipedia.org/wiki/Jijamata_Udyaan,Point(72.8367457 18.9781154),14.186,18.9781154,72.8367457,8,http://www.wikidata.org/entity/Q22746,Jijamata Udyaan,urban park,B,violet
213,http://www.wikidata.org/entity/Q3345408,,https://en.wikipedia.org/wiki/Central_Railway_zone,Point(72.82583333 18.975),15.19,18.975,72.82583333,8,http://www.wikidata.org/entity/Q63383608,Central Railway zone,Indian Railways zone,B,violet
214,http://www.wikidata.org/entity/Q3595610,,https://en.wikipedia.org/wiki/Trombay,Point(72.9 19.0),8.906,19.0,72.9,8,http://www.wikidata.org/entity/Q188509,Trombay,suburb,B,violet
218,http://www.wikidata.org/entity/Q3827817,,https://en.wikipedia.org/wiki/Khanderi,Point(72.8131 18.7042),43.042,18.7042,72.8131,8,http://www.wikidata.org/entity/Q23442,Khānderi Island,island,B,violet
219,http://www.wikidata.org/entity/Q3918419,,https://en.wikipedia.org/wiki/Afghan_Church,Point(72.815076 18.903648),22.329,18.903648,72.815076,8,http://www.wikidata.org/entity/Q16970,Afghan Church,church building,B,violet
220,http://www.wikidata.org/entity/Q4854694,,https://en.wikipedia.org/wiki/Bandra_Kurla_Complex,Point(72.863 19.0595),6.451,19.0595,72.863,8,http://www.wikidata.org/entity/Q738570,Bandra Kurla Complex,central business district,B,violet
221,http://www.wikidata.org/entity/Q4881907,,https://en.wikipedia.org/wiki/Belapur_Fort,Point(73.028403 19.005524),13.808,19.005524,73.028403,8,http://www.wikidata.org/entity/Q1785071,Belapur Fort,fort,B,violet
222,http://www.wikidata.org/entity/Q4940545,,https://en.wikipedia.org/wiki/Bombay_Castle,Point(72.83777778 18.93194444),18.416,18.93194444,72.83777778,8,http://www.wikidata.org/entity/Q1785071,Bombay Castle,fort,B,violet
223,http://www.wikidata.org/entity/Q5049681,,https://en.wikipedia.org/wiki/Castella_de_Aguada,Point(72.81858 19.04177),11.509,19.04177,72.81858,8,http://www.wikidata.org/entity/Q57831,Castella de Aguada,fortress,B,violet
225,http://www.wikidata.org/entity/Q5184963,,https://en.wikipedia.org/wiki/Cricket_Club_of_India,Point(72.824745 18.932256),19.079,18.932256,72.824745,8,http://www.wikidata.org/entity/Q847017,Cricket Club of India,sports club,B,violet
227,http://www.wikidata.org/entity/Q5296013,,https://en.wikipedia.org/wiki/Dongri_Fort,Point(72.7922 19.3092806),29.121,19.3092806,72.7922,8,http://www.wikidata.org/entity/Q1785071,Dongri Fort,fort,B,violet
228,http://www.wikidata.org/entity/Q5768035,,https://en.wikipedia.org/wiki/History_of_Maharashtra,Point(72.82 18.97),16.013,18.97,72.82,8,http://www.wikidata.org/entity/Q17524420,history of Maharashtra,aspect of history,B,violet
230,http://www.wikidata.org/entity/Q6363531,,https://en.wikipedia.org/wiki/Kanjur_Marg,Point(72.94 19.13),6.156,19.13,72.94,8,http://www.wikidata.org/entity/Q188509,Kanjurmarg,suburb,B,violet
231,http://www.wikidata.org/entity/Q7363375,,https://en.wikipedia.org/wiki/Upvan_Lake,Point(72.956 19.2216),16.429,19.2216,72.956,8,http://www.wikidata.org/entity/Q23397,Upvan Lake,lake,B,violet
235,http://www.wikidata.org/entity/Q7962402,,https://en.wikipedia.org/wiki/Walkeshwar_Temple,Point(72.794 18.945),19.908,18.945,72.794,8,http://www.wikidata.org/entity/Q842402,Walkeshwar Temple,Hindu temple,B,violet
236,http://www.wikidata.org/entity/Q17080822,,https://en.wikipedia.org/wiki/One_Avighna_Park,Point(72.834862 18.994787),12.932,18.994787,72.834862,8,http://www.wikidata.org/entity/Q11303,One Avighna Park,skyscraper,B,violet
237,http://www.wikidata.org/entity/Q28154049,,https://en.wikipedia.org/wiki/Mumbai_Football_Arena,Point(72.836158833 19.129449),10.652,19.129449,72.836158833333,8,http://www.wikidata.org/entity/Q17350442,Mumbai Football Arena,venue,B,violet
238,http://www.wikidata.org/entity/Q3210038,https://de.wikipedia.org/wiki/Royal_Opera_House_(Mumbai),https://en.wikipedia.org/wiki/Royal_Opera_House_(Mumbai),Point(72.815556 18.956111),17.49,18.956111,72.815556,8,http://www.wikidata.org/entity/Q153562,Royal Opera House (Mumbai),opera house,B,violet
241,http://www.wikidata.org/entity/Q1759799,https://de.wikipedia.org/wiki/Sendeturm_Mumbai,https://en.wikipedia.org/wiki/Mumbai_Television_Tower,Point(72.81646 18.99991),14.0,18.99991,72.81646,8,http://www.wikidata.org/entity/Q11166728,Mumbai Television Tower,television tower,B,violet
243,http://www.wikidata.org/entity/Q2154157,,https://en.wikipedia.org/wiki/Bombay_House,Point(72.8317 18.9318),18.744,18.9318,72.8317,7,http://www.wikidata.org/entity/Q41176,Bombay House,building,B,violet
244,http://www.wikidata.org/entity/Q2723192,,https://en.wikipedia.org/wiki/Mumbai_Trans_Harbour_Link,Point(72.741 19.0821),18.958,19.0821,72.741,7,http://www.wikidata.org/entity/Q12280,Mumbai Trans Harbour Link,bridge,B,violet
245,http://www.wikidata.org/entity/Q2724028,,https://en.wikipedia.org/wiki/Ghodbunder_Fort,Point(72.8883 19.2962),24.562,19.2962,72.8883,7,http://www.wikidata.org/entity/Q1785071,Ghodbunder Fort,fort,B,violet
246,http://www.wikidata.org/entity/Q3085713,,https://en.wikipedia.org/wiki/CIRUS_reactor,Point(72.91861111 19.00777778),7.759,19.00777778,72.91861111,7,http://www.wikidata.org/entity/Q1438105,CIRUS reactor,research reactor,B,violet
247,http://www.wikidata.org/entity/Q3635986,,https://en.wikipedia.org/wiki/Nariman_House,Point(72.827682 18.916517),20.431,18.916517,72.827682,7,http://www.wikidata.org/entity/Q41176,Nariman House,building,B,violet
248,http://www.wikidata.org/entity/Q3827807,,https://en.wikipedia.org/wiki/Karnala_Fort,Point(73.11805556 18.88166667),30.032,18.88166667,73.11805556,7,http://www.wikidata.org/entity/Q1785071,Karnala Fort,fort,B,violet
252,http://www.wikidata.org/entity/Q5188322,,"https://en.wikipedia.org/wiki/Cross_Island,_Mumbai",Point(72.85 18.95),16.04,18.95,72.85,7,http://www.wikidata.org/entity/Q23442,Cross Island,island,B,violet
253,http://www.wikidata.org/entity/Q5320999,,https://en.wikipedia.org/wiki/Maratha_Mandir,Point(72.822134 18.971183),15.765,18.971183,72.822134,7,http://www.wikidata.org/entity/Q17350442,Maratha Mandir,venue,B,violet
254,http://www.wikidata.org/entity/Q5382857,,https://en.wikipedia.org/wiki/Vihar_Lake,Point(72.91 19.144),7.488,19.144,72.91,7,http://www.wikidata.org/entity/Q131681,Vihar Lake,reservoir,B,violet
255,http://www.wikidata.org/entity/Q5456464,,https://en.wikipedia.org/wiki/Jogeshwari,Point(72.85 19.12),8.861,19.12,72.85,7,http://www.wikidata.org/entity/Q188509,Jogeshwari,suburb,B,violet
256,http://www.wikidata.org/entity/Q5460296,,https://en.wikipedia.org/wiki/Flora_Fountain,Point(72.8317 18.9325),18.676,18.9325,72.8317,7,http://www.wikidata.org/entity/Q483453,Flora Fountain,fountain,B,violet
258,http://www.wikidata.org/entity/Q5470698,,https://en.wikipedia.org/wiki/Fort_(Mumbai_precinct),Point(72.8359 18.935),18.215,18.935,72.8359,7,http://www.wikidata.org/entity/Q738570,Fort,central business district,B,violet
259,http://www.wikidata.org/entity/Q5589979,,https://en.wikipedia.org/wiki/Gowalia_Tank,Point(72.8097 18.9625),17.358,18.9625,72.8097,7,http://www.wikidata.org/entity/Q174782,Gowalia Tank,square,B,violet
260,http://www.wikidata.org/entity/Q5950532,,https://en.wikipedia.org/wiki/Hutatma_Chowk,Point(72.831502 18.932431),18.693,18.932431,72.831502,7,http://www.wikidata.org/entity/Q174782,Hutatma Chowk,square,B,violet
263,http://www.wikidata.org/entity/Q6355601,,"https://en.wikipedia.org/wiki/Kamala_Nehru_Park,_Mumbai",Point(72.804960665 18.955061301),18.305,18.955061301617,72.804960665255,7,http://www.wikidata.org/entity/Q22698,Kamala Nehru Park,park,B,violet
265,http://www.wikidata.org/entity/Q6372818,,https://en.wikipedia.org/wiki/Karnala_Bird_Sanctuary,Point(73.1025 18.90861111),26.747,18.90861111,73.1025,7,http://www.wikidata.org/entity/Q473972,Karnala Bird Sanctuary,protected area,B,violet
267,http://www.wikidata.org/entity/Q6734002,,https://en.wikipedia.org/wiki/Mahim_Bay,Point(72.825 19.03),11.421,19.03,72.825,7,http://www.wikidata.org/entity/Q39594,Mahim Bay,bay,B,violet
268,http://www.wikidata.org/entity/Q6935373,,https://en.wikipedia.org/wiki/Mumbra,Point(73.0225 19.18),15.581,19.18,73.0225,7,http://www.wikidata.org/entity/Q3957,Mumbra,town,B,violet
269,http://www.wikidata.org/entity/Q7338999,,https://en.wikipedia.org/wiki/Riwa_Fort,Point(72.859982225 19.051107746),7.086,19.051107746295,72.859982225196,7,http://www.wikidata.org/entity/Q1785071,Riwa Fort,fort,B,violet
270,http://www.wikidata.org/entity/Q7420006,,"https://en.wikipedia.org/wiki/Santacruz,_Mumbai",Point(72.841388888 19.081666666),8.415,19.0843,72.836,7,http://www.wikidata.org/entity/Q188509,"Santacruz, Mumbai",suburb,B,violet
276,http://www.wikidata.org/entity/Q8519695,,https://en.wikipedia.org/wiki/Gilbert_Hill,Point(72.84006667 19.12083333),9.805,19.12083333,72.84006667,7,http://www.wikidata.org/entity/Q8502,Gilbert Hill,mountain,B,violet
278,http://www.wikidata.org/entity/Q17001591,,https://en.wikipedia.org/wiki/Chaitya_Bhoomi,Point(72.833888888 19.025),10.89,19.025,72.833888888889,7,http://www.wikidata.org/entity/Q5003624,Chaitya Bhoomi,memorial,B,violet
279,http://www.wikidata.org/entity/Q1883317,https://de.wikipedia.org/wiki/Madh_Fort,https://en.wikipedia.org/wiki/Madh_Fort,Point(72.79478611 19.13228333),14.626,19.13228333,72.79478611,7,http://www.wikidata.org/entity/Q1785071,Madh Fort,fort,B,violet
280,http://www.wikidata.org/entity/Q169701,,https://en.wikipedia.org/wiki/Adarsh_Housing_Society_scandal,Point(72.8167 18.9093),21.7,18.9093,72.8167,6,http://www.wikidata.org/entity/Q934744,Adarsh Housing Society scam,political scandal,B,violet
281,http://www.wikidata.org/entity/Q297847,,https://en.wikipedia.org/wiki/CBD_Belapur,Point(73.03944444 19.01694444),14.121,19.01694444,73.03944444,6,http://www.wikidata.org/entity/Q738570,CBD Belapur,central business district,B,violet
284,http://www.wikidata.org/entity/Q4838092,,https://en.wikipedia.org/wiki/Babulnath_Temple,Point(72.809772222 18.966363888),17.038,18.966363888889,72.809772222222,6,http://www.wikidata.org/entity/Q842402,Babulnath,Hindu temple,B,violet
285,http://www.wikidata.org/entity/Q4855094,,https://en.wikipedia.org/wiki/Banganga_Tank,Point(72.79359167 18.94688333),19.782,18.94688333,72.79359167,6,http://www.wikidata.org/entity/Q7698769,Banganga Tank,temple tank,B,violet
286,http://www.wikidata.org/entity/Q4856120,,https://en.wikipedia.org/wiki/Mankhurd,Point(72.93 19.05),3.191,19.05,72.93,6,http://www.wikidata.org/entity/Q188509,Mankhurd,suburb,B,violet
291,http://www.wikidata.org/entity/Q4900993,,https://en.wikipedia.org/wiki/Bhandup,Point(72.93 19.14),7.007,19.14,72.93,6,http://www.wikidata.org/entity/Q188509,Bhandup,suburb,B,violet
292,http://www.wikidata.org/entity/Q5002452,,https://en.wikipedia.org/wiki/Butcher_Island,Point(72.9 18.96),13.257,18.96,72.9,6,http://www.wikidata.org/entity/Q23442,Butcher Island,island,B,violet
294,http://www.wikidata.org/entity/Q5303985,,https://en.wikipedia.org/wiki/Dr._Bhau_Daji_Lad_Museum,Point(72.834806 18.979472),14.198,18.979472,72.834806,6,http://www.wikidata.org/entity/Q33506,Dr. Bhau Daji Lad Museum,museum,B,violet
295,http://www.wikidata.org/entity/Q5471207,,"https://en.wikipedia.org/wiki/Fort_George,_India",Point(72.83759 18.9409),17.557,18.9409,72.83759,6,http://www.wikidata.org/entity/Q1785071,Fort George,fort,B,violet
296,http://www.wikidata.org/entity/Q5596343,,https://en.wikipedia.org/wiki/Grant_Medical_College_and_Sir_Jamshedjee_Jeejeebhoy_Group_of_Hospitals,Point(72.83475 18.964143),15.549,18.964143,72.83475,6,http://www.wikidata.org/entity/Q494230,Grant Medical College and Sir Jamshedjee Jeejeebhoy Group of Hospitals,medical school,B,violet
298,http://www.wikidata.org/entity/Q5647995,,https://en.wikipedia.org/wiki/Hanging_Gardens_of_Mumbai,Point(72.804937 18.956724),18.17,18.956724,72.804937,6,http://www.wikidata.org/entity/Q2332212,Hanging Gardens of Mumbai,hanging garden,B,violet
300,http://www.wikidata.org/entity/Q6732911,,"https://en.wikipedia.org/wiki/Mahalakshmi_Temple,_Mumbai",Point(72.80676 18.97771),16.378,18.97771,72.80676,6,http://www.wikidata.org/entity/Q842402,"Mahalakshmi Temple, Mumbai",Hindu temple,B,violet
301,http://www.wikidata.org/entity/Q6740929,,https://en.wikipedia.org/wiki/Malad,Point(72.848611111 19.186111111),14.29,19.186111111111,72.848611111111,6,http://www.wikidata.org/entity/Q188509,Malad,suburb,B,violet
302,http://www.wikidata.org/entity/Q6935217,,https://en.wikipedia.org/wiki/Mulund,Point(72.956 19.171680555),11.085,19.171680555556,72.956,6,http://www.wikidata.org/entity/Q188509,Mulund,suburb,B,violet
303,http://www.wikidata.org/entity/Q6987907,,https://en.wikipedia.org/wiki/Nehru_Science_Centre,Point(72.818669 18.990633),14.485,18.990633,72.818669,6,http://www.wikidata.org/entity/Q588140,Nehru Science Centre,science museum,B,violet
304,http://www.wikidata.org/entity/Q7085433,,https://en.wikipedia.org/wiki/Old_Woman%27s_Island,Point(72.829027777 18.918888888),20.132,18.918888888889,72.829027777778,6,http://www.wikidata.org/entity/Q23442,Old Woman's Island,island,B,violet
305,http://www.wikidata.org/entity/Q7237204,,https://en.wikipedia.org/wiki/Prabalgad,Point(73.225294444 18.971194444),34.066,18.971194444444,73.225294444444,6,http://www.wikidata.org/entity/Q57831,Prabalgad,fortress,B,violet
306,http://www.wikidata.org/entity/Q7499202,,"https://en.wikipedia.org/wiki/Shiv_Mandir,_Ambarnath",Point(73.17664275 19.1986181),30.008,19.1986181,73.17664275,6,http://www.wikidata.org/entity/Q842402,"Shiv Mandir, Ambarnath",Hindu temple,B,violet
307,http://www.wikidata.org/entity/Q7525357,,https://en.wikipedia.org/wiki/Sion_Hillock_Fort,Point(72.86773 19.04666),6.597,19.04666,72.86773,6,http://www.wikidata.org/entity/Q1785071,Sion Hillock Fort,fort,B,violet
309,http://www.wikidata.org/entity/Q7883706,,https://en.wikipedia.org/wiki/Underi,Point(72.841280555 18.705530555),42.209,18.705530555556,72.841280555556,6,http://www.wikidata.org/entity/Q23442,Underi Island,island,B,violet
312,http://www.wikidata.org/entity/Q10310838,,https://en.wikipedia.org/wiki/Mira_Road,Point(72.871111111 19.284166666),23.576,19.284166666667,72.871111111111,6,http://www.wikidata.org/entity/Q188509,Mira Road,suburb,B,violet
314,http://www.wikidata.org/entity/Q15260223,,https://en.wikipedia.org/wiki/Mumbai_Port,Point(72.765 18.93833333),22.575,18.93833333,72.765,6,http://www.wikidata.org/entity/Q44782,Mumbai Port Trust,port,B,violet
318,http://www.wikidata.org/entity/Q2010580,https://de.wikipedia.org/wiki/Three_Sixty_West,https://en.wikipedia.org/wiki/Three_Sixty_West,Point(72.823167 19.011343),12.674,19.011343,72.823167,6,http://www.wikidata.org/entity/Q1497364,Three Sixty West Complex,building complex,B,violet
319,http://www.wikidata.org/entity/Q31509,,https://en.wikipedia.org/wiki/Taraporewala_Aquarium,Point(72.8201 18.9493),17.791,18.9493,72.8201,6,http://www.wikidata.org/entity/Q2281788,Taraporewala Aquarium,public aquarium,B,violet
320,http://www.wikidata.org/entity/Q32822,,https://en.wikipedia.org/wiki/King_Edward_Memorial_Hospital_and_Seth_Gordhandas_Sunderdas_Medical_College,Point(72.8418 19.0017),11.873,19.0017,72.8418,6,http://www.wikidata.org/entity/Q494230,King Edward Memorial Hospital and Seth Gordhandas Sunderdas Medical College,medical school,B,violet
321,http://www.wikidata.org/entity/Q547270,,https://en.wikipedia.org/wiki/Lodha_Bellissimo,Point(72.8286213 18.9873173),13.985,18.9873173,72.8286213,5,http://www.wikidata.org/entity/Q11303,Lodha Bellissimo,skyscraper,B,violet
324,http://www.wikidata.org/entity/Q3532663,,https://en.wikipedia.org/wiki/Homi_Bhabha_National_Institute,Point(72.926008333 19.033805555),4.884,19.033805555556,72.926008333333,5,http://www.wikidata.org/entity/Q3520135,Homi Bhabha National Institute,deemed university,B,violet
327,http://www.wikidata.org/entity/Q3634490,,https://en.wikipedia.org/wiki/Mumbai_Harbour,Point(72.85 18.96),15.066,18.96,72.85,5,http://www.wikidata.org/entity/Q283202,Mumbai Harbour,harbor,B,violet
328,http://www.wikidata.org/entity/Q4596883,,"https://en.wikipedia.org/wiki/Chor_Bazaar,_Mumbai",Point(72.8272 18.9603),16.365,18.9603,72.8272,5,http://www.wikidata.org/entity/Q385870,"Chor Bazaar, Mumbai",flea market,B,violet
331,http://www.wikidata.org/entity/Q4832044,,https://en.wikipedia.org/wiki/Azad_Maidan,Point(72.831667 18.940278),17.937,18.940278,72.831667,5,http://www.wikidata.org/entity/Q174782,Azad Maidan,square,B,violet
335,http://www.wikidata.org/entity/Q4856080,,https://en.wikipedia.org/wiki/Govandi,Point(72.9 19.05),3.794,19.05,72.9,5,http://www.wikidata.org/entity/Q188509,Govandi,suburb,B,violet
337,http://www.wikidata.org/entity/Q4901855,,https://en.wikipedia.org/wiki/Bhiwandi-Nizampur_Municipal_Corporation,Point(73.064129 19.298969),28.829,19.298969,73.064129,5,http://www.wikidata.org/entity/Q6936225,Bhiwandi-Nizampur Municipal Corporation,municipal corporation in India,B,violet
358,http://www.wikidata.org/entity/Q5977875,,https://en.wikipedia.org/wiki/Madh_Island,Point(72.789 19.147),15.907,19.147,72.789,5,http://www.wikidata.org/entity/Q41176,Madh Island,building,B,violet
359,http://www.wikidata.org/entity/Q6176452,,https://en.wikipedia.org/wiki/Jehangir_Art_Gallery,Point(72.831703 18.9274559),19.163,18.9274559,72.831703,5,http://www.wikidata.org/entity/Q1007870,Jehangir Art Gallery,art gallery,B,violet
362,http://www.wikidata.org/entity/Q6402604,,https://en.wikipedia.org/wiki/Khotachiwadi,Point(72.8195828 18.9555129),17.276,18.9555129,72.8195828,5,http://www.wikidata.org/entity/Q106520522,Khotachiwadi,heritage village,B,violet
366,http://www.wikidata.org/entity/Q6481987,,https://en.wikipedia.org/wiki/Lamington_Road,Point(72.8179252 18.9628378),16.756,18.9628378,72.8179252,5,http://www.wikidata.org/entity/Q83620,Lamington Road,thoroughfare,B,violet
367,http://www.wikidata.org/entity/Q6668660,,https://en.wikipedia.org/wiki/Lokhandwala_Minerva,Point(72.8278304 18.9870497),14.064,18.9870497,72.8278304,5,http://www.wikidata.org/entity/Q11303,Lokhandwala Minerva,skyscraper,B,violet
368,http://www.wikidata.org/entity/Q6752198,,"https://en.wikipedia.org/wiki/Mantralaya,_Mumbai",Point(72.826930812 18.92722635),19.436,18.927226350234,72.826930812963,5,http://www.wikidata.org/entity/Q16831714,"Mantralaya, Mumbai",government building,B,violet
369,http://www.wikidata.org/entity/Q6959545,,https://en.wikipedia.org/wiki/Naigaon,Point(72.846343 19.351467),31.463,19.351467,72.846343,5,http://www.wikidata.org/entity/Q532,Naigaon,village,B,violet
374,http://www.wikidata.org/entity/Q7201100,,https://en.wikipedia.org/wiki/Planet_Godrej,Point(72.83 18.98083333),14.414,18.98083333,72.83,5,http://www.wikidata.org/entity/Q11303,Planet Godrej,skyscraper,B,violet
375,http://www.wikidata.org/entity/Q7245963,,https://en.wikipedia.org/wiki/Prithvi_Theatre,Point(72.82572 19.10622),10.543,19.10622,72.82572,5,http://www.wikidata.org/entity/Q2416217,Prithvi Theatre,theatre troupe,B,violet
378,http://www.wikidata.org/entity/Q7458299,,https://en.wikipedia.org/wiki/Sewri_Fort,Point(72.860363 19.000635),10.684,19.000635,72.860363,5,http://www.wikidata.org/entity/Q811979,Sewri Fort,architectural structure,B,violet
379,http://www.wikidata.org/entity/Q7499285,,https://en.wikipedia.org/wiki/Shivaji_Park,Point(72.838047222 19.026722222),10.418,19.026722222222,72.838047222222,5,http://www.wikidata.org/entity/Q22698,Shivaji Park,park,B,violet
380,http://www.wikidata.org/entity/Q7527516,,https://en.wikipedia.org/wiki/Sir_J._J._School_of_Art,Point(72.83352 18.94505),17.383,18.94505,72.83352,5,http://www.wikidata.org/entity/Q383092,Sir Jamsetjee Jeejebhoy School of Art,art academy,B,violet
381,http://www.wikidata.org/entity/Q7590663,,"https://en.wikipedia.org/wiki/St._Michael%27s_Church,_Mumbai",Point(72.8406 19.0425),9.337,19.0425,72.8406,5,http://www.wikidata.org/entity/Q16970,St. Michael's Church,church building,B,violet
382,http://www.wikidata.org/entity/Q7591927,,"https://en.wikipedia.org/wiki/St._Thomas_Cathedral,_Mumbai",Point(72.8336 18.9317),18.654,18.9317,72.8336,5,http://www.wikidata.org/entity/Q56242250,"St. Thomas Cathedral, Mumbai",Anglican or Episcopal cathedral,B,violet
386,http://www.wikidata.org/entity/Q7810359,,https://en.wikipedia.org/wiki/Titwala,Point(73.223 19.299),40.124,19.299,73.223,5,http://www.wikidata.org/entity/Q515,Titwala,city,B,violet
387,http://www.wikidata.org/entity/Q7916308,,https://en.wikipedia.org/wiki/Vasai_Creek,Point(72.875 19.315),26.851,19.315,72.875,5,http://www.wikidata.org/entity/Q47521,Vasai Creek,stream,B,violet
392,http://www.wikidata.org/entity/Q12061085,,https://en.wikipedia.org/wiki/Lalbaugcha_Raja,Point(72.836666666 18.990555555),13.142,18.990555555556,72.836666666667,5,http://www.wikidata.org/entity/Q842402,Lalbaugcha Raja,Hindu temple,B,violet
393,http://www.wikidata.org/entity/Q12436475,,https://en.wikipedia.org/wiki/New_Panvel,Point(73.1 18.98),21.684,18.98,73.1,5,http://www.wikidata.org/entity/Q2128997,New Panvel,Node,B,violet
397,http://www.wikidata.org/entity/Q14957064,,"https://en.wikipedia.org/wiki/The_Institute_of_Science,_Mumbai",Point(72.830268264 18.926107635),19.367,18.926107635224,72.830268264735,5,http://www.wikidata.org/entity/Q4671277,Institute of Science,academic institution,B,violet
398,http://www.wikidata.org/entity/Q15261119,,"https://en.wikipedia.org/wiki/National_Gallery_of_Modern_Art,_Mumbai",Point(72.8313 18.9258),19.344,18.9258,72.8313,5,http://www.wikidata.org/entity/Q17431399,"National Gallery of Modern Art, Mumbai",national museum,B,violet
400,http://www.wikidata.org/entity/Q17005917,,,Point(72.8258 18.9647),16.069,18.9647,72.8258,5,http://www.wikidata.org/entity/Q44539,ISKCON temple Mumbai,temple,B,violet
405,http://www.wikidata.org/entity/Q41336956,,https://en.wikipedia.org/wiki/2017_Mumbai_stampede,Point(72.835976 19.007533),11.877,19.007533,72.835976,5,http://www.wikidata.org/entity/Q2165983,2017 Mumbai stampede,stampede,B,violet
407,http://www.wikidata.org/entity/Q827761,https://de.wikipedia.org/wiki/Bombay_(Insel),https://en.wikipedia.org/wiki/Isle_of_Bombay,Point(72.89111 19.13667),7.305,19.13667,72.89111,5,http://www.wikidata.org/entity/Q23442,Isle of Bombay,island,B,violet
408,http://www.wikidata.org/entity/Q37841,,https://en.wikipedia.org/wiki/Pandavgad_Falls,Point(73.051111111 19.063055555),13.731,19.063055555556,73.051111111111,5,http://www.wikidata.org/entity/Q34038,Pandavgad Falls,waterfall,B,violet
410,http://www.wikidata.org/entity/Q261089,,"https://en.wikipedia.org/wiki/Raj_Bhavan,_Mumbai",Point(72.793436 18.940194),20.346,18.940194,72.793436,4,http://www.wikidata.org/entity/Q811430,Raj Bhavan,fixed construction,C,yellow
413,http://www.wikidata.org/entity/Q3015011,,https://en.wikipedia.org/wiki/INS_Shikra,Point(72.82934722 18.91378611),20.615,18.91378611,72.82934722,4,http://www.wikidata.org/entity/Q6981985,INS Shikra,naval air station,C,yellow
414,http://www.wikidata.org/entity/Q3172573,,https://en.wikipedia.org/wiki/Air_India_Building,Point(72.82200278 18.93048333),19.4,18.93048333,72.82200278,4,http://www.wikidata.org/entity/Q41176,Air India Building,building,C,yellow
418,http://www.wikidata.org/entity/Q4346584,,https://en.wikipedia.org/wiki/Shreepati_Arcade,Point(72.8124194 18.9628316),17.138,18.9628316,72.8124194,4,http://www.wikidata.org/entity/Q18142,Shreepati Arcade,tower block,C,yellow
419,http://www.wikidata.org/entity/Q4698032,,https://en.wikipedia.org/wiki/Air_India_Flight_403,Point(72.87 19.089),5.545,19.089,72.87,4,http://www.wikidata.org/entity/Q744913,Air India Flight 403,aviation accident,C,yellow
420,http://www.wikidata.org/entity/Q4698845,,https://en.wikipedia.org/wiki/Airoli_Bridge,Point(72.980509 19.150712),10.241,19.150712,72.980509,4,http://www.wikidata.org/entity/Q12280,Airoli Bridge,bridge,C,yellow
423,http://www.wikidata.org/entity/Q4800141,,https://en.wikipedia.org/wiki/Mumbai_Central_Jail,Point(72.82976111 18.98519444),14.073,18.98519444,72.82976111,4,http://www.wikidata.org/entity/Q40357,Arthur Road Jail,prison,C,yellow
424,http://www.wikidata.org/entity/Q4839061,,https://en.wikipedia.org/wiki/Back_Bay_(Mumbai),Point(72.81 18.94),19.256,18.94,72.81,4,http://www.wikidata.org/entity/Q39594,Back Bay,bay,C,yellow
435,http://www.wikidata.org/entity/Q4933335,,https://en.wikipedia.org/wiki/Marol,Point(72.882744444 19.119219444),6.161,19.119219444444,72.882744444444,4,http://www.wikidata.org/entity/Q3257686,Marol,locality,C,yellow
437,http://www.wikidata.org/entity/Q4934244,,https://en.wikipedia.org/wiki/Kopar_Khairane,Point(73.010555555 19.103055555),9.794,19.103055555556,73.010555555556,4,http://www.wikidata.org/entity/Q188509,Kopar Khairane,suburb,C,yellow
450,http://www.wikidata.org/entity/Q5167851,,https://en.wikipedia.org/wiki/Cooperage_Ground,Point(72.828734 18.924449),19.607,18.924449,72.828734,4,http://www.wikidata.org/entity/Q1154710,Cooperage Ground,association football venue,C,yellow
453,http://www.wikidata.org/entity/Q5179489,,https://en.wikipedia.org/wiki/Cowasji_Jehangir_Hall,Point(72.8313357 18.9259205),19.33,18.9259205,72.8313357,4,http://www.wikidata.org/entity/Q240854,Sir Cowasji Jehangir Public Hall,hall,C,yellow
455,http://www.wikidata.org/entity/Q5193802,,https://en.wikipedia.org/wiki/Cumbala_Hill,Point(72.80583333 18.96583333),17.368,18.96583333,72.80583333,4,http://www.wikidata.org/entity/Q54050,Cumbala Hill,hill,C,yellow
464,http://www.wikidata.org/entity/Q5383080,,https://en.wikipedia.org/wiki/Vikhroli,Point(72.94 19.11),4.11,19.11,72.94,4,http://www.wikidata.org/entity/Q687312,Vikhroli,Vorort,C,yellow
465,http://www.wikidata.org/entity/Q5395341,,https://en.wikipedia.org/wiki/Eros_Cinema,Point(72.827869317 18.932130634),18.918,18.932130634134,72.827869317778,4,http://www.wikidata.org/entity/Q41253,Eros Cinema,movie theater,C,yellow
466,http://www.wikidata.org/entity/Q5455373,,https://en.wikipedia.org/wiki/Mahalaxmi_Racecourse,Point(72.82 18.984),14.886,18.984,72.82,4,http://www.wikidata.org/entity/Q11822917,Mahalaxmi Racecourse,horse racing venue,C,yellow
468,http://www.wikidata.org/entity/Q5527023,,https://en.wikipedia.org/wiki/Gate_of_Mercy_Synagogue,Point(72.836373 18.95226),16.545,18.95226,72.836373,4,http://www.wikidata.org/entity/Q34627,Gate of Mercy Synagogue,synagogue,C,yellow
478,http://www.wikidata.org/entity/Q6156491,,https://en.wikipedia.org/wiki/Japan_Air_Lines_Flight_472_(1972),Point(72.83888889 19.09916667),8.993,19.09916667,72.83888889,4,http://www.wikidata.org/entity/Q3149875,Japan Airlines Flight 472 (1972),aviation incident,C,yellow
479,http://www.wikidata.org/entity/Q6202649,,https://en.wikipedia.org/wiki/Jinnah_House,Point(72.8014 18.9532),18.71,18.9532,72.8014,4,http://www.wikidata.org/entity/Q850107,Jinnah House,bungalow,C,yellow
482,http://www.wikidata.org/entity/Q6345392,,https://en.wikipedia.org/wiki/Kadeshwari_Devi_Temple,Point(72.81981667 19.04244444),11.361,19.04244444,72.81981667,4,http://www.wikidata.org/entity/Q842402,Kadeshwari Devi Temple,Hindu temple,C,yellow
483,http://www.wikidata.org/entity/Q6354856,,https://en.wikipedia.org/wiki/Kalyan_Airstrip,Point(73.116852777 19.179002777),23.434,19.179002777778,73.116852777778,4,http://www.wikidata.org/entity/Q644371,Kalyan International Airport,international airport,C,yellow
491,http://www.wikidata.org/entity/Q6778535,,https://en.wikipedia.org/wiki/Marv%C3%A9_Beach,Point(72.7968 19.1973),18.67,19.1973,72.7968,4,http://www.wikidata.org/entity/Q40080,Marvé Beach,beach,C,yellow
496,http://www.wikidata.org/entity/Q6936220,,"https://en.wikipedia.org/wiki/Municipal_Corporation_Building,_Mumbai",Point(72.8353 18.94),17.766,18.94,72.8353,4,http://www.wikidata.org/entity/Q811979,"Municipal Corporation Building, Mumbai",architectural structure,C,yellow
497,http://www.wikidata.org/entity/Q6973662,,https://en.wikipedia.org/wiki/Indian_Institute_of_Management_Mumbai,Point(72.905 19.13916667),7.067,19.13916667,72.905,4,http://www.wikidata.org/entity/Q1143635,Indian Institute of Management Mumbai,business school,C,yellow
503,http://www.wikidata.org/entity/Q7106633,,https://en.wikipedia.org/wiki/Oshiwara_River,Point(72.81638889 19.15916667),14.284,19.15916667,72.81638889,4,http://www.wikidata.org/entity/Q4022,Oshiwara River,river,C,yellow
504,http://www.wikidata.org/entity/Q7208430,,https://en.wikipedia.org/wiki/Poisar_River,Point(72.833 19.1833),14.983,19.1833,72.833,4,http://www.wikidata.org/entity/Q4022,Poisar River,river,C,yellow
506,http://www.wikidata.org/entity/Q7307906,,https://en.wikipedia.org/wiki/Regal_Cinema,Point(72.832460181 18.924618876),19.399,18.924618876001,72.832460181842,4,http://www.wikidata.org/entity/Q41253,Regal Cinema,movie theater,C,yellow
512,http://www.wikidata.org/entity/Q7503898,,"https://en.wikipedia.org/wiki/Shri_Swaminarayan_Mandir,_Mumbai",Point(72.83021667 18.953975),16.747,18.953975,72.83021667,4,http://www.wikidata.org/entity/Q842402,"Shri Swaminarayan Mandir, Mumbai",Hindu temple,C,yellow
513,http://www.wikidata.org/entity/Q7508175,,https://en.wikipedia.org/wiki/Siddhivinayak_Mahaganapati_Temple,Point(73.22166667 19.30055556),40.12,19.30055556,73.22166667,4,http://www.wikidata.org/entity/Q842402,Siddhivinayak Mahaganapati Temple,Hindu temple,C,yellow
514,http://www.wikidata.org/entity/Q7525343,,"https://en.wikipedia.org/wiki/Sion,_Mumbai",Point(72.86 19.04),7.679,19.04,72.86,4,http://www.wikidata.org/entity/Q188509,"Sion, Mumbai",suburb,C,yellow
520,http://www.wikidata.org/entity/Q7586832,,"https://en.wikipedia.org/wiki/St._Andrew%27s_Church,_Mumbai",Point(72.8244 19.055),10.492,19.055,72.8244,4,http://www.wikidata.org/entity/Q16970,"St. Andrew's Church, Mumbai",church building,C,yellow
521,http://www.wikidata.org/entity/Q7588954,,"https://en.wikipedia.org/wiki/St._John_the_Baptist_Church,_Mumbai",Point(72.975816 19.194967),14.258,19.194967,72.975816,4,http://www.wikidata.org/entity/Q16970,"St. John the Baptist Church, Mumbai",church building,C,yellow
525,http://www.wikidata.org/entity/Q7853750,,https://en.wikipedia.org/wiki/Turbhe,Point(73.1 19.4),40.466,19.4,73.1,4,http://www.wikidata.org/entity/Q3957,Turbhe,town,C,yellow
529,http://www.wikidata.org/entity/Q13115923,,https://en.wikipedia.org/wiki/Irshalgad,Point(73.232031 18.933568),36.372,18.933568,73.232031,4,http://www.wikidata.org/entity/Q1785071,Irshalgad,fort,C,yellow
534,http://www.wikidata.org/entity/Q15233143,,https://en.wikipedia.org/wiki/Kamandurg_Fort,Point(72.95638889 19.3825),34.11,19.3825,72.95638889,4,http://www.wikidata.org/entity/Q1785071,Kamandurg,fort,C,yellow
535,http://www.wikidata.org/entity/Q15244088,,https://en.wikipedia.org/wiki/Malad_Creek,Point(72.8 19.13333333),14.18,19.13333333,72.8,4,http://www.wikidata.org/entity/Q27250,Malad Creek,tidal creek,C,yellow
536,http://www.wikidata.org/entity/Q15252736,,https://en.wikipedia.org/wiki/Mehboob_Studio,Point(72.8253194 19.0523641),10.472,19.0523641,72.8253194,4,http://www.wikidata.org/entity/Q375336,Mehboob Studio,film studio,C,yellow
537,http://www.wikidata.org/entity/Q15265526,,https://en.wikipedia.org/wiki/Parsik_Hill,Point(73.02160278 19.16008611),13.972,19.16008611,73.02160278,4,http://www.wikidata.org/entity/Q4421,Parsik Hill,forest,C,yellow
539,http://www.wikidata.org/entity/Q17052177,,https://en.wikipedia.org/wiki/Japanese_School_of_Mumbai,Point(72.9145324 19.1199595),4.774,19.1199595,72.9145324,4,http://www.wikidata.org/entity/Q8287445,Japanese School of Mumbai,nihonjin gakkō,C,yellow
540,http://www.wikidata.org/entity/Q17057162,,https://en.wikipedia.org/wiki/National_Centre_for_the_Performing_Arts_(India),Point(72.8206 18.9251),19.984,18.9251,72.8206,4,http://www.wikidata.org/entity/Q3469910,National Centre for the Performing Arts,performing arts center,C,yellow
544,http://www.wikidata.org/entity/Q30694440,,https://en.wikipedia.org/wiki/Dhanraj_Mahal,Point(72.833567424 18.924154166),19.389,18.92415416622,72.833567424186,4,http://www.wikidata.org/entity/Q41176,Dhanraj Mahal,building,C,yellow
545,http://www.wikidata.org/entity/Q60754378,,https://en.wikipedia.org/wiki/Masunda_Lake,Point(72.97515 19.19303),14.033,19.19303,72.97515,4,http://www.wikidata.org/entity/Q23397,Masunda Lake,lake,C,yellow
546,http://www.wikidata.org/entity/Q65078344,,https://en.wikipedia.org/wiki/Palava_City,Point(73.073 19.168),18.842,19.168,73.073,4,http://www.wikidata.org/entity/Q1074523,Palava City,planned community,C,yellow
547,http://www.wikidata.org/entity/Q97175288,,"https://en.wikipedia.org/wiki/University_Library,_Mumbai",Point(72.830173932 18.929654677),19.03,18.929654677997,72.830173932178,4,http://www.wikidata.org/entity/Q856234,"University Library, Mumbai",academic library,C,yellow
548,http://www.wikidata.org/entity/Q1144908,https://de.wikipedia.org/wiki/Fort_Stikine,https://en.wikipedia.org/wiki/SS_Fort_Stikine,Point(72.844977 18.952777),16.025,18.952777,72.844977,4,http://www.wikidata.org/entity/Q105999,SS Fort Stikine,cargo ship,C,yellow
551,http://www.wikidata.org/entity/Q1925395,,"https://en.wikipedia.org/wiki/Sandor,_Palghar",Point(72.804165 19.366539),34.412,19.366539,72.804165,3,http://www.wikidata.org/entity/Q16970,Sandor,church building,C,yellow
553,http://www.wikidata.org/entity/Q3631441,,"https://en.wikipedia.org/wiki/Bombay_Scottish_School,_Mahim",Point(72.83916667 19.03402778),9.898,19.03402778,72.83916667,3,http://www.wikidata.org/entity/Q1493752,Bombay Scottish School,day school,C,yellow
554,http://www.wikidata.org/entity/Q3633944,,https://en.wikipedia.org/wiki/Madras_Stock_Exchange,Point(72.833589 18.929681),18.85,18.929681,72.833589,3,http://www.wikidata.org/entity/Q11691,Madras Stock Exchange,stock exchange,C,yellow
555,http://www.wikidata.org/entity/Q4566042,,https://en.wikipedia.org/wiki/1947_Ramdas_ship_disaster,Point(72.81 18.91),21.999,18.91,72.81,3,http://www.wikidata.org/entity/Q906512,1947 Ramdas Ship Disaster,shipwrecking,C,yellow
556,http://www.wikidata.org/entity/Q4597651,,https://en.wikipedia.org/wiki/2000_Mumbai_landslide,Point(72.8961 19.0908),3.037,19.0908,72.8961,3,http://www.wikidata.org/entity/Q167903,2000 Mumbai landslide,landslide,C,yellow
562,http://www.wikidata.org/entity/Q4741932,,https://en.wikipedia.org/wiki/Ambu_Island,Point(72.7833 19.1333),15.775,19.1333,72.7833,3,http://www.wikidata.org/entity/Q23442,Ambu Island,island,C,yellow
563,http://www.wikidata.org/entity/Q4754330,,https://en.wikipedia.org/wiki/Andheri_Sports_Complex,Point(72.835295 19.129407),10.726,19.129407,72.835295,3,http://www.wikidata.org/entity/Q1076486,Andheri Sports Complex,sports venue,C,yellow
571,http://www.wikidata.org/entity/Q4854692,,https://en.wikipedia.org/wiki/Bandra_Talao,Point(72.838245 19.056424),9.043,19.056424,72.838245,3,http://www.wikidata.org/entity/Q131681,Bandra Talao,reservoir,C,yellow
572,http://www.wikidata.org/entity/Q4854721,,https://en.wikipedia.org/wiki/Bandstand_Promenade,Point(72.819130555 19.042719444),11.418,19.042719444444,72.819130555556,3,http://www.wikidata.org/entity/Q79007,Bandstand Promenade,street,C,yellow
581,http://www.wikidata.org/entity/Q5059631,,https://en.wikipedia.org/wiki/Centre_for_Excellence_in_Basic_Sciences,Point(72.85518 19.070555),6.996,19.070555,72.85518,3,http://www.wikidata.org/entity/Q31855,"Center for Excellence in Basic Sciences, Mumbai",research institute,C,yellow
582,http://www.wikidata.org/entity/Q5061255,,https://en.wikipedia.org/wiki/Central_Institute_of_Fisheries_Education,Point(72.816088888 19.139841666),13.051,19.139841666667,72.816088888889,3,http://www.wikidata.org/entity/Q3520135,Central Institute of Fisheries Education,deemed university,C,yellow
587,http://www.wikidata.org/entity/Q5121998,,https://en.wikipedia.org/wiki/Cotton_Green,Point(72.8441 18.9862),13.001,18.9862,72.8441,3,http://www.wikidata.org/entity/Q188509,Cotton Green,suburb,C,yellow
588,http://www.wikidata.org/entity/Q5141858,,https://en.wikipedia.org/wiki/Colaba_Causeway,Point(72.831783228 18.923542723),19.539,18.923542723695,72.831783228176,3,http://www.wikidata.org/entity/Q83620,Colaba Causeway,thoroughfare,C,yellow
590,http://www.wikidata.org/entity/Q5164580,,"https://en.wikipedia.org/wiki/Consulate_General_of_the_United_States,_Mumbai",Point(72.86861111 19.065),5.714,19.065,72.86861111,3,http://www.wikidata.org/entity/Q372690,"Consulate General of the United States, Mumbai",consulate general,C,yellow
592,http://www.wikidata.org/entity/Q5207905,,https://en.wikipedia.org/wiki/Dadoji_Kondadev_Stadium,Point(72.979758 19.192447),14.176,19.192447,72.979758,3,http://www.wikidata.org/entity/Q682943,Dadaji Kondadev Stadium,cricket field,C,yellow
595,http://www.wikidata.org/entity/Q5532120,,"https://en.wikipedia.org/wiki/General_Post_Office,_Mumbai",Point(72.837038888 18.938766666),17.792,18.938766666667,72.837038888889,3,http://www.wikidata.org/entity/Q61443591,"General Post Office, Mumbai",head post office,C,yellow
596,http://www.wikidata.org/entity/Q5571343,,https://en.wikipedia.org/wiki/Gloria_Church,Point(72.834166666 18.975),14.626,18.975,72.834166666667,3,http://www.wikidata.org/entity/Q16970,Gloria Church,church building,C,yellow
599,http://www.wikidata.org/entity/Q5638342,,https://en.wikipedia.org/wiki/Haffkine_Institute,Point(72.844 19.002055555),11.683,19.002055555556,72.844,3,http://www.wikidata.org/entity/Q31855,Haffkine Institute,research institute,C,yellow
600,http://www.wikidata.org/entity/Q5885129,,"https://en.wikipedia.org/wiki/Holy_Cross_Church,_Kurla",Point(72.887333333 19.083444444),3.635,19.083444444444,72.887333333333,3,http://www.wikidata.org/entity/Q16970,"Holy Cross Church, Kurla",church building,C,yellow
601,http://www.wikidata.org/entity/Q5885241,,https://en.wikipedia.org/wiki/Holy_Cross_High_School_(Kurla),Point(72.886004 19.08295),3.763,19.08295,72.886004,3,http://www.wikidata.org/entity/Q159334,Holy Cross High School,secondary school,C,yellow
602,http://www.wikidata.org/entity/Q6024957,,https://en.wikipedia.org/wiki/Indira_Gandhi_Institute_of_Development_Research,Point(72.877944 19.167178),10.963,19.167178,72.877944,3,http://www.wikidata.org/entity/Q31855,Indira Gandhi Institute of Development Research,research institute,C,yellow
604,http://www.wikidata.org/entity/Q6350430,,https://en.wikipedia.org/wiki/Kalamb_Beach,Point(72.761435 19.403418),39.937,19.403418,72.761435,3,http://www.wikidata.org/entity/Q40080,Kalamb Beach,beach,C,yellow
611,http://www.wikidata.org/entity/Q6378912,,https://en.wikipedia.org/wiki/Kausa,Point(73.02500833 19.16750556),14.789,19.16750556,73.02500833,3,http://www.wikidata.org/entity/Q188509,Kausa,suburb,C,yellow
612,http://www.wikidata.org/entity/Q6387109,,https://en.wikipedia.org/wiki/Kemps_Corner,Point(72.8054 18.9629),17.634,18.9629,72.8054,3,http://www.wikidata.org/entity/Q15642541,Kemps Corner,human-geographic territorial entity,C,yellow
620,http://www.wikidata.org/entity/Q6410876,,"https://en.wikipedia.org/wiki/Maheshwari_Udyan,_Mumbai",Point(72.855341 19.026734),8.945,19.026734,72.855341,3,http://www.wikidata.org/entity/Q22698,King's Circle,park,C,yellow
623,http://www.wikidata.org/entity/Q6431119,,"https://en.wikipedia.org/wiki/Kopineshwar_Mandir,_Thane",Point(72.977 19.193),14.109,19.193,72.977,3,http://www.wikidata.org/entity/Q842402,"Kopineshwar Mandir, Thane",Hindu temple,C,yellow
640,http://www.wikidata.org/entity/Q6798200,,https://en.wikipedia.org/wiki/Mazgaon_Fort,Point(72.842703 18.965633),14.936,18.965633,72.842703,3,http://www.wikidata.org/entity/Q811979,Mazagon Fort,architectural structure,C,yellow
641,http://www.wikidata.org/entity/Q6841440,,https://en.wikipedia.org/wiki/Middle_Ground_Coastal_Battery,Point(72.84775 18.91872),19.277,18.91872,72.84775,3,http://www.wikidata.org/entity/Q23442,Middle Ground Coastal Battery,island,C,yellow
642,http://www.wikidata.org/entity/Q6909472,,https://en.wikipedia.org/wiki/Morbe_Dam,Point(73.246193 18.925773),38.091,18.925773,73.246193,3,http://www.wikidata.org/entity/Q3497167,Morbe Dam,gravity dam,C,yellow
652,http://www.wikidata.org/entity/Q7116354,,https://en.wikipedia.org/wiki/Oyster_Rock,Point(72.8275 18.90222222),21.846,18.90222222,72.8275,3,http://www.wikidata.org/entity/Q23442,Oyster Rock,island,C,yellow
653,http://www.wikidata.org/entity/Q7130533,,https://en.wikipedia.org/wiki/Pandavkada_Falls,Point(73.063030555 19.056680555),15.068,19.056680555556,73.063030555556,3,http://www.wikidata.org/entity/Q34038,Pandavkada Falls,waterfall,C,yellow
655,http://www.wikidata.org/entity/Q7208428,,https://en.wikipedia.org/wiki/Poisar,Point(72.8523 19.2156),16.981,19.2156,72.8523,3,http://www.wikidata.org/entity/Q188509,Poisar,suburb,C,yellow
659,http://www.wikidata.org/entity/Q7232623,,"https://en.wikipedia.org/wiki/Portuguese_Church,_Mumbai",Point(72.83638889 19.01833333),11.092,19.01833333,72.83638889,3,http://www.wikidata.org/entity/Q16970,Portuguese Church,church building,C,yellow
667,http://www.wikidata.org/entity/Q7418905,,https://en.wikipedia.org/wiki/Sanpada,Point(73.01 19.05),9.806,19.05,73.01,3,http://www.wikidata.org/entity/Q188509,Sanpada,suburb,C,yellow
668,http://www.wikidata.org/entity/Q7425788,,https://en.wikipedia.org/wiki/Sassoon_Docks,Point(72.82614167 18.91161389),20.987,18.91161389,72.82614167,3,http://www.wikidata.org/entity/Q44782,Sassoon Docks,port,C,yellow
669,http://www.wikidata.org/entity/Q7458297,,https://en.wikipedia.org/wiki/Sewri_Christian_Cemetery,Point(72.851 19.001),11.272,19.001,72.851,3,http://www.wikidata.org/entity/Q107685861,Sewri Christian Cemetery,Christian cemetery,C,yellow
674,http://www.wikidata.org/entity/Q7508100,,"https://en.wikipedia.org/wiki/Siddharth_College_of_Law,_Mumbai",Point(72.8306 18.931),18.879,18.931,72.8306,3,http://www.wikidata.org/entity/Q3918,"Siddharth College of Law, Mumbai",university,C,yellow
676,http://www.wikidata.org/entity/Q7640412,,https://en.wikipedia.org/wiki/Sunk_Rock_Lighthouse,Point(72.832562 18.889797),22.865,18.889797,72.832562,3,http://www.wikidata.org/entity/Q39715,Sunk Rock Lighthouse,lighthouse,C,yellow
680,http://www.wikidata.org/entity/Q7852384,,https://en.wikipedia.org/wiki/Tulshi_Dam,Point(72.9186 19.1886),12.355,19.1886,72.9186,3,http://www.wikidata.org/entity/Q12323,Tulshi Dam,dam,C,yellow
687,http://www.wikidata.org/entity/Q7916503,,https://en.wikipedia.org/wiki/Vashi_Bridge,Point(72.971612 19.061226),5.584,19.061226,72.971612,3,http://www.wikidata.org/entity/Q158218,Vashi Bridge,truss bridge,C,yellow
702,http://www.wikidata.org/entity/Q7994078,,https://en.wikipedia.org/wiki/Whistling_Woods_International,Point(72.886519665 19.162465628),10.13,19.162465628776,72.886519665692,3,http://www.wikidata.org/entity/Q380093,Whistling Woods International Institute,film school,C,yellow
703,http://www.wikidata.org/entity/Q15118972,,https://en.wikipedia.org/wiki/International_Institute_for_Population_Sciences,Point(72.914861 19.049055),3.237,19.049055,72.914861,3,http://www.wikidata.org/entity/Q31855,International Institute for Population Sciences,research institute,C,yellow
705,http://www.wikidata.org/entity/Q15207463,,https://en.wikipedia.org/wiki/Capitol_Cinema_(Mumbai),Point(72.834313 18.939343),17.881,18.939343,72.834313,3,http://www.wikidata.org/entity/Q41253,Capitol Cinema,movie theater,C,yellow
707,http://www.wikidata.org/entity/Q15229742,,https://en.wikipedia.org/wiki/Joseph_Baptista_Gardens,Point(72.842703 18.965633),14.936,18.965633,72.842703,3,http://www.wikidata.org/entity/Q22698,Joseph Baptista Gardens,park,C,yellow
716,http://www.wikidata.org/entity/Q15991528,,https://en.wikipedia.org/wiki/Uran_Gas_Turbine_Power_Station,Point(72.9702089 18.8814393),22.398,18.8814393,72.9702089,3,http://www.wikidata.org/entity/Q2944640,Uran Gas Turbine Power Station,gas-fired power station,C,yellow
717,http://www.wikidata.org/entity/Q16466709,,https://en.wikipedia.org/wiki/New_Empire_Cinema_(Mumbai),Point(72.834205992 18.938704514),17.948,18.938704514373,72.834205992558,3,http://www.wikidata.org/entity/Q41253,New Empire Cinema,movie theater,C,yellow
719,http://www.wikidata.org/entity/Q16927793,,https://en.wikipedia.org/wiki/Trombay_Thermal_Power_Station,Point(72.8991473 19.0018976),8.725,19.0018976,72.8991473,3,http://www.wikidata.org/entity/Q3498533,Trombay Thermal Power Station,natural gas-fired power station,C,yellow
721,http://www.wikidata.org/entity/Q16950011,,https://en.wikipedia.org/wiki/Magen_David_Synagogue_(Byculla),Point(72.8322211 18.9669478),15.457,18.9669478,72.8322211,3,http://www.wikidata.org/entity/Q34627,Magen David Synagogue,synagogue,C,yellow
722,http://www.wikidata.org/entity/Q16956772,,https://en.wikipedia.org/wiki/Prong%27s_Lighthouse,Point(72.79975 18.879238),25.485,18.879238,72.79975,3,http://www.wikidata.org/entity/Q39715,Prong's Lighthouse,lighthouse,C,yellow
725,http://www.wikidata.org/entity/Q17075381,,https://en.wikipedia.org/wiki/Mumbai_Academy_of_the_Moving_Image,Point(72.8775 19.0758),4.612,19.0758,72.8775,3,http://www.wikidata.org/entity/Q220505,Mumbai Academy of the Moving Image,film festival,C,yellow
728,http://www.wikidata.org/entity/Q17153100,,"https://en.wikipedia.org/wiki/St._Teresa%27s_High_School,_Charni_Road",Point(72.8192 18.9528),17.538,18.9528,72.8192,3,http://www.wikidata.org/entity/Q159334,St. Teresa's High School,secondary school,C,yellow
731,http://www.wikidata.org/entity/Q17264777,,https://en.wikipedia.org/wiki/Versova_metro_station,Point(72.8213 19.1303),12.04,19.1303,72.8213,3,http://www.wikidata.org/entity/Q20202072,Versova metro station,terminus,C,yellow
734,http://www.wikidata.org/entity/Q18393177,,https://en.wikipedia.org/wiki/Railadevi_Lake,Point(72.9571 19.1893),12.985,19.1893,72.9571,3,http://www.wikidata.org/entity/Q23397,Railadevi talav,lake,C,yellow
735,http://www.wikidata.org/entity/Q23808255,,"https://en.wikipedia.org/wiki/Hiranandani_Gardens,_Mumbai",Point(72.911767 19.118986),4.72,19.118986,72.911767,3,http://www.wikidata.org/entity/Q19610511,"Hiranandani Gardens, Mumbai",township,C,yellow
736,http://www.wikidata.org/entity/Q24906686,,https://en.wikipedia.org/wiki/Wagheshwari_Temple,Point(72.873194444 19.175361111),11.999,19.175361111111,72.873194444444,3,http://www.wikidata.org/entity/Q842402,Wagheshwari Temple,Hindu temple,C,yellow
737,http://www.wikidata.org/entity/Q24943494,,https://en.wikipedia.org/wiki/INS_Sardar_Patel,Point(72.83654444 18.92623889),19.037,18.92623889,72.83654444,3,http://www.wikidata.org/entity/Q1324633,INS Sardar Patel,naval base,C,yellow
739,http://www.wikidata.org/entity/Q24950049,,https://en.wikipedia.org/wiki/Dronagiri_Fort,Point(72.935885 18.866958),23.461,18.866958,72.935885,3,http://www.wikidata.org/entity/Q245016,Dronagiri Fort द्रौणपुर रियासत,military base,C,yellow
742,http://www.wikidata.org/entity/Q25212558,,https://en.wikipedia.org/wiki/Lincoln_House_(Mumbai),Point(72.803333333 18.969444444),17.271,18.969444444444,72.803333333333,3,http://www.wikidata.org/entity/Q41176,Lincoln House,building,C,yellow
743,http://www.wikidata.org/entity/Q28153845,,https://en.wikipedia.org/wiki/Omkar_1973,Point(72.8167 19.0167),12.911,19.0167,72.8167,3,http://www.wikidata.org/entity/Q1497364,Omkar 1973,building complex,C,yellow
745,http://www.wikidata.org/entity/Q30689530,,https://en.wikipedia.org/wiki/Coastal_Road_(Mumbai),Point(72.8105 18.9991),14.552,18.9991,72.8105,3,http://www.wikidata.org/entity/Q1130322,Coastal Road,land reclamation,C,yellow
750,http://www.wikidata.org/entity/Q58208151,,https://en.wikipedia.org/wiki/Parsi%E2%80%93Muslim_riots,Point(72.8777 19.076),4.59,19.076,72.8777,3,http://www.wikidata.org/entity/Q124757,Parsee-Muslim riots,riot,C,yellow
751,http://www.wikidata.org/entity/Q60633054,,https://en.wikipedia.org/wiki/Parsi_Lying-in_Hospital,Point(72.832588 18.935883),18.305,18.935883,72.832588,3,http://www.wikidata.org/entity/Q958822,Parsi Lying-in Hospital,maternity hospital,C,yellow
752,http://www.wikidata.org/entity/Q60753866,,https://en.wikipedia.org/wiki/Tungareshwar_Wildlife_Sanctuary,Point(72.9358 19.3879),34.545,19.3879,72.9358,3,http://www.wikidata.org/entity/Q1377575,Tungareshwar Wildlife Sanctuary,wildlife refuge,C,yellow
753,http://www.wikidata.org/entity/Q84135942,,https://en.wikipedia.org/wiki/Parel_Relief,Point(72.84735958 19.00066928),11.553,19.00066928,72.84735958,3,http://www.wikidata.org/entity/Q245117,Parel Relief,relief sculpture,C,yellow
754,http://www.wikidata.org/entity/Q85770566,,"https://en.wikipedia.org/wiki/Jama_Masjid,_Nerul",Point(73.0205191 19.0346494),11.46,19.0346494,73.0205191,3,http://www.wikidata.org/entity/Q32815,"Jama Masjid, Nerul",mosque,C,yellow
755,http://www.wikidata.org/entity/Q97040246,,https://en.wikipedia.org/wiki/Maharashtra_Police_Headquarters,Point(72.833333333 18.925277777),19.291,18.925277777778,72.833333333333,3,http://www.wikidata.org/entity/Q1081138,Maharashtra Police Headquarters,historic site,C,yellow
757,http://www.wikidata.org/entity/Q97149899,,"https://en.wikipedia.org/wiki/Convocation_Hall,_University_of_Mumbai",Point(72.830027 18.929775),19.027,18.929775,72.830027,3,http://www.wikidata.org/entity/Q41176,"Convocation Hall, University of Mumbai",building,C,yellow
758,http://www.wikidata.org/entity/Q97185135,,https://en.wikipedia.org/wiki/J._N._Petit_Library,Point(72.8324 18.9345),18.447,18.9345,72.8324,3,http://www.wikidata.org/entity/Q7075,J. N. Petit Library,library,C,yellow
759,http://www.wikidata.org/entity/Q97185795,,https://en.wikipedia.org/wiki/Wellington_Fountain,Point(72.832318965 18.925424168),19.328,18.925424168991,72.832318965911,3,http://www.wikidata.org/entity/Q483453,Wellington Fountain,fountain,C,yellow
761,http://www.wikidata.org/entity/Q97187269,,https://en.wikipedia.org/wiki/Mulji_Jetha_Fountain,Point(72.83584 18.93432),18.284,18.93432,72.83584,3,http://www.wikidata.org/entity/Q811979,Mulji Jetha Fountain,architectural structure,C,yellow
762,http://www.wikidata.org/entity/Q97188937,,https://en.wikipedia.org/wiki/Bomanjee_Hormarjee_Wadia_Clock_Tower,Point(72.835847587 18.93431363),18.284,18.934313630627,72.835847587918,3,http://www.wikidata.org/entity/Q853854,Bomanjee Hormarjee Wadia Clock Tower,clock tower,C,yellow
763,http://www.wikidata.org/entity/Q97189306,,https://en.wikipedia.org/wiki/Maneckji_Seth_Agiary,Point(72.835923613 18.935196901),18.195,18.935196901439,72.835923613426,3,http://www.wikidata.org/entity/Q115278,Maneckji Seth Agiary,fire temple,C,yellow
764,http://www.wikidata.org/entity/Q104861310,,https://en.wikipedia.org/wiki/Tungareshwar_Temple,Point(72.9015 19.4165),37.75,19.4165,72.9015,3,http://www.wikidata.org/entity/Q842402,Tungareshwar Temple,Hindu temple,C,yellow
765,http://www.wikidata.org/entity/Q115867089,,https://en.wikipedia.org/wiki/Gurdwara_Guru_Nanak_Punjabi_Sabha_Chakala,Point(72.858194444 19.114888888),7.83,19.114888888889,72.858194444444,3,http://www.wikidata.org/entity/Q337986,Gurdwara Guru Nanak Punjabi Sabha Chakala,gurdwara,C,yellow
766,http://www.wikidata.org/entity/Q891830,https://de.wikipedia.org/wiki/Bombay_Dockyard,https://en.wikipedia.org/wiki/Bombay_Dockyard,Point(72.841 18.9287),18.578,18.9287,72.841,3,http://www.wikidata.org/entity/Q190928,Bombay Dockyard,shipyard,C,yellow
767,http://www.wikidata.org/entity/Q4611264,,https://en.wikipedia.org/wiki/2008_Indian_Premier_League_final,Point(73.0267 19.0419),11.758,19.0419,73.0267,2,http://www.wikidata.org/entity/Q1366722,2008 Indian Premier League Final,final,C,yellow
768,http://www.wikidata.org/entity/Q4617899,,https://en.wikipedia.org/wiki/2010_Mumbai_oil_spill,Point(72.876 18.9051),19.754,18.9051,72.876,2,http://www.wikidata.org/entity/Q220187,2010 Mumbai oil spill,oil spill,C,yellow
769,http://www.wikidata.org/entity/Q4651825,,https://en.wikipedia.org/wiki/AICAR_Business_School,Point(73.32027778 19.04777778),42.054,19.04777778,73.32027778,2,http://www.wikidata.org/entity/Q1143635,AICAR Business School,business school,C,yellow
770,http://www.wikidata.org/entity/Q4683066,,https://en.wikipedia.org/wiki/Aditya_College,Point(72.86444444 19.12833333),8.227,19.12833333,72.86444444,2,http://www.wikidata.org/entity/Q38723,Aditya College,higher education institution,C,yellow
773,http://www.wikidata.org/entity/Q4770978,,https://en.wikipedia.org/wiki/Antarang_%E2%80%93_Sex_Health_Information_Art_Gallery,Point(72.8243587 18.9674278),15.93,18.9674278,72.8243587,2,http://www.wikidata.org/entity/Q1191610,Antarang – Sex Health Information Art Gallery,erotic museum,C,yellow
777,http://www.wikidata.org/entity/Q4843209,,https://en.wikipedia.org/wiki/Baiganwadi,Point(72.9258 19.0613),1.862,19.0613,72.9258,2,http://www.wikidata.org/entity/Q618123,Baiganwadi,geographical feature,C,yellow
778,http://www.wikidata.org/entity/Q4851500,,https://en.wikipedia.org/wiki/Ballard_Bunder_Gatehouse,Point(72.8403716 18.9336595),18.119,18.9336595,72.8403716,2,http://www.wikidata.org/entity/Q1863818,Ballard Bunder Gatehouse,maritime museum,C,yellow
779,http://www.wikidata.org/entity/Q4872629,,,Point(73.08333333 18.75),40.205,18.75,73.08333333,2,http://www.wikidata.org/entity/Q178561,Battle of Umberkhind,battle,C,yellow
785,http://www.wikidata.org/entity/Q5041991,,https://en.wikipedia.org/wiki/Four_Bungalows,Point(72.827211111 19.124713888),11.197,19.124713888889,72.827211111111,2,http://www.wikidata.org/entity/Q56061,Four Bungalows,administrative territorial entity,C,yellow
787,http://www.wikidata.org/entity/Q5061356,,"https://en.wikipedia.org/wiki/Central_Library,_IIT_Bombay",Point(72.915075 19.134),6.315,19.134,72.915075,2,http://www.wikidata.org/entity/Q856234,"Central Library, IIT, Bombay",academic library,C,yellow
789,http://www.wikidata.org/entity/Q5100150,,"https://en.wikipedia.org/wiki/Chinatown,_Mumbai",Point(72.846549 18.966012),14.681,18.966012,72.846549,2,http://www.wikidata.org/entity/Q202509,Chinatown,Chinatown,C,yellow
792,http://www.wikidata.org/entity/Q5116214,,https://en.wikipedia.org/wiki/Chunabhatti,Point(72.8692 19.0517),6.187,19.0517,72.8692,2,http://www.wikidata.org/entity/Q188509,Chunabhatti,suburb,C,yellow
796,http://www.wikidata.org/entity/Q5188244,,https://en.wikipedia.org/wiki/Cross_Cafe,Point(73.0635185 19.0343116),15.694,19.0343116,73.0635185,2,http://www.wikidata.org/entity/Q11707,Cross Cafe,restaurant,C,yellow
797,http://www.wikidata.org/entity/Q5188355,,https://en.wikipedia.org/wiki/Cross_Maidan,Point(72.829742 18.936297),18.42,18.936297,72.829742,2,http://www.wikidata.org/entity/Q174782,Cross Maidan,square,C,yellow
799,http://www.wikidata.org/entity/Q5228119,,https://en.wikipedia.org/wiki/Dava_Bazaar,Point(72.831362 18.946882),17.334,18.946882,72.831362,2,http://www.wikidata.org/entity/Q1414991,Dava Bazaar,area,C,yellow
801,http://www.wikidata.org/entity/Q5260025,,https://en.wikipedia.org/wiki/Deonar_dumping_ground,Point(72.9197 19.0671),1.171,19.0671,72.9197,2,http://www.wikidata.org/entity/Q152810,Deonar dumping ground,landfill,C,yellow
802,http://www.wikidata.org/entity/Q5269138,,https://en.wikipedia.org/wiki/Dharamtar,Point(73.0245 18.7054),42.774,18.7054,73.0245,2,http://www.wikidata.org/entity/Q44782,Dharamtar,port,C,yellow
803,http://www.wikidata.org/entity/Q5289636,,https://en.wikipedia.org/wiki/Dolphin_Lighthouse,Point(72.835908 18.91431),20.248,18.91431,72.835908,2,http://www.wikidata.org/entity/Q39715,Dolphin Lighthouse,lighthouse,C,yellow
804,http://www.wikidata.org/entity/Q5421678,,https://en.wikipedia.org/wiki/Express_Towers,Point(72.822082 18.928062),19.623,18.928062,72.822082,2,http://www.wikidata.org/entity/Q41176,Express Towers,building,C,yellow
805,http://www.wikidata.org/entity/Q5457414,,https://en.wikipedia.org/wiki/Kalamboli,Point(73.1 19.03333),19.407,19.03333,73.1,2,http://www.wikidata.org/entity/Q687312,Kalamboli,Vorort,C,yellow
811,http://www.wikidata.org/entity/Q5766448,,https://en.wikipedia.org/wiki/Hindu_Colony,Point(72.848647 19.020841),9.904,19.020841,72.848647,2,http://www.wikidata.org/entity/Q133156,Hindu colony,colony,C,yellow
814,http://www.wikidata.org/entity/Q5890751,,https://en.wikipedia.org/wiki/Homi_Bhabha_Centre_for_Science_Education,Point(72.928266 19.042337),3.978,19.042337,72.928266,2,http://www.wikidata.org/entity/Q4671277,Homi Bhabha Centre for Science Education,academic institution,C,yellow
817,http://www.wikidata.org/entity/Q6148063,,https://en.wikipedia.org/wiki/Jamnabai_Narsee_School,Point(72.8322 19.1056),9.874,19.1056,72.8322,2,http://www.wikidata.org/entity/Q423208,Jamnabai Narsee School,private school,C,yellow
818,http://www.wikidata.org/entity/Q6148070,,https://en.wikipedia.org/wiki/Jamnalal_Bajaj_Institute_of_Management_Studies,Point(72.8123 18.9089),21.976,18.9089,72.8123,2,http://www.wikidata.org/entity/Q1143635,Jamnalal Bajaj Institute of Management Studies,business school,C,yellow
827,http://www.wikidata.org/entity/Q6541667,,https://en.wikipedia.org/wiki/Liberty_Cinema,Point(72.827259982 18.94149835),18.071,18.941498350944,72.827259982295,2,http://www.wikidata.org/entity/Q41253,Liberty Cinema,movie theater,C,yellow
829,http://www.wikidata.org/entity/Q6734973,,https://en.wikipedia.org/wiki/Mahul_Creek,Point(72.86666667 19.0),10.359,19.0,72.86666667,2,http://www.wikidata.org/entity/Q27250,Mahul Creek,tidal creek,C,yellow
830,http://www.wikidata.org/entity/Q6751433,,https://en.wikipedia.org/wiki/Manori_Creek,Point(72.78333333 19.18333333),18.672,19.18333333,72.78333333,2,http://www.wikidata.org/entity/Q27250,Manori Creek,tidal creek,C,yellow
831,http://www.wikidata.org/entity/Q6778126,,https://en.wikipedia.org/wiki/Marve_Island,Point(72.79766667 19.19675),18.563,19.19675,72.79766667,2,http://www.wikidata.org/entity/Q23442,Marve Island,island,C,yellow
834,http://www.wikidata.org/entity/Q6824505,,https://en.wikipedia.org/wiki/Metro_INOX_Cinemas,Point(72.82879722 18.94294444),17.848,18.94294444,72.82879722,2,http://www.wikidata.org/entity/Q41253,Metro INOX,movie theater,C,yellow
837,http://www.wikidata.org/entity/Q6935320,,https://en.wikipedia.org/wiki/Mumbai_Refinery_(BPCL),Point(72.860086 19.011939),9.727,19.011939,72.860086,2,http://www.wikidata.org/entity/Q12353044,Mumbai Refinery Mahul,oil refinery,C,yellow
838,http://www.wikidata.org/entity/Q6978646,,https://en.wikipedia.org/wiki/National_Sports_Club_of_India,Point(72.814934 18.986229),15.104,18.986229,72.814934,2,http://www.wikidata.org/entity/Q1076486,National Sports Club of India,sports venue,C,yellow
839,http://www.wikidata.org/entity/Q7008948,,https://en.wikipedia.org/wiki/New_India_Assurance_Building,Point(72.8316503 18.9304161),18.879,18.9304161,72.8316503,2,http://www.wikidata.org/entity/Q811979,New India Assurance Building,architectural structure,C,yellow
840,http://www.wikidata.org/entity/Q7100281,,https://en.wikipedia.org/wiki/Orchid_Enclave,Point(72.8236 18.9676),15.967,18.9676,72.8236,2,http://www.wikidata.org/entity/Q41176,Orchid Enclave,building,C,yellow
841,http://www.wikidata.org/entity/Q7110781,,https://en.wikipedia.org/wiki/Our_Lady_of_Egypt_Church,Point(72.86916667 19.07833333),5.484,19.07833333,72.86916667,2,http://www.wikidata.org/entity/Q16970,Our Lady of Egypt Church,church building,C,yellow
842,http://www.wikidata.org/entity/Q7113212,,https://en.wikipedia.org/wiki/Oval_Maidan,Point(72.828861111 18.929527777),19.112,18.929527777778,72.828861111111,2,http://www.wikidata.org/entity/Q174782,Oval Maidan,square,C,yellow
850,http://www.wikidata.org/entity/Q7127509,,https://en.wikipedia.org/wiki/Pali_Hill,Point(72.826744 19.06587),10.026,19.068263,72.828363,2,http://www.wikidata.org/entity/Q188509,Pali Hill,suburb,C,yellow
854,http://www.wikidata.org/entity/Q7131274,,https://en.wikipedia.org/wiki/Panju_Island,Point(72.85 19.333),29.379,19.333,72.85,2,http://www.wikidata.org/entity/Q23442,Panju Island,island,C,yellow
855,http://www.wikidata.org/entity/Q7139974,,"https://en.wikipedia.org/wiki/Parsi_Gymkhana,_Marine_Drive",Point(72.8235 18.9448),17.988,18.9448,72.8235,2,http://www.wikidata.org/entity/Q17350442,"Parsi Gymkhana, Marine Drive",venue,C,yellow
858,http://www.wikidata.org/entity/Q7373829,,https://en.wikipedia.org/wiki/Royal_Bombay_Yacht_Club,Point(72.8333 18.9234),19.476,18.9234,72.8333,2,http://www.wikidata.org/entity/Q1855011,Royal Bombay Yacht Club,yacht club,C,yellow
859,http://www.wikidata.org/entity/Q7373987,,"https://en.wikipedia.org/wiki/Royal_College_of_Science,_Arts_and_Commerce",Point(72.8712 19.2703),22.074,19.2703,72.8712,2,http://www.wikidata.org/entity/Q3918,"Royal College of Science, Arts and Commerce",university,C,yellow
862,http://www.wikidata.org/entity/Q7401247,,https://en.wikipedia.org/wiki/Saint_Francis_D%27Assisi_High_School,Point(72.853126 19.244136),19.864,19.244136,72.853126,2,http://www.wikidata.org/entity/Q9826,Saint Francis D'Assisi High School,high school,C,yellow
868,http://www.wikidata.org/entity/Q7527353,,https://en.wikipedia.org/wiki/Sir_J._J._College_of_Architecture,Point(72.833967 18.94473),17.389,18.94473,72.833967,2,http://www.wikidata.org/entity/Q10273077,Sir J. J. College of Architecture,architecture school,C,yellow
870,http://www.wikidata.org/entity/Q7611381,,https://en.wikipedia.org/wiki/Sterling_Cineplex,Point(72.833 18.938),18.08,18.938,72.833,2,http://www.wikidata.org/entity/Q1153108,Sterling Cineplex,multiplex,C,yellow
872,http://www.wikidata.org/entity/Q7692197,,https://en.wikipedia.org/wiki/Techfest,Point(72.9154 19.1336),6.268,19.1336,72.9154,2,http://www.wikidata.org/entity/Q76418219,Techfest,technical festival in India,C,yellow
873,http://www.wikidata.org/entity/Q7776707,,https://en.wikipedia.org/wiki/The_Yoga_Institute,Point(72.843153 19.085104),8.26,19.085104,72.843153,2,http://www.wikidata.org/entity/Q43229,The Yoga Institute,organization,C,yellow
874,http://www.wikidata.org/entity/Q7814092,,https://en.wikipedia.org/wiki/Tolani_Maritime_Institute,Point(72.9154 19.1336),6.268,19.1336,72.9154,2,http://www.wikidata.org/entity/Q1715155,Tolani Maritime Institute,maritime college,C,yellow
875,http://www.wikidata.org/entity/Q7876991,,https://en.wikipedia.org/wiki/Udayachal_High_School,Point(72.928055555 19.101944444),2.807,19.101944444444,72.928055555556,2,http://www.wikidata.org/entity/Q159334,Udayachal High School,secondary school,C,yellow
878,http://www.wikidata.org/entity/Q7929035,,https://en.wikipedia.org/wiki/Vihar_Dam,Point(72.9106 19.1514),8.293,19.1514,72.9106,2,http://www.wikidata.org/entity/Q12323,Vihar Dam,dam,C,yellow
879,http://www.wikidata.org/entity/Q7962083,,https://en.wikipedia.org/wiki/Walk_of_the_Stars,Point(72.819132 19.042718),11.418,19.042718,72.819132,2,http://www.wikidata.org/entity/Q1046088,Walk of the Stars,hall of fame,C,yellow
880,http://www.wikidata.org/entity/Q8050594,,https://en.wikipedia.org/wiki/Yazdani_Bakery,Point(72.833 18.933),18.56,18.933,72.833,2,http://www.wikidata.org/entity/Q11707,Yazdani Bakery,restaurant,C,yellow
888,http://www.wikidata.org/entity/Q15238865,,,Point(72.84154 19.02514),10.211,19.02514,72.84154,2,http://www.wikidata.org/entity/Q11303,Kohinoor Square,skyscraper,C,yellow
889,http://www.wikidata.org/entity/Q15243710,,https://en.wikipedia.org/wiki/Mahape,Point(73.026938 19.11776),11.963,19.1183,73.0276,2,http://www.wikidata.org/entity/Q188509,Mahape,suburb,C,yellow
897,http://www.wikidata.org/entity/Q15733864,,https://en.wikipedia.org/wiki/Bharat_Petroleum_monorail_station,Point(72.895426 19.035368),5.42,19.035368,72.895426,2,http://www.wikidata.org/entity/Q63125083,Bharat Petroleum monorail station,monorail station,C,yellow
899,http://www.wikidata.org/entity/Q15733865,,https://en.wikipedia.org/wiki/Fertiliser_Township_monorail_station,Point(72.893397 19.043849),4.758,19.043849,72.893397,2,http://www.wikidata.org/entity/Q63125083,Fertiliser Township monorail station,monorail station,C,yellow
901,http://www.wikidata.org/entity/Q16894261,,https://en.wikipedia.org/wiki/Lokmanya_Tilak_High_School,Point(72.89 19.06),3.827,19.06,72.89,2,http://www.wikidata.org/entity/Q159334,Lokmanya Tilak High School,secondary school,C,yellow
902,http://www.wikidata.org/entity/Q16935354,,https://en.wikipedia.org/wiki/SVKM%27s_NMIMS,Point(72.836483333 19.103291666),9.367,19.103291666667,72.836483333333,2,http://www.wikidata.org/entity/Q3918,Narsee Monjee Institute of Management Studies,university,C,yellow
904,http://www.wikidata.org/entity/Q17050476,,https://en.wikipedia.org/wiki/Chembur_monorail_station,Point(72.897469 19.06123),3.095,19.06123,72.897469,2,http://www.wikidata.org/entity/Q63125083,Chembur monorail station,monorail station,C,yellow
905,http://www.wikidata.org/entity/Q17051314,,"https://en.wikipedia.org/wiki/Maharashtra_National_Law_University,_Mumbai",Point(72.915244444 19.119102777),4.669,19.119102777778,72.915244444444,2,http://www.wikidata.org/entity/Q3918,"Maharashtra National Law University, Mumbai",university,C,yellow
907,http://www.wikidata.org/entity/Q17065178,,https://en.wikipedia.org/wiki/Bhakti_Park_monorail_station,Point(72.877532 19.029072),7.086,19.029072,72.877532,2,http://www.wikidata.org/entity/Q63125083,Bhakti Park monorail station,monorail station,C,yellow
908,http://www.wikidata.org/entity/Q17073340,,https://en.wikipedia.org/wiki/Middle_Income_Group_Club_Ground,Point(72.84825 19.05822222),7.976,19.05822222,72.84825,2,http://www.wikidata.org/entity/Q682943,Middle Income Group Club Ground,cricket field,C,yellow
910,http://www.wikidata.org/entity/Q17076201,,https://en.wikipedia.org/wiki/Mysore_Colony_monorail_station,Point(72.891277 19.02776),6.371,19.02776,72.891277,2,http://www.wikidata.org/entity/Q63125083,Mysuru Colony monorail station,monorail station,C,yellow
912,http://www.wikidata.org/entity/Q17085670,,https://en.wikipedia.org/wiki/Rajiv_Gandhi_Medical_College,Point(72.986746 19.192419),14.506,19.192419,72.986746,2,http://www.wikidata.org/entity/Q17072837,Rajiv Gandhi Medical College,medical college in India,C,yellow
914,http://www.wikidata.org/entity/Q17100205,,https://en.wikipedia.org/wiki/Wadala_Depot_monorail_station,Point(72.8748 19.0388),6.516,19.0388,72.8748,2,http://www.wikidata.org/entity/Q63125083,Wadala Depot,monorail station,C,yellow
915,http://www.wikidata.org/entity/Q17103793,,https://en.wikipedia.org/wiki/The_Park_(residential_project),Point(72.8272 19.0067),12.646,19.0067,72.8272,2,http://www.wikidata.org/entity/Q1497364,Lodha Park,building complex,C,yellow
926,http://www.wikidata.org/entity/Q18210916,,"https://en.wikipedia.org/wiki/Sacred_Heart_Church,_Santacruz",Point(72.838055555 19.074722222),8.759,19.074722222222,72.838055555556,2,http://www.wikidata.org/entity/Q16970,"Sacred Heart Church, Santacruz",church building,C,yellow
930,http://www.wikidata.org/entity/Q18357722,,https://en.wikipedia.org/wiki/VNP_and_RC_Marg_Junction_monorail_station,Point(72.894199 19.0527),3.969,19.0527,72.894199,2,http://www.wikidata.org/entity/Q63125083,VNP and RC Marg Junction monorail station,monorail station,C,yellow
933,http://www.wikidata.org/entity/Q19458383,,https://en.wikipedia.org/wiki/Lyc%C3%A9e_Fran%C3%A7ais_International_de_Mumbai,Point(72.815 19.0039),13.854,19.0039,72.815,2,http://www.wikidata.org/entity/Q41176,French International School of Bombay,building,C,yellow
935,http://www.wikidata.org/entity/Q19882405,,https://en.wikipedia.org/wiki/Bodni,Point(72.95 18.88),22.167,18.88,72.95,2,http://www.wikidata.org/entity/Q15642541,Bodni,human-geographic territorial entity,C,yellow
936,http://www.wikidata.org/entity/Q19891185,,"https://en.wikipedia.org/wiki/Chondhi,_Alibag",Point(72.8811 18.727),39.203,18.727,72.8811,2,http://www.wikidata.org/entity/Q15642541,Chondhi,human-geographic territorial entity,C,yellow
937,http://www.wikidata.org/entity/Q19899097,,,Point(73.0329 18.7603),37.171,18.7603,73.0329,2,http://www.wikidata.org/entity/Q842402,"Veerabhadra Devasthan, Vadhav",Hindu temple,C,yellow
938,http://www.wikidata.org/entity/Q20059455,,,Point(72.801353 19.291536),26.928,19.291536,72.801353,2,http://www.wikidata.org/entity/Q16970,Church of Our Lady of Bethlehem,church building,C,yellow
939,http://www.wikidata.org/entity/Q22330084,,https://en.wikipedia.org/wiki/Cafe_Mondegar,Point(72.832126 18.924158),19.461,18.924158,72.832126,2,http://www.wikidata.org/entity/Q11707,Cafe Mondegar,restaurant,C,yellow
941,http://www.wikidata.org/entity/Q22952144,,https://en.wikipedia.org/wiki/Phoenix_Marketcity_(Mumbai),Point(72.8893 19.0866),3.516,19.0866,72.8893,2,http://www.wikidata.org/entity/Q31374404,Phoenix Marketcity Mumbai,shopping mall,C,yellow
942,http://www.wikidata.org/entity/Q23584863,,https://en.wikipedia.org/wiki/Darna_River,Point(73.04 19.17944444),16.847,19.17944444,73.04,2,http://www.wikidata.org/entity/Q4022,Darna River,river,C,yellow
