,item,articleDE,articleEN,location,distance,lat,lon,sitelinks,thing,itemLabel,thingLabel,tier,color
0,http://www.wikidata.org/entity/Q1498,https://de.wikipedia.org/wiki/Uttar_Pradesh,https://en.wikipedia.org/wiki/Uttar_Pradesh,Point(80.91 26.85),2.776,26.85,80.91,140,http://www.wikidata.org/entity/Q12443800,Uttar Pradesh,state of India,S,orange
1,http://www.wikidata.org/entity/Q47916,https://de.wikipedia.org/wiki/Lucknow,https://en.wikipedia.org/wiki/Lucknow,Point(80.947 26.847),1.579,26.847,80.947,115,http://www.wikidata.org/entity/Q1549591,Lucknow,big city,S,orange
2,http://www.wikidata.org/entity/Q248705,https://de.wikipedia.org/wiki/Avadh,https://en.wikipedia.org/wiki/Awadh,Point(80.915833 26.860556),3.115,26.860556,80.915833,37,http://www.wikidata.org/entity/Q1620908,Awadh,historical region,S,orange
3,http://www.wikidata.org/entity/Q2672666,https://de.wikipedia.org/wiki/Flughafen_Lucknow,https://en.wikipedia.org/wiki/Chaudhary_Charan_Singh_International_Airport,Point(80.88333333 26.76194444),9.879,26.76194444,80.88333333,29,http://www.wikidata.org/entity/Q1248784,Chaudhary Charan Singh Airport,airport,S,orange
5,http://www.wikidata.org/entity/Q2450968,,https://en.wikipedia.org/wiki/Kakori,Point(80.8 26.88),14.141,26.88,80.8,19,http://www.wikidata.org/entity/Q486972,Kakori,human settlement,A,green
6,http://www.wikidata.org/entity/Q2543287,,https://en.wikipedia.org/wiki/Malihabad,Point(80.72 26.94),24.11,26.94,80.72,19,http://www.wikidata.org/entity/Q486972,Malihabad,human settlement,A,green
7,http://www.wikidata.org/entity/Q3630998,,https://en.wikipedia.org/wiki/Bara_Imambara,Point(80.912885 26.869104),4.065,26.869104,80.912885,19,http://www.wikidata.org/entity/Q141140,Bara Imambara,husayniyya,A,green
10,http://www.wikidata.org/entity/Q1756056,,https://en.wikipedia.org/wiki/Itaunja,Point(80.92 27.08),26.936,27.08,80.92,18,http://www.wikidata.org/entity/Q486972,Itaunja,human settlement,A,green
11,http://www.wikidata.org/entity/Q3780142,,https://en.wikipedia.org/wiki/Barabanki,Point(81.2 26.92),27.852,26.92,81.2,18,http://www.wikidata.org/entity/Q515,Barabanki,city,A,green
12,http://www.wikidata.org/entity/Q1707530,,"https://en.wikipedia.org/wiki/Gosainganj,_Lucknow",Point(81.12 26.77),19.897,26.77,81.12,17,http://www.wikidata.org/entity/Q486972,Gosainganj,human settlement,A,green
13,http://www.wikidata.org/entity/Q2483390,https://de.wikipedia.org/wiki/Lucknow_(Division),https://en.wikipedia.org/wiki/Lucknow_division,Point(80.92 26.85),1.962,26.85,80.92,17,http://www.wikidata.org/entity/Q125907346,Lucknow division,division of Uttar Pradesh,A,green
14,http://www.wikidata.org/entity/Q2717886,,https://en.wikipedia.org/wiki/Satrikh,Point(81.2 26.87),26.565,26.87,81.2,16,http://www.wikidata.org/entity/Q486972,Satrikh,human settlement,A,green
15,http://www.wikidata.org/entity/Q1925021,,"https://en.wikipedia.org/wiki/Mohan,_Uttar_Pradesh",Point(80.67 26.78),27.041,26.78,80.67,15,http://www.wikidata.org/entity/Q2322432,Mohan,Nagar Panchayat,A,green
17,http://www.wikidata.org/entity/Q109373985,https://de.wikipedia.org/wiki/Ekana_International_Cricket_Stadium,https://en.wikipedia.org/wiki/Ekana_Cricket_Stadium,Point(81.0168 26.8112),8.687,26.8112,81.0168,14,http://www.wikidata.org/entity/Q483110,Ekana Cricket Stadium,stadium,A,green
19,http://www.wikidata.org/entity/Q4253367,,https://en.wikipedia.org/wiki/University_of_Lucknow,Point(80.9364 26.8656),3.063,26.8656,80.9364,13,http://www.wikidata.org/entity/Q3918,University of Lucknow,university,A,green
20,http://www.wikidata.org/entity/Q7903333,,https://en.wikipedia.org/wiki/Uttar_Pradesh_Legislative_Assembly,Point(80.9442 26.8436),1.132,26.8436,80.9442,13,http://www.wikidata.org/entity/Q3091020,Uttar Pradesh Legislative Assembly,Vidhan Sabha,A,green
21,http://www.wikidata.org/entity/Q608154,https://de.wikipedia.org/wiki/Nawabganj_(Barabanki),"https://en.wikipedia.org/wiki/Nawabganj,_Barabanki",Point(81.19 26.94),27.746,26.94,81.19,13,http://www.wikidata.org/entity/Q486972,Nawabganj,human settlement,A,green
22,http://www.wikidata.org/entity/Q392051,https://de.wikipedia.org/wiki/Bistum_Lucknow,https://en.wikipedia.org/wiki/Roman_Catholic_Diocese_of_Lucknow,Point(80.94275 26.85025),1.574,26.85025,80.94275,12,http://www.wikidata.org/entity/Q3146899,Roman Catholic Diocese of Lucknow,diocese of the Catholic Church,A,green
23,http://www.wikidata.org/entity/Q797585,https://de.wikipedia.org/wiki/Babasaheb_Bhimrao_Ambedkar_University,https://en.wikipedia.org/wiki/Babasaheb_Bhimrao_Ambedkar_University,Point(80.9195 26.7718),7.523,26.7718,80.9195,12,http://www.wikidata.org/entity/Q3918,Babasaheb Bhimrao Ambedkar University,university,A,green
24,http://www.wikidata.org/entity/Q815165,https://de.wikipedia.org/wiki/Belagerung_von_Lucknow,https://en.wikipedia.org/wiki/Siege_of_Lucknow,Point(80.947 26.847),1.579,26.860556,80.915833,12,http://www.wikidata.org/entity/Q188055,Siege of Lucknow,siege,A,green
28,http://www.wikidata.org/entity/Q4118173,https://de.wikipedia.org/wiki/Chhota_Imambara,https://en.wikipedia.org/wiki/Chota_Imambara,Point(80.915833 26.860556),3.115,26.860556,80.915833,12,http://www.wikidata.org/entity/Q141140,Chhota Imambara,husayniyya,A,green
29,http://www.wikidata.org/entity/Q580988,,"https://en.wikipedia.org/wiki/Amethi,_Lucknow",Point(81.15 26.76),23.074,26.76,81.15,11,http://www.wikidata.org/entity/Q486972,Amethi,human settlement,A,green
30,http://www.wikidata.org/entity/Q3634604,,https://en.wikipedia.org/wiki/United_Provinces_(1937%E2%80%931950),Point(80.947 26.847),1.579,26.847,80.947,11,http://www.wikidata.org/entity/Q15646712,United Provinces,province of British India,A,green
31,http://www.wikidata.org/entity/Q7379279,,https://en.wikipedia.org/wiki/Rumi_Darwaza,Point(80.912222222 26.871111111),4.29,26.871111111111,80.912222222222,11,http://www.wikidata.org/entity/Q53060,Rumi Darwaza,gate,A,green
32,http://www.wikidata.org/entity/Q5123309,https://de.wikipedia.org/wiki/City_Montessori_School,https://en.wikipedia.org/wiki/City_Montessori_School,Point(80.8942 26.7896),6.72,26.7896,80.8942,11,http://www.wikidata.org/entity/Q3914,City Montessori School,school,A,green
33,http://www.wikidata.org/entity/Q46023,,https://en.wikipedia.org/wiki/Indian_Institute_of_Management_Lucknow,Point(80.899372222 26.937375),11.578,26.937375,80.899372222222,11,http://www.wikidata.org/entity/Q3918,Indian Institute of Management Lucknow,university,A,green
34,http://www.wikidata.org/entity/Q4120108,https://de.wikipedia.org/wiki/Nadwat_al-%CA%BFUlam%C4%81%CA%BE,https://en.wikipedia.org/wiki/Darul_Uloom_Nadwatul_Ulama,Point(80.932514 26.865123),3.012,26.865123,80.932514,10,http://www.wikidata.org/entity/Q4671277,Darul-uloom Nadwatul Ulama,academic institution,A,green
38,http://www.wikidata.org/entity/Q1550186,https://de.wikipedia.org/wiki/Sikandar_Bag,https://en.wikipedia.org/wiki/Sikandar_Bagh,Point(80.925438888 26.860955555),2.699,26.860955555556,80.925438888889,9,http://www.wikidata.org/entity/Q22698,Sikandar Bagh,park,B,violet
39,http://www.wikidata.org/entity/Q6411596,,https://en.wikipedia.org/wiki/King_George%27s_Medical_University,Point(80.916626 26.867716),3.745,26.867716,80.916626,8,http://www.wikidata.org/entity/Q3918,King George's Medical University,university,B,violet
40,http://www.wikidata.org/entity/Q7418428,,https://en.wikipedia.org/wiki/Sanjay_Gandhi_Postgraduate_Institute_of_Medical_Sciences,Point(80.94515 26.74334),10.588,26.74334,80.94515,8,http://www.wikidata.org/entity/Q3918,Sanjay Gandhi Post Graduate Institute of Medical Sciences,university,B,violet
42,http://www.wikidata.org/entity/Q7760279,,"https://en.wikipedia.org/wiki/The_Residency,_Lucknow",Point(80.9257 26.8618),2.779,26.8618,80.9257,8,http://www.wikidata.org/entity/Q1497364,The Residency Lucknow,building complex,B,violet
43,http://www.wikidata.org/entity/Q6323290,,"https://en.wikipedia.org/wiki/K._D._Singh_Babu_Stadium,_Lucknow",Point(80.93773333 26.85538889),1.947,26.85538889,80.93773333,7,http://www.wikidata.org/entity/Q682943,"K. D. Singh Babu Stadium, Lucknow",cricket field,B,violet
44,http://www.wikidata.org/entity/Q16978007,,https://en.wikipedia.org/wiki/Imambara_Shah_Najaf,Point(80.946252777 26.859730555),2.668,26.859730555556,80.946252777778,7,http://www.wikidata.org/entity/Q141140,Shah Najaf Imambara,husayniyya,B,violet
48,http://www.wikidata.org/entity/Q18125796,,https://en.wikipedia.org/wiki/Husainabad_Clock_Tower,Point(80.906788 26.874581),4.906,26.874581,80.906788,6,http://www.wikidata.org/entity/Q853854,Husainabad Clock Tower,clock tower,B,violet
49,http://www.wikidata.org/entity/Q59976887,,https://en.wikipedia.org/wiki/Atal_Bihari_Vajpayee_Medical_University,Point(81.0044336 26.8706965),7.818,26.8706965,81.0044336,6,http://www.wikidata.org/entity/Q3918,Atal Bihari Vajpayee Medical University,university,B,violet
52,http://www.wikidata.org/entity/Q4741185,,https://en.wikipedia.org/wiki/Ambedkar_Memorial_Park,Point(80.97597 26.84793),4.247,26.84793,80.97597,5,http://www.wikidata.org/entity/Q22698,Ambedkar Memorial,park,B,violet
53,http://www.wikidata.org/entity/Q5276840,,https://en.wikipedia.org/wiki/Dilkusha_Kothi,Point(80.954 26.831),2.08,26.831,80.954,5,http://www.wikidata.org/entity/Q109607,Dilkusha Kothi,ruins,B,violet
55,http://www.wikidata.org/entity/Q6697767,,https://en.wikipedia.org/wiki/Lucknow_Air_Force_Station,Point(80.891388888 26.988611111),17.275,26.988611111111,80.891388888889,5,http://www.wikidata.org/entity/Q1248784,Lucknow Air Force Station,airport,B,violet
56,http://www.wikidata.org/entity/Q7898660,,https://en.wikipedia.org/wiki/Upper_Gangetic_Plains_moist_deciduous_forests,Point(80.916666666 26.85),2.217,26.85,80.916666666667,5,http://www.wikidata.org/entity/Q295469,Upper Gangetic Plains moist deciduous forests,ecoregion,B,violet
58,http://www.wikidata.org/entity/Q3595736,,https://en.wikipedia.org/wiki/Central_Institute_of_Medicinal_and_Aromatic_Plants,Point(80.9816 26.894),7.77,26.894,80.9816,4,http://www.wikidata.org/entity/Q31855,Central Institute of Medicinal and Aromatic Plants,research institute,C,yellow
61,http://www.wikidata.org/entity/Q5304343,,https://en.wikipedia.org/wiki/Dr._Ram_Manohar_Lohiya_National_Law_University,Point(80.906961111 26.783197222),6.692,26.783197222222,80.906961111111,4,http://www.wikidata.org/entity/Q3918,Dr. Ram Manohar Lohia National Law University,university,C,yellow
64,http://www.wikidata.org/entity/Q7894707,,https://en.wikipedia.org/wiki/University_Ground_(University_of_Lucknow),Point(80.93583333 26.86416667),2.901,26.86416667,80.93583333,4,http://www.wikidata.org/entity/Q682943,University Ground,cricket field,C,yellow
65,http://www.wikidata.org/entity/Q7903331,,https://en.wikipedia.org/wiki/Uttar_Pradesh_Cricket_Association,Point(81.01527778 26.81055556),8.571,26.81055556,81.01527778,4,http://www.wikidata.org/entity/Q2485448,Uttar Pradesh Cricket Association,sports governing body,C,yellow
67,http://www.wikidata.org/entity/Q7903351,,https://en.wikipedia.org/wiki/Dr._A.P.J._Abdul_Kalam_Technical_University,Point(80.939991666 26.944475),11.84,26.944475,80.939991666667,4,http://www.wikidata.org/entity/Q3918,Dr. A. P. J. Abdul Kalam Technical University,university,C,yellow
68,http://www.wikidata.org/entity/Q17011872,,https://en.wikipedia.org/wiki/Nadan_Mahal,Point(80.910848461 26.854517176),2.981,26.854517176986,80.910848461584,4,http://www.wikidata.org/entity/Q162875,Nadan Mahal,mausoleum,C,yellow
69,http://www.wikidata.org/entity/Q18126216,,https://en.wikipedia.org/wiki/Janeshwar_Mishra_Park,Point(80.9887 26.8349),5.379,26.8349,80.9887,4,http://www.wikidata.org/entity/Q22698,"Janeshwar Mishra Park, Lucknow",park,C,yellow
72,http://www.wikidata.org/entity/Q26258541,,https://en.wikipedia.org/wiki/Guru_Gobind_Singh_Sports_College,Point(80.9784631 26.9330826),11.422,26.9330826,80.9784631,4,http://www.wikidata.org/entity/Q11385193,"Guru Gobind Singh Sports College, Lucknow",Sports College,C,yellow
73,http://www.wikidata.org/entity/Q30676427,,"https://en.wikipedia.org/wiki/Jama_Mosque,_Lucknow",Point(80.90101 26.87259),5.08,26.87259,80.90101,4,http://www.wikidata.org/entity/Q32815,Jama Mosque,mosque,C,yellow
74,http://www.wikidata.org/entity/Q3635798,,https://en.wikipedia.org/wiki/Bhatkhande_Sanskriti_Vishwavidyalaya,Point(80.93305556 26.85361111),1.731,26.85361111,80.93305556,3,http://www.wikidata.org/entity/Q38723,Bhatkhande Music Institute,higher education institution,C,yellow
75,http://www.wikidata.org/entity/Q4838040,,https://en.wikipedia.org/wiki/Babu_Banarasi_Das_University,Point(81.0568422 26.8888142),13.372,26.8888142,81.0568422,3,http://www.wikidata.org/entity/Q3918,Babu Banarasi Das University,university,C,yellow
76,http://www.wikidata.org/entity/Q4901310,,https://en.wikipedia.org/wiki/Bharatendu_Academy_of_Dramatic_Arts,Point(80.994849 26.853374),6.214,26.853374,80.994849,3,http://www.wikidata.org/entity/Q2143781,Bhartendu Academy of Dramatic Arts,drama school,C,yellow
77,http://www.wikidata.org/entity/Q5527869,,https://en.wikipedia.org/wiki/Gautam_Buddh_Technical_University,Point(80.9413 26.9146),8.532,26.9146,80.9413,3,http://www.wikidata.org/entity/Q4671277,Gautam Buddh Technical University,academic institution,C,yellow
78,http://www.wikidata.org/entity/Q6776417,,https://en.wikipedia.org/wiki/Martin_Purwa,Point(80.96 26.841),2.541,26.841,80.96,3,http://www.wikidata.org/entity/Q56436498,Martin Purwa,Village in India,C,yellow
79,http://www.wikidata.org/entity/Q7398428,,https://en.wikipedia.org/wiki/Safdarganj,Point(81.2 26.92),27.852,26.92,81.2,3,http://www.wikidata.org/entity/Q56436498,Safdarganj,Village in India,C,yellow
80,http://www.wikidata.org/entity/Q7587928,,https://en.wikipedia.org/wiki/St._Francis%27_College,Point(80.9436023 26.8513104),1.719,26.8513104,80.9436023,3,http://www.wikidata.org/entity/Q3918,St. Francis' College,university,C,yellow
88,http://www.wikidata.org/entity/Q15228659,,"https://en.wikipedia.org/wiki/Indira_Nagar,_Lucknow",Point(80.98333333 26.88333333),6.976,26.88333333,80.98333333,3,http://www.wikidata.org/entity/Q618123,"Indira Nagar, Lucknow",geographical feature,C,yellow
89,http://www.wikidata.org/entity/Q15271399,,"https://en.wikipedia.org/wiki/Raj_Bhavan,_Lucknow",Point(80.946495 26.840948),1.222,26.840948,80.946495,3,http://www.wikidata.org/entity/Q41176,Raj Bhavan (Uttar Pradesh),building,C,yellow
94,http://www.wikidata.org/entity/Q16238657,,https://en.wikipedia.org/wiki/Amir-ud-daula_Public_Library,Point(80.931111111 26.851111111),1.488,26.851111111111,80.931111111111,3,http://www.wikidata.org/entity/Q28564,Amir-ud-daula Public Library,public library,C,yellow
96,http://www.wikidata.org/entity/Q16919518,,"https://en.wikipedia.org/wiki/State_Museum,_Lucknow",Point(80.954722222 26.845277777),2.15,26.845277777778,80.954722222222,3,http://www.wikidata.org/entity/Q33506,State museum Lucknow,museum,C,yellow
97,http://www.wikidata.org/entity/Q16964372,,"https://en.wikipedia.org/wiki/National_Institute_of_Pharmaceutical_Education_and_Research,_Raebareli",Point(80.903801 26.724168),13.032,26.724168,80.903801,3,http://www.wikidata.org/entity/Q3918,"National Institute of Pharmaceutical Education and Research, Raebareli",university,C,yellow
100,http://www.wikidata.org/entity/Q17307607,,https://en.wikipedia.org/wiki/National_Bureau_of_Fish_Genetic_Resources,Point(80.933304 26.79127),5.209,26.79127,80.933304,3,http://www.wikidata.org/entity/Q13226383,National Bureau of Fish Genetic Resources,facility,C,yellow
102,http://www.wikidata.org/entity/Q20647462,,"https://en.wikipedia.org/wiki/Indian_Institute_of_Information_Technology,_Lucknow",Point(81.024208333 26.800833333),9.81,26.800833333333,81.024208333333,3,http://www.wikidata.org/entity/Q3918,"Indian Institute of Information Technology, Lucknow",university,C,yellow
103,http://www.wikidata.org/entity/Q24943244,,"https://en.wikipedia.org/wiki/All_Saints_Garrison_Church,_Lucknow",Point(80.955 26.81111111),3.62,26.81111111,80.955,3,http://www.wikidata.org/entity/Q16970,"All Saints Garrison Church, Lucknow",church building,C,yellow
104,http://www.wikidata.org/entity/Q24943319,,"https://en.wikipedia.org/wiki/Christ_Church,_Lucknow",Point(80.9475 26.845),1.492,26.845,80.9475,3,http://www.wikidata.org/entity/Q16970,"Christ Church, Lucknow",church building,C,yellow
105,http://www.wikidata.org/entity/Q24947374,,https://en.wikipedia.org/wiki/Samesi,Point(81.1 26.61666667),29.597,26.61666667,81.1,3,http://www.wikidata.org/entity/Q56436498,Samesi,Village in India,C,yellow
108,http://www.wikidata.org/entity/Q48730526,,https://en.wikipedia.org/wiki/Kalli_Pashchim,Point(80.9 26.716666666),13.932,26.716666666667,80.9,3,http://www.wikidata.org/entity/Q16830604,Kalli Pashchim,census town of India,C,yellow
109,http://www.wikidata.org/entity/Q4901844,,https://en.wikipedia.org/wiki/Bhitauli,Point(80.92836 26.935294),10.825,26.935294,80.92836,2,http://www.wikidata.org/entity/Q56436498,Bhitauli,Village in India,C,yellow
110,http://www.wikidata.org/entity/Q5150315,,,Point(80.941 26.8637),2.916,26.8637,80.941,2,http://www.wikidata.org/entity/Q4671277,Colvin Taluqdars' College,academic institution,C,yellow
111,http://www.wikidata.org/entity/Q5269942,,"https://en.wikipedia.org/wiki/Major_Dhyan_Chand_Hockey_Stadium,_Lucknow",Point(80.982778 26.930833),11.364,26.930833,80.982778,2,http://www.wikidata.org/entity/Q483110,Dhyan Chand Astroturf Stadium,stadium,C,yellow
113,http://www.wikidata.org/entity/Q5639808,,"https://en.wikipedia.org/wiki/Haj_House,_Lucknow",Point(80.867717 26.75487),11.389,26.75487,80.867717,2,http://www.wikidata.org/entity/Q811979,"Haj House, Lucknow",architectural structure,C,yellow
114,http://www.wikidata.org/entity/Q6040391,,"https://en.wikipedia.org/wiki/Institute_of_Hotel_Management,_Lucknow",Point(80.95 26.893),6.293,26.893,80.95,2,http://www.wikidata.org/entity/Q4671277,"Institute of Hotel Management, Lucknow",academic institution,C,yellow
117,http://www.wikidata.org/entity/Q6697780,,https://en.wikipedia.org/wiki/Nawab_Wajid_Ali_Shah_Prani_Udyan,Point(80.95463 26.84607),2.176,26.84607,80.95463,2,http://www.wikidata.org/entity/Q43501,Lucknow Zoo,zoo,C,yellow
120,http://www.wikidata.org/entity/Q6939898,,https://en.wikipedia.org/wiki/Musa_Bagh,Point(80.874238246 26.889842638),8.303,26.889842638071,80.874238246,2,http://www.wikidata.org/entity/Q1107656,Musa Bagh,garden,C,yellow
124,http://www.wikidata.org/entity/Q15214983,,https://en.wikipedia.org/wiki/Dr._Akhilesh_Das_Gupta_Stadium,Point(81.058481 26.883799),13.297,26.883799,81.058481,2,http://www.wikidata.org/entity/Q483110,Dr. Akhilesh Das Stadium,stadium,C,yellow
126,http://www.wikidata.org/entity/Q17049171,,https://en.wikipedia.org/wiki/Aishbagh,Point(80.905965087 26.838892949),2.842,26.838892949034,80.905965087052,2,http://www.wikidata.org/entity/Q15642541,Aishbagh,human-geographic territorial entity,C,yellow
156,http://www.wikidata.org/entity/Q22909029,,"https://en.wikipedia.org/wiki/Sri_Ramakrishna_Math,_Lucknow",Point(80.94 26.87416667),4.046,26.87416667,80.94,2,http://www.wikidata.org/entity/Q842402,"Sri Ramakrishna Math, Lucknow",Hindu temple,C,yellow
157,http://www.wikidata.org/entity/Q24928029,,https://en.wikipedia.org/wiki/Babu_Banarasi_Das_Indoor_Stadium,Point(80.980177 26.853264),4.826,26.853264,80.980177,2,http://www.wikidata.org/entity/Q641226,Babu Banarasi Das Indoor Stadium,arena,C,yellow
158,http://www.wikidata.org/entity/Q24943422,,https://en.wikipedia.org/wiki/Khwaja_Moinuddin_Chishti_Language_University,Point(80.8963037 26.928766),10.773,26.928766,80.8963037,2,http://www.wikidata.org/entity/Q3918,"Khwaja Moinuddin Chishti Urdu, Arabi-Farsi University, Lucknow",university,C,yellow
161,http://www.wikidata.org/entity/Q28178829,,https://en.wikipedia.org/wiki/Alapur,Point(81.16138889 26.91194444),23.945,26.91194444,81.16138889,2,http://www.wikidata.org/entity/Q56436498,Alapur,Village in India,C,yellow
162,http://www.wikidata.org/entity/Q124053909,,https://en.wikipedia.org/wiki/Ekana_Football_Stadium,Point(81.0201 26.8131),8.927,26.8131,81.0201,2,http://www.wikidata.org/entity/Q17350442,Ekana Football Stadium,venue,C,yellow
163,http://www.wikidata.org/entity/Q39073876,,https://en.wikipedia.org/wiki/Department_of_Home_and_Confidential,Point(80.944446 26.8404943),1.012,26.8404943,80.944446,2,http://www.wikidata.org/entity/Q327333,Department of Home,government agency,C,yellow
164,http://www.wikidata.org/entity/Q48733817,,https://en.wikipedia.org/wiki/Department_of_Appointment_and_Personnel,Point(80.944446 26.8404943),1.012,26.8404943,80.944446,2,http://www.wikidata.org/entity/Q327333,Department of Appointment and Personnel,government agency,C,yellow
165,http://www.wikidata.org/entity/Q48733824,,https://en.wikipedia.org/wiki/Department_of_Urban_Development_(Uttar_Pradesh),Point(80.944446 26.8404943),1.012,26.8404943,80.944446,2,http://www.wikidata.org/entity/Q327333,Department of Urban Development,government agency,C,yellow
167,http://www.wikidata.org/entity/Q97705529,,https://en.wikipedia.org/wiki/Bibiyapur_Kothi,Point(80.9819 26.8222),5.015,26.8222,80.9819,2,http://www.wikidata.org/entity/Q1081138,Bibiapur House,historic site,C,yellow
169,http://www.wikidata.org/entity/Q97705542,,https://en.wikipedia.org/wiki/General_Wali_Kothi,Point(80.931148232 26.859731468),2.429,26.859731468484,80.93114823256,2,http://www.wikidata.org/entity/Q41176,General Wali Kothi,building,C,yellow
170,http://www.wikidata.org/entity/Q106006848,,https://en.wikipedia.org/wiki/Chamartaliya,Point(81.16992 26.7629),24.806,26.7629,81.16992,2,http://www.wikidata.org/entity/Q56061,Chamartaliya,administrative territorial entity,C,yellow
171,http://www.wikidata.org/entity/Q106006858,,https://en.wikipedia.org/wiki/Dularmau,Point(81.06098 26.7927),13.519,26.7927,81.06098,2,http://www.wikidata.org/entity/Q56061,Dularmau,administrative territorial entity,C,yellow
172,http://www.wikidata.org/entity/Q106006872,,https://en.wikipedia.org/wiki/Ghuskar,Point(81.18359 26.76753),25.927,26.76753,81.18359,2,http://www.wikidata.org/entity/Q56061,Ghuskar,administrative territorial entity,C,yellow
174,http://www.wikidata.org/entity/Q5061251,,https://en.wikipedia.org/wiki/Central_Institute_for_Medicinal_and_Aromatic_Plants,Point(80.9816 26.894),7.77,26.894,80.9816,1,http://www.wikidata.org/entity/Q3918,Central Institute for Medicinal and Aromatic Plants,university,D,blue
175,http://www.wikidata.org/entity/Q5304386,,https://en.wikipedia.org/wiki/Dr._Shakuntala_Misra_National_Rehabilitation_University,Point(80.837241666 26.832927777),9.677,26.832927777778,80.837241666667,1,http://www.wikidata.org/entity/Q3918,Dr. Shakuntala Misra Rehabilitation University,university,D,blue
177,http://www.wikidata.org/entity/Q5588730,,"https://en.wikipedia.org/wiki/Faculty_of_Architecture_and_Planning,_Dr._A.P.J._Abdul_Kalam_Technical_University",Point(80.9307761 26.8642342),2.931,26.8642342,80.9307761,1,http://www.wikidata.org/entity/Q4671277,Government College of Architecture,academic institution,D,blue
178,http://www.wikidata.org/entity/Q5589045,,https://en.wikipedia.org/wiki/Government_Polytechnic_Barabanki,Point(81.20333333 26.95972222),29.882,26.95972222,81.20333333,1,http://www.wikidata.org/entity/Q1664720,Government Polytechnic Barabanki,institute,D,blue
179,http://www.wikidata.org/entity/Q6374601,,https://en.wikipedia.org/wiki/Kasmandi_Kalan,Point(80.77 26.93),19.258,26.93,80.77,1,http://www.wikidata.org/entity/Q56436498,Kasmandi Kalan,Village in India,D,blue
180,http://www.wikidata.org/entity/Q6697769,,"https://en.wikipedia.org/wiki/Faculty_of_Fine_Arts,_University_of_Lucknow",Point(80.9329208 26.8626145),2.731,26.8626145,80.9329208,1,http://www.wikidata.org/entity/Q3918,Lucknow College of Arts and Crafts,university,D,blue
182,http://www.wikidata.org/entity/Q7400509,,"https://en.wikipedia.org/wiki/Sainik_School,_Lucknow",Point(80.8611 26.7538),11.877,26.7538,80.8611,1,http://www.wikidata.org/entity/Q7400500,"Sainik School, Lucknow",Sainik Schools,D,blue
185,http://www.wikidata.org/entity/Q7878152,,https://en.wikipedia.org/wiki/Ujariyaon,Point(81.0 26.866666666),7.224,26.866666666667,81.0,1,http://www.wikidata.org/entity/Q56436498,Ujariyaon,Village in India,D,blue
187,http://www.wikidata.org/entity/Q15229942,,"https://en.wikipedia.org/wiki/K._D._Singh_Babu_Stadium,_Barabanki",Point(81.18944444 26.925),27.058,26.925,81.18944444,1,http://www.wikidata.org/entity/Q483110,"K. D. Singh Babu Stadium, Barabanki",stadium,D,blue
194,http://www.wikidata.org/entity/Q18124474,,"https://en.wikipedia.org/wiki/D.A.V._P.G._College,_Lucknow",Point(80.9159 26.8363),1.866,26.8363,80.9159,1,http://www.wikidata.org/entity/Q4671277,D.A.V. College Lucknow,academic institution,D,blue
195,http://www.wikidata.org/entity/Q18127550,,,Point(81.01527778 26.81055556),8.571,26.81055556,81.01527778,1,http://www.wikidata.org/entity/Q682943,Q18127550,cricket field,D,blue
197,http://www.wikidata.org/entity/Q22080565,,https://en.wikipedia.org/wiki/Shri_Ramswaroop_Memorial_University,Point(81.0981 26.951636111),20.548,26.951636111111,81.0981,1,http://www.wikidata.org/entity/Q3918,Shri Ramswaroop Memorial University,university,D,blue
198,http://www.wikidata.org/entity/Q24590234,,https://en.wikipedia.org/wiki/S.R._Institute_of_Management_%26_Technology,Point(80.9225 27.00694444),18.812,27.00694444,80.9225,1,http://www.wikidata.org/entity/Q4671277,S.R. Institute of Management & Technology,academic institution,D,blue
199,http://www.wikidata.org/entity/Q24906415,,"https://en.wikipedia.org/wiki/Dr._Ram_Manohar_Lohia_Park,_Gomti_Nagar",Point(80.99396667 26.83935),5.892,26.83935,80.99396667,1,http://www.wikidata.org/entity/Q22698,"Dr. Ram Manohar Lohia Park, Gomti Nagar",park,D,blue
200,http://www.wikidata.org/entity/Q24932472,,https://en.wikipedia.org/wiki/Manyawar_Shri_Kanshiram_Ji_Green_Eco_Garden,Point(80.919377 26.810966),3.374,26.810966,80.919377,1,http://www.wikidata.org/entity/Q22698,Manyawar Shri Kanshiram Ji Green Eco Garden,park,D,blue
201,http://www.wikidata.org/entity/Q26780940,,,Point(80.966666666 26.833333333),3.225,26.833333333333,80.966666666667,1,http://www.wikidata.org/entity/Q12284,Nawāb Ghāziuddīn Haidars Canal,canal,D,blue
202,http://www.wikidata.org/entity/Q26810290,,,Point(80.924722222 26.641111111),21.925,26.641111111111,80.924722222222,1,http://www.wikidata.org/entity/Q30198,Q26810290,marsh,D,blue
203,http://www.wikidata.org/entity/Q26810850,,,Point(81.096388888 26.641944444),27.089,26.641944444444,81.096388888889,1,http://www.wikidata.org/entity/Q30198,Q26810850,marsh,D,blue
204,http://www.wikidata.org/entity/Q26810851,,,Point(81.0875 26.643333333),26.448,26.643333333333,81.0875,1,http://www.wikidata.org/entity/Q30198,Q26810851,marsh,D,blue
205,http://www.wikidata.org/entity/Q26810848,,,Point(81.086111111 26.616666666),28.855,26.616666666667,81.086111111111,1,http://www.wikidata.org/entity/Q30198,Q26810848,marsh,D,blue
206,http://www.wikidata.org/entity/Q26810849,,,Point(81.072222222 26.615555555),28.268,26.615555555556,81.072222222222,1,http://www.wikidata.org/entity/Q30198,Q26810849,marsh,D,blue
207,http://www.wikidata.org/entity/Q26810854,,,Point(81.038611111 26.671111111),21.246,26.671111111111,81.038611111111,1,http://www.wikidata.org/entity/Q30198,Q26810854,marsh,D,blue
208,http://www.wikidata.org/entity/Q26810855,,,Point(81.016944444 26.685),18.884,26.685,81.016944444444,1,http://www.wikidata.org/entity/Q30198,Q26810855,marsh,D,blue
209,http://www.wikidata.org/entity/Q26810852,,,Point(81.066944444 26.658611111),23.895,26.658611111111,81.066944444444,1,http://www.wikidata.org/entity/Q30198,Q26810852,marsh,D,blue
210,http://www.wikidata.org/entity/Q26810853,,,Point(81.057222222 26.6725),22.074,26.6725,81.057222222222,1,http://www.wikidata.org/entity/Q30198,Q26810853,marsh,D,blue
211,http://www.wikidata.org/entity/Q26810858,,,Point(81.156944444 26.985833333),27.492,26.985833333333,81.156944444444,1,http://www.wikidata.org/entity/Q30198,Q26810858,marsh,D,blue
212,http://www.wikidata.org/entity/Q26810859,,,Point(81.076666666 26.760555555),16.527,26.760555555556,81.076666666667,1,http://www.wikidata.org/entity/Q30198,Q26810859,marsh,D,blue
213,http://www.wikidata.org/entity/Q26810857,,,Point(81.17974 26.99523),29.932,26.99523,81.17974,1,http://www.wikidata.org/entity/Q30198,Q26810857,marsh,D,blue
214,http://www.wikidata.org/entity/Q26810862,,,Point(81.075833333 26.791944444),14.925,26.791944444444,81.075833333333,1,http://www.wikidata.org/entity/Q30198,Q26810862,marsh,D,blue
215,http://www.wikidata.org/entity/Q26810860,,,Point(81.042222222 26.7625),13.592,26.7625,81.042222222222,1,http://www.wikidata.org/entity/Q30198,Q26810860,marsh,D,blue
216,http://www.wikidata.org/entity/Q26810861,,,Point(81.064166666 26.789444444),13.949,26.789444444444,81.064166666667,1,http://www.wikidata.org/entity/Q30198,Q26810861,marsh,D,blue
217,http://www.wikidata.org/entity/Q26810866,,,Point(81.13 26.923055555),21.559,26.923055555556,81.13,1,http://www.wikidata.org/entity/Q30198,Q26810866,marsh,D,blue
218,http://www.wikidata.org/entity/Q26810867,,,Point(81.111111111 26.995),24.71,26.995,81.111111111111,1,http://www.wikidata.org/entity/Q30198,Q26810867,marsh,D,blue
219,http://www.wikidata.org/entity/Q26810864,,,Point(81.049444444 26.831111111),11.421,26.831111111111,81.049444444444,1,http://www.wikidata.org/entity/Q30198,Q26810864,marsh,D,blue
220,http://www.wikidata.org/entity/Q26810865,,,Point(81.031666666 26.853888888),9.788,26.853888888889,81.031666666667,1,http://www.wikidata.org/entity/Q30198,Q26810865,marsh,D,blue
221,http://www.wikidata.org/entity/Q26810870,,,Point(81.012222222 26.998611111),19.436,26.998611111111,81.012222222222,1,http://www.wikidata.org/entity/Q30198,Q26810870,marsh,D,blue
222,http://www.wikidata.org/entity/Q26810868,,,Point(81.050555555 26.983888888),19.873,26.983888888889,81.050555555556,1,http://www.wikidata.org/entity/Q30198,Q26810868,marsh,D,blue
223,http://www.wikidata.org/entity/Q26810869,,,Point(81.025555555 26.972777777),17.481,26.972777777778,81.025555555556,1,http://www.wikidata.org/entity/Q30198,Q26810869,marsh,D,blue
224,http://www.wikidata.org/entity/Q26811422,,,Point(80.991111111 27.046111111),23.797,27.046111111111,80.991111111111,1,http://www.wikidata.org/entity/Q55463449,Q26811422,intermittent wetland,D,blue
225,http://www.wikidata.org/entity/Q26811438,,,Point(80.865555555 27.066388888),26.29,27.066388888889,80.865555555556,1,http://www.wikidata.org/entity/Q55463449,Q26811438,intermittent wetland,D,blue
226,http://www.wikidata.org/entity/Q26811436,,,Point(80.945833333 27.074722222),26.333,27.074722222222,80.945833333333,1,http://www.wikidata.org/entity/Q55463449,Q26811436,intermittent wetland,D,blue
227,http://www.wikidata.org/entity/Q26811442,,,Point(80.776388888 27.026111111),26.134,27.026111111111,80.776388888889,1,http://www.wikidata.org/entity/Q55463449,Q26811442,intermittent wetland,D,blue
228,http://www.wikidata.org/entity/Q26811440,,,Point(80.916111111 27.072222222),26.096,27.072222222222,80.916111111111,1,http://www.wikidata.org/entity/Q55463449,Q26811440,intermittent wetland,D,blue
229,http://www.wikidata.org/entity/Q26816060,,,Point(81.121944444 27.029444444),28.241,27.029444444444,81.121944444444,1,http://www.wikidata.org/entity/Q30198,Q26816060,marsh,D,blue
230,http://www.wikidata.org/entity/Q26816064,,,Point(81.153055555 27.004444444),28.481,27.004444444444,81.153055555556,1,http://www.wikidata.org/entity/Q30198,Q26816064,marsh,D,blue
231,http://www.wikidata.org/entity/Q26816065,,,Point(81.101388888 27.051111111),28.884,27.051111111111,81.101388888889,1,http://www.wikidata.org/entity/Q30198,Q26816065,marsh,D,blue
232,http://www.wikidata.org/entity/Q28154289,,https://en.wikipedia.org/wiki/Era_University,Point(80.872679 26.878235),7.592,26.878235,80.872679,1,http://www.wikidata.org/entity/Q3918,Era University,university,D,blue
236,http://www.wikidata.org/entity/Q106725920,,https://en.wikipedia.org/wiki/Khasarwara,Point(80.830946 26.666866),21.643,26.666866,80.830946,1,http://www.wikidata.org/entity/Q56061,Khasarwara,administrative territorial entity,D,blue
237,http://www.wikidata.org/entity/Q106725927,,"https://en.wikipedia.org/wiki/Chandrawal,_Lucknow",Point(80.879999 26.712726),14.957,26.712726,80.879999,1,http://www.wikidata.org/entity/Q56061,"Chandrawal, Lucknow",administrative territorial entity,D,blue
238,http://www.wikidata.org/entity/Q106725924,,"https://en.wikipedia.org/wiki/Beli,_Lucknow",Point(81.074715 26.753738),16.774,26.753738,81.074715,1,http://www.wikidata.org/entity/Q56061,"Beli, Lucknow",administrative territorial entity,D,blue
239,http://www.wikidata.org/entity/Q106726576,,"https://en.wikipedia.org/wiki/Bijnaur,_Lucknow",Point(80.904183 26.74042),11.273,26.74042,80.904183,1,http://www.wikidata.org/entity/Q56061,"Bijnaur, Lucknow",administrative territorial entity,D,blue
240,http://www.wikidata.org/entity/Q106770246,,https://en.wikipedia.org/wiki/Dadupur,Point(80.817116 26.689262),20.246,26.689262,80.817116,1,http://www.wikidata.org/entity/Q56061,Dadupur,administrative territorial entity,D,blue
241,http://www.wikidata.org/entity/Q106770248,,https://en.wikipedia.org/wiki/Ramchaura,Point(80.816521 26.705651),18.822,26.705651,80.816521,1,http://www.wikidata.org/entity/Q56061,Ramchaura,administrative territorial entity,D,blue
242,http://www.wikidata.org/entity/Q106770425,,https://en.wikipedia.org/wiki/Piparsand,Point(80.808945 26.746168),16.125,26.746168,80.808945,1,http://www.wikidata.org/entity/Q56061,Piparsand,administrative territorial entity,D,blue
243,http://www.wikidata.org/entity/Q107586799,,,Point(80.9 26.8),5.453,26.8,80.9,1,http://www.wikidata.org/entity/Q57178953,Lucknow Cantonment,cantonment town,D,blue
245,http://www.wikidata.org/entity/Q111952355,,https://en.wikipedia.org/wiki/History_of_the_Uttar_Pradesh_Legislative_Assembly,Point(80.944166666 26.843611111),1.13,26.843611111111,80.944166666667,1,http://www.wikidata.org/entity/Q17524420,History of the Uttar Pradesh Legislative Assembly,aspect of history,D,blue
247,http://www.wikidata.org/entity/Q117848808,,,Point(80.903347 26.815715),3.976,26.815715,80.903347,1,http://www.wikidata.org/entity/Q32815,"Shahi Masjid, Alambagh",mosque,D,blue
248,http://www.wikidata.org/entity/Q117849055,,,Point(80.902914876 26.813909839),4.137,26.813909839535,80.902914876615,1,http://www.wikidata.org/entity/Q53060,Alambagh Palace Gate,gate,D,blue
249,http://www.wikidata.org/entity/Q124662325,,,Point(80.916093 26.8725785),4.251,26.8725785,80.916093,1,http://www.wikidata.org/entity/Q537127,Hardinge Bridge,road bridge,D,blue
252,http://www.wikidata.org/entity/Q32444794,,,Point(80.988055555 26.587777777),28.335,26.587777777778,80.988055555556,1,http://www.wikidata.org/entity/Q4022,Bank Nadi,river,D,blue
253,http://www.wikidata.org/entity/Q32449511,,,Point(80.889444444 26.598611111),27.004,26.598611111111,80.889444444444,1,http://www.wikidata.org/entity/Q4022,Barer Nadi,river,D,blue
254,http://www.wikidata.org/entity/Q48733847,,https://en.wikipedia.org/wiki/Department_of_Housing_and_Urban_Planning,Point(80.944446 26.8404943),1.012,26.8404943,80.944446,1,http://www.wikidata.org/entity/Q327333,Department of Housing and Urban Planning,government agency,D,blue
255,http://www.wikidata.org/entity/Q48734328,,https://en.wikipedia.org/wiki/Department_of_Infrastructure_and_Industrial_Development,Point(80.943685 26.838992),0.907,26.838992,80.943685,1,http://www.wikidata.org/entity/Q327333,Department of Infrastructure and Industrial Development,government agency,D,blue
256,http://www.wikidata.org/entity/Q49317204,,,Point(81.061388888 26.775833333),14.362,26.775833333333,81.061388888889,1,http://www.wikidata.org/entity/Q10313934,Q49317204,intermittent lake,D,blue
257,http://www.wikidata.org/entity/Q49317439,,,Point(81.118055555 26.888333333),19.035,26.888333333333,81.118055555556,1,http://www.wikidata.org/entity/Q10313934,Q49317439,intermittent lake,D,blue
258,http://www.wikidata.org/entity/Q49317782,,,Point(80.997777777 26.990833333),18.101,26.990833333333,80.997777777778,1,http://www.wikidata.org/entity/Q10313934,Q49317782,intermittent lake,D,blue
259,http://www.wikidata.org/entity/Q49317802,,,Point(81.093055555 26.9575),20.57,26.9575,81.093055555556,1,http://www.wikidata.org/entity/Q10313934,Q49317802,intermittent lake,D,blue
260,http://www.wikidata.org/entity/Q49317990,,,Point(81.005277777 26.82),7.296,26.82,81.005277777778,1,http://www.wikidata.org/entity/Q10313934,Q49317990,intermittent lake,D,blue
261,http://www.wikidata.org/entity/Q49318167,,,Point(81.086111111 26.948888888),19.429,26.948888888889,81.086111111111,1,http://www.wikidata.org/entity/Q10313934,Q49318167,intermittent lake,D,blue
262,http://www.wikidata.org/entity/Q60742170,,https://en.wikipedia.org/wiki/Uttar_Pradesh_State_Election_Commission,Point(80.933821 26.836336),0.211,26.836336,80.933821,1,http://www.wikidata.org/entity/Q327333,Uttar Pradesh State Election Commission,government agency,D,blue
267,http://www.wikidata.org/entity/Q97124371,,,Point(80.930846674 26.857927244),2.236,26.857927244065,80.930846674245,1,http://www.wikidata.org/entity/Q4858146,Lal Baradari,Baradari,D,blue
268,http://www.wikidata.org/entity/Q97124369,,,Point(80.90444 26.81252),4.129,26.81252,80.90444,1,http://www.wikidata.org/entity/Q16560,Alambagh Palace,palace,D,blue
269,http://www.wikidata.org/entity/Q97124379,,,Point(80.929744096 26.85240508),1.662,26.852405080148,80.929744096285,1,http://www.wikidata.org/entity/Q3947,Kothi Roshan-ud-Daulah,house,D,blue
270,http://www.wikidata.org/entity/Q97705528,,,Point(80.93982153 26.849188873),1.337,26.849188873039,80.939821530625,1,http://www.wikidata.org/entity/Q162875,Amjad Ali Shah's Mausoleum,mausoleum,D,blue
271,http://www.wikidata.org/entity/Q97705532,,,Point(80.90525556 26.81358056),3.989,26.81358056,80.90525556,1,http://www.wikidata.org/entity/Q39614,Cemetery at Alambagh,cemetery,D,blue
272,http://www.wikidata.org/entity/Q97705533,,,Point(80.96505278 26.82838333),3.209,26.82838333,80.96505278,1,http://www.wikidata.org/entity/Q39614,Cemetery at Dilkusha,cemetery,D,blue
273,http://www.wikidata.org/entity/Q97705539,,,Point(80.971123698 26.829455341),3.749,26.829455341449,80.971123698346,1,http://www.wikidata.org/entity/Q39614,Cemetery at Vilayat Bagh,cemetery,D,blue
274,http://www.wikidata.org/entity/Q97705536,,,Point(80.91003611 26.87149444),4.441,26.87149444,80.91003611,1,http://www.wikidata.org/entity/Q39614,Cemetery near Fort Machi Bhawan,cemetery,D,blue
275,http://www.wikidata.org/entity/Q97705541,,,Point(80.893481107 26.85510684),4.496,26.85510684041,80.893481107807,1,http://www.wikidata.org/entity/Q24398318,Dianut-ud-daula's Karbala,religious building,D,blue
276,http://www.wikidata.org/entity/Q97705550,,,Point(80.895956779 26.855220678),4.28,26.855220678914,80.895956779052,1,http://www.wikidata.org/entity/Q697295,Kaz-Main Buildings,shrine,D,blue
277,http://www.wikidata.org/entity/Q97705554,,,Point(80.926111111 26.875277777),4.219,26.875277777778,80.926111111111,1,http://www.wikidata.org/entity/Q697295,Nasir-ud-din Haider's Karbala in Daliganj,shrine,D,blue
278,http://www.wikidata.org/entity/Q97705557,,,Point(80.907565116 26.875002952),4.902,26.875002952639,80.907565116361,1,http://www.wikidata.org/entity/Q61533563,Hussainabad Baradari,Pavallion,D,blue
279,http://www.wikidata.org/entity/Q97705564,,,Point(80.92386646 26.853238876),1.992,26.853238876435,80.923866460925,1,http://www.wikidata.org/entity/Q381885,Tomb of Janab Aliya,tomb,D,blue
280,http://www.wikidata.org/entity/Q97705572,,,Point(80.934674893 26.854145621),1.784,26.85414562117,80.934674893531,1,http://www.wikidata.org/entity/Q381885,"Tomb of Mushir Zadi, wife of Saadat Ali Khan",tomb,D,blue
281,http://www.wikidata.org/entity/Q97705579,,,Point(80.949228859 26.90282885),7.342,26.90282885054,80.949228859566,1,http://www.wikidata.org/entity/Q39614,Cemetery,cemetery,D,blue
282,http://www.wikidata.org/entity/Q97705585,,,Point(80.774345705 26.883354569),16.674,26.883354569148,80.774345705814,1,http://www.wikidata.org/entity/Q12280,Bridge over the Beta river and temple attached to it,bridge,D,blue
284,http://www.wikidata.org/entity/Q106153800,,https://en.wikipedia.org/wiki/Mohanlalganj,Point(80.98237 26.67985),18.224,26.67985,80.98237,1,http://www.wikidata.org/entity/Q56061,Mohanlalganj,administrative territorial entity,D,blue
285,http://www.wikidata.org/entity/Q106200301,,https://en.wikipedia.org/wiki/Digoi,Point(80.9196 27.02067),20.354,27.02067,80.9196,1,http://www.wikidata.org/entity/Q56061,Digoi,administrative territorial entity,D,blue
286,http://www.wikidata.org/entity/Q106200317,,"https://en.wikipedia.org/wiki/Indara,_Lucknow",Point(80.99114 27.09781),29.416,27.09781,80.99114,1,http://www.wikidata.org/entity/Q56061,"Indara, Lucknow",administrative territorial entity,D,blue
287,http://www.wikidata.org/entity/Q106200324,,https://en.wikipedia.org/wiki/Palpur,Point(80.89059 27.06771),25.9,27.06771,80.89059,1,http://www.wikidata.org/entity/Q56061,Palpur,administrative territorial entity,D,blue
288,http://www.wikidata.org/entity/Q106200336,,https://en.wikipedia.org/wiki/Raipur_Raja,Point(80.87976 27.07426),26.815,27.07426,80.87976,1,http://www.wikidata.org/entity/Q56061,Raipur Raja,administrative territorial entity,D,blue
289,http://www.wikidata.org/entity/Q106200356,,https://en.wikipedia.org/wiki/Singhamau,Point(80.88432 27.0582),24.975,27.0582,80.88432,1,http://www.wikidata.org/entity/Q56061,Singhamau,administrative territorial entity,D,blue
290,http://www.wikidata.org/entity/Q106200360,,"https://en.wikipedia.org/wiki/Unai,_Lucknow",Point(80.96836 27.06405),25.345,27.06405,80.96836,1,http://www.wikidata.org/entity/Q56061,"Unai, Lucknow",administrative territorial entity,D,blue
291,http://www.wikidata.org/entity/Q106200361,,https://en.wikipedia.org/wiki/Sarsava,Point(80.97368 27.02684),21.34,27.02684,80.97368,1,http://www.wikidata.org/entity/Q56061,Sarsava,administrative territorial entity,D,blue
292,http://www.wikidata.org/entity/Q106200371,,"https://en.wikipedia.org/wiki/Bibipur,_Bakshi_Ka_Talab",Point(80.92492 27.06271),24.993,27.06271,80.92492,1,http://www.wikidata.org/entity/Q56061,"Bibipur, Bakshi Ka Talab",administrative territorial entity,D,blue
293,http://www.wikidata.org/entity/Q106200379,,"https://en.wikipedia.org/wiki/Bangaon,_Lucknow",Point(80.88901 27.07349),26.56,27.07349,80.88901,1,http://www.wikidata.org/entity/Q56061,"Bangaon, Lucknow",administrative territorial entity,D,blue
294,http://www.wikidata.org/entity/Q106200376,,"https://en.wikipedia.org/wiki/Arjunpur,_Lucknow",Point(80.90381 27.05143),23.916,27.05143,80.90381,1,http://www.wikidata.org/entity/Q56061,"Arjunpur, Lucknow",administrative territorial entity,D,blue
295,http://www.wikidata.org/entity/Q106200383,,https://en.wikipedia.org/wiki/Papnamau,Point(81.08928 26.90981),17.29,26.90981,81.08928,1,http://www.wikidata.org/entity/Q56061,Papnamau,administrative territorial entity,D,blue
296,http://www.wikidata.org/entity/Q106200386,,https://en.wikipedia.org/wiki/Lolai,Point(81.06199 26.8482),12.688,26.8482,81.06199,1,http://www.wikidata.org/entity/Q56061,Lolai,administrative territorial entity,D,blue
297,http://www.wikidata.org/entity/Q106200384,,https://en.wikipedia.org/wiki/Bharwara,Point(81.03483 26.85321),10.084,26.85321,81.03483,1,http://www.wikidata.org/entity/Q56061,Bharwara,administrative territorial entity,D,blue
298,http://www.wikidata.org/entity/Q106200409,,"https://en.wikipedia.org/wiki/Paharpur,_Bakshi_Ka_Talab",Point(80.93939 27.04402),22.901,27.04402,80.93939,1,http://www.wikidata.org/entity/Q56061,"Paharpur, Bakshi Ka Talab",administrative territorial entity,D,blue
299,http://www.wikidata.org/entity/Q106200421,,"https://en.wikipedia.org/wiki/Shahpur,_Chinhat",Point(81.04543 26.87796),11.854,26.87796,81.04543,1,http://www.wikidata.org/entity/Q56061,"Shahpur, Chinhat",administrative territorial entity,D,blue
300,http://www.wikidata.org/entity/Q106200430,,"https://en.wikipedia.org/wiki/Shivpuri,_Lucknow",Point(80.8713 27.04288),23.618,27.04288,80.8713,1,http://www.wikidata.org/entity/Q56061,"Shivpuri, Lucknow",administrative territorial entity,D,blue
301,http://www.wikidata.org/entity/Q106200442,,"https://en.wikipedia.org/wiki/Semra,_Lucknow",Point(81.04924 26.88206),12.378,26.88206,81.04924,1,http://www.wikidata.org/entity/Q56061,"Semra, Lucknow",administrative territorial entity,D,blue
302,http://www.wikidata.org/entity/Q106201579,,"https://en.wikipedia.org/wiki/Kathwara,_Lucknow",Point(80.84873 27.01795),21.734,27.01795,80.84873,1,http://www.wikidata.org/entity/Q56061,Kathwara,administrative territorial entity,D,blue
303,http://www.wikidata.org/entity/Q106237961,,https://en.wikipedia.org/wiki/Mahmudnagar,Point(80.73403 26.90944),21.416,26.90944,80.73403,1,http://www.wikidata.org/entity/Q56061,Mahmudnagar,administrative territorial entity,D,blue
304,http://www.wikidata.org/entity/Q106253675,,"https://en.wikipedia.org/wiki/Kabirpur,_Lucknow",Point(81.06671 26.77663),14.785,26.77663,81.06671,1,http://www.wikidata.org/entity/Q56061,"Kabirpur, Lucknow",administrative territorial entity,D,blue
305,http://www.wikidata.org/entity/Q106253678,,https://en.wikipedia.org/wiki/Muazzamnagar,Point(81.06242 26.78002),14.234,26.78002,81.06242,1,http://www.wikidata.org/entity/Q56061,Muazzamnagar,administrative territorial entity,D,blue
306,http://www.wikidata.org/entity/Q106253682,,https://en.wikipedia.org/wiki/Dehramau,Point(81.09575 26.7296),20.035,26.7296,81.09575,1,http://www.wikidata.org/entity/Q56061,Dehramau,administrative territorial entity,D,blue
307,http://www.wikidata.org/entity/Q106253685,,https://en.wikipedia.org/wiki/Basrahia,Point(81.13569 26.74811),22.326,26.74811,81.13569,1,http://www.wikidata.org/entity/Q56061,Basrahia,administrative territorial entity,D,blue
308,http://www.wikidata.org/entity/Q106253698,,https://en.wikipedia.org/wiki/Shiular,Point(81.09725 26.75347),18.685,26.75347,81.09725,1,http://www.wikidata.org/entity/Q56061,Shiular,administrative territorial entity,D,blue
309,http://www.wikidata.org/entity/Q106253702,,https://en.wikipedia.org/wiki/Malukpur,Point(81.05392 26.80113),12.533,26.80113,81.05392,1,http://www.wikidata.org/entity/Q56061,Malukpur,administrative territorial entity,D,blue
310,http://www.wikidata.org/entity/Q106253703,,https://en.wikipedia.org/wiki/Chand_Saray,Point(81.09237 26.77389),17.208,26.77389,81.09237,1,http://www.wikidata.org/entity/Q56061,Chand Sarai,administrative territorial entity,D,blue
311,http://www.wikidata.org/entity/Q106253704,,https://en.wikipedia.org/wiki/Shahzadipur,Point(81.15751 26.70457),26.648,26.70457,81.15751,1,http://www.wikidata.org/entity/Q56061,Shahzadipur,administrative territorial entity,D,blue
312,http://www.wikidata.org/entity/Q106253705,,"https://en.wikipedia.org/wiki/Salempur,_Gosainganj",Point(81.20053 26.72797),29.098,26.72797,81.20053,1,http://www.wikidata.org/entity/Q56061,"Salempur, Gosainganj",administrative territorial entity,D,blue
313,http://www.wikidata.org/entity/Q106253719,,https://en.wikipedia.org/wiki/Mahurakala,Point(81.12857 26.72884),22.766,26.72884,81.12857,1,http://www.wikidata.org/entity/Q56061,Mahurakala,administrative territorial entity,D,blue
314,http://www.wikidata.org/entity/Q106253786,,https://en.wikipedia.org/wiki/Bakas,Point(81.04875 26.78914),12.568,26.78914,81.04875,1,http://www.wikidata.org/entity/Q56061,Bakas,administrative territorial entity,D,blue
315,http://www.wikidata.org/entity/Q106253831,,https://en.wikipedia.org/wiki/Gauria_Kalan,Point(81.1449 26.80785),21.137,26.80785,81.1449,1,http://www.wikidata.org/entity/Q56061,Gauria Kalan,administrative territorial entity,D,blue
316,http://www.wikidata.org/entity/Q106281666,,https://en.wikipedia.org/wiki/Malauli,Point(81.1107 26.78824),18.334,26.78824,81.1107,1,http://www.wikidata.org/entity/Q56061,Malauli,administrative territorial entity,D,blue
317,http://www.wikidata.org/entity/Q106281672,,"https://en.wikipedia.org/wiki/Dhaurahra,_Lucknow",Point(81.15625 26.77577),23.063,26.77577,81.15625,1,http://www.wikidata.org/entity/Q532,Dhaurahra,village,D,blue
318,http://www.wikidata.org/entity/Q106281677,,https://en.wikipedia.org/wiki/Rahmatnagar,Point(81.16577 26.7437),25.231,26.7437,81.16577,1,http://www.wikidata.org/entity/Q56061,Rahmatnagar,administrative territorial entity,D,blue
319,http://www.wikidata.org/entity/Q106281752,,https://en.wikipedia.org/wiki/Rakibabad,Point(81.03761 26.7465),14.431,26.7465,81.03761,1,http://www.wikidata.org/entity/Q56061,Rakibabad,administrative territorial entity,D,blue
320,http://www.wikidata.org/entity/Q106281757,,https://en.wikipedia.org/wiki/Harduia,Point(81.15489 26.66433),29.184,26.66433,81.15489,1,http://www.wikidata.org/entity/Q56061,Harduia,administrative territorial entity,D,blue
321,http://www.wikidata.org/entity/Q106281766,,https://en.wikipedia.org/wiki/Mohari_Khurd,Point(81.04406 26.72788),16.378,26.72788,81.04406,1,http://www.wikidata.org/entity/Q56061,Mohari Khurd,administrative territorial entity,D,blue
322,http://www.wikidata.org/entity/Q106281778,,https://en.wikipedia.org/wiki/Mohari_Kalan,Point(81.05071 26.72404),17.137,26.72404,81.05071,1,http://www.wikidata.org/entity/Q56061,Mohari Kalan,administrative territorial entity,D,blue
323,http://www.wikidata.org/entity/Q106281796,,https://en.wikipedia.org/wiki/Madhurmau_Khurd,Point(81.04197 26.78297),12.293,26.78297,81.04197,1,http://www.wikidata.org/entity/Q56061,Madhurmau Khurd,administrative territorial entity,D,blue
324,http://www.wikidata.org/entity/Q106281813,,https://en.wikipedia.org/wiki/Madhurmau_Kalan,Point(81.03667 26.77765),12.157,26.77765,81.03667,1,http://www.wikidata.org/entity/Q56061,Madhurmau Kalan,administrative territorial entity,D,blue
325,http://www.wikidata.org/entity/Q106281983,,"https://en.wikipedia.org/wiki/Misa,_Lucknow",Point(81.09806 26.80724),16.579,26.80724,81.09806,1,http://www.wikidata.org/entity/Q56061,"Misa, Lucknow",administrative territorial entity,D,blue
326,http://www.wikidata.org/entity/Q106282181,,https://en.wikipedia.org/wiki/Bahrauli,Point(81.18521 26.69029),29.818,26.69029,81.18521,1,http://www.wikidata.org/entity/Q56061,Bahrauli,administrative territorial entity,D,blue
327,http://www.wikidata.org/entity/Q106322249,,"https://en.wikipedia.org/wiki/Ant,_Lucknow",Point(80.71754 27.01316),29.016,27.01316,80.71754,1,http://www.wikidata.org/entity/Q56061,"Ant, Lucknow",administrative territorial entity,D,blue
328,http://www.wikidata.org/entity/Q106322586,,"https://en.wikipedia.org/wiki/Mal,_Lucknow",Point(80.73584 27.02156),28.361,27.02156,80.73584,1,http://www.wikidata.org/entity/Q56061,"Mal, Lucknow",administrative territorial entity,D,blue
329,http://www.wikidata.org/entity/Q106696115,,https://en.wikipedia.org/wiki/Miranpur_Pinwat,Point(80.8597 26.719492),15.139,26.719492,80.8597,1,http://www.wikidata.org/entity/Q56061,Miranpur Pinwat,administrative territorial entity,D,blue
330,http://www.wikidata.org/entity/Q106696125,,"https://en.wikipedia.org/wiki/Jahanabad,_Lucknow",Point(80.845175 26.684105),19.287,26.684105,80.845175,1,http://www.wikidata.org/entity/Q56061,"Jahanabad, Lucknow",administrative territorial entity,D,blue
331,http://www.wikidata.org/entity/Q106696137,,"https://en.wikipedia.org/wiki/Bibipur,_Sarojaninagar",Point(80.849106 26.660174),21.528,26.660174,80.849106,1,http://www.wikidata.org/entity/Q56061,"Bibipur, Sarojaninagar",administrative territorial entity,D,blue
332,http://www.wikidata.org/entity/Q106696148,,"https://en.wikipedia.org/wiki/Mati,_Lucknow",Point(80.922356 26.713932),13.86,26.713932,80.922356,1,http://www.wikidata.org/entity/Q56061,"Mati, Lucknow",administrative territorial entity,D,blue
333,http://www.wikidata.org/entity/Q106696175,,"https://en.wikipedia.org/wiki/Bhatgaon,_Lucknow",Point(80.780385 26.705365),21.265,26.705365,80.780385,1,http://www.wikidata.org/entity/Q56061,"Bhatgaon, Lucknow",administrative territorial entity,D,blue
334,http://www.wikidata.org/entity/Q106696210,,https://en.wikipedia.org/wiki/Banthra_Sikandarpur,Point(80.834622 26.693327),18.911,26.693327,80.834622,1,http://www.wikidata.org/entity/Q56061,Banthra Sikandarpur,administrative territorial entity,D,blue
335,http://www.wikidata.org/entity/Q106725917,,"https://en.wikipedia.org/wiki/Sathwara,_Lucknow",Point(81.069697 26.762455),15.828,26.762455,81.069697,1,http://www.wikidata.org/entity/Q56061,"Sathwara, Lucknow",administrative territorial entity,D,blue
