item,articleDE,articleEN,location,distance,lat,lon,sitelinks,thing,itemLabel,thingLabel
http://www.wikidata.org/entity/Q1792,https://de.wikipedia.org/wiki/Danzig,https://en.wikipedia.org/wiki/Gda%C5%84sk,Point(18.6540233 54.3482907),2.894,54.35,18.666666666667,170,http://www.wikidata.org/entity/Q707813,Gdańsk,Hanseatic city
http://www.wikidata.org/entity/Q1792,https://de.wikipedia.org/wiki/Danzig,https://en.wikipedia.org/wiki/Gda%C5%84sk,Point(18.6540233 54.3482907),2.894,54.3482907,18.6540233,170,http://www.wikidata.org/entity/Q707813,Gdańsk,Hanseatic city
http://www.wikidata.org/entity/Q1792,https://de.wikipedia.org/wiki/Danzig,https://en.wikipedia.org/wiki/Gda%C5%84sk,Point(18.6540233 54.3482907),2.894,54.35,18.666666666667,170,http://www.wikidata.org/entity/Q925381,Gdańsk,city with powiat rights
http://www.wikidata.org/entity/Q1792,https://de.wikipedia.org/wiki/Danzig,https://en.wikipedia.org/wiki/Gda%C5%84sk,Point(18.6540233 54.3482907),2.894,54.3482907,18.6540233,170,http://www.wikidata.org/entity/Q925381,Gdańsk,city with powiat rights
http://www.wikidata.org/entity/Q1792,https://de.wikipedia.org/wiki/Danzig,https://en.wikipedia.org/wiki/Gda%C5%84sk,Point(18.6540233 54.3482907),2.894,54.35,18.666666666667,170,http://www.wikidata.org/entity/Q1549591,Gdańsk,big city
http://www.wikidata.org/entity/Q1792,https://de.wikipedia.org/wiki/Danzig,https://en.wikipedia.org/wiki/Gda%C5%84sk,Point(18.6540233 54.3482907),2.894,54.3482907,18.6540233,170,http://www.wikidata.org/entity/Q1549591,Gdańsk,big city
http://www.wikidata.org/entity/Q1792,https://de.wikipedia.org/wiki/Danzig,https://en.wikipedia.org/wiki/Gda%C5%84sk,Point(18.6540233 54.3482907),2.894,54.35,18.666666666667,170,http://www.wikidata.org/entity/Q2264924,Gdańsk,port settlement
http://www.wikidata.org/entity/Q1792,https://de.wikipedia.org/wiki/Danzig,https://en.wikipedia.org/wiki/Gda%C5%84sk,Point(18.6540233 54.3482907),2.894,54.3482907,18.6540233,170,http://www.wikidata.org/entity/Q2264924,Gdańsk,port settlement
http://www.wikidata.org/entity/Q548,https://de.wikipedia.org/wiki/Weichsel,https://en.wikipedia.org/wiki/Vistula,Point(18.9522 54.3641),21.727,49.6041,19.0013,112,http://www.wikidata.org/entity/Q573344,Vistula,main stream
http://www.wikidata.org/entity/Q548,https://de.wikipedia.org/wiki/Weichsel,https://en.wikipedia.org/wiki/Vistula,Point(18.9522 54.3641),21.727,54.3641,18.9522,112,http://www.wikidata.org/entity/Q573344,Vistula,main stream
http://www.wikidata.org/entity/Q548,https://de.wikipedia.org/wiki/Weichsel,https://en.wikipedia.org/wiki/Vistula,Point(18.9522 54.3641),21.727,49.6041,19.0013,112,http://www.wikidata.org/entity/Q4022,Vistula,river
http://www.wikidata.org/entity/Q548,https://de.wikipedia.org/wiki/Weichsel,https://en.wikipedia.org/wiki/Vistula,Point(18.9522 54.3641),21.727,54.3641,18.9522,112,http://www.wikidata.org/entity/Q4022,Vistula,river
http://www.wikidata.org/entity/Q385,https://de.wikipedia.org/wiki/Gdynia,https://en.wikipedia.org/wiki/Gdynia,Point(18.54 54.5175),17.914,54.5175,18.54,101,http://www.wikidata.org/entity/Q925381,Gdynia,city with powiat rights
http://www.wikidata.org/entity/Q385,https://de.wikipedia.org/wiki/Gdynia,https://en.wikipedia.org/wiki/Gdynia,Point(18.54 54.5175),17.914,54.5175,18.54,101,http://www.wikidata.org/entity/Q1549591,Gdynia,big city
http://www.wikidata.org/entity/Q385,https://de.wikipedia.org/wiki/Gdynia,https://en.wikipedia.org/wiki/Gdynia,Point(18.54 54.5175),17.914,54.5175,18.54,101,http://www.wikidata.org/entity/Q515,Gdynia,city
http://www.wikidata.org/entity/Q92689,https://de.wikipedia.org/wiki/Sopot,https://en.wikipedia.org/wiki/Sopot,Point(18.54782 54.44185),9.869,54.44185,18.54782,75,http://www.wikidata.org/entity/Q925381,Sopot,city with powiat rights
http://www.wikidata.org/entity/Q92689,https://de.wikipedia.org/wiki/Sopot,https://en.wikipedia.org/wiki/Sopot,Point(18.54782 54.44185),9.869,54.44185,18.54782,75,http://www.wikidata.org/entity/Q1021711,Sopot,seaside resort
http://www.wikidata.org/entity/Q92689,https://de.wikipedia.org/wiki/Sopot,https://en.wikipedia.org/wiki/Sopot,Point(18.54782 54.44185),9.869,54.44185,18.54782,75,http://www.wikidata.org/entity/Q515,Sopot,city
http://www.wikidata.org/entity/Q104520,https://de.wikipedia.org/wiki/Pommern,https://en.wikipedia.org/wiki/Pomerania,Point(18.15312 54.29443),31.01,54.29443,18.15312,75,http://www.wikidata.org/entity/Q1620908,Pomerania,historical region
http://www.wikidata.org/entity/Q71279,https://de.wikipedia.org/wiki/Marienburg_(Ordensburg),https://en.wikipedia.org/wiki/Malbork_Castle,Point(19.027777777 54.039722222),44.767,54.039722222222,19.027777777778,55,http://www.wikidata.org/entity/Q365216,Malbork Castle,Ordensburg
http://www.wikidata.org/entity/Q71279,https://de.wikipedia.org/wiki/Marienburg_(Ordensburg),https://en.wikipedia.org/wiki/Malbork_Castle,Point(19.027777777 54.039722222),44.767,54.039722222222,19.027777777778,55,http://www.wikidata.org/entity/Q23413,Malbork Castle,castle
http://www.wikidata.org/entity/Q474697,https://de.wikipedia.org/wiki/Tczew,https://en.wikipedia.org/wiki/Tczew,Point(18.786388888 54.091111111),32.147,54.091111111111,18.786388888889,55,http://www.wikidata.org/entity/Q2616791,Tczew,urban municipality
http://www.wikidata.org/entity/Q213367,https://de.wikipedia.org/wiki/Danziger_Bucht,https://en.wikipedia.org/wiki/Gda%C5%84sk_Bay,Point(18.958611111 54.483055555),25.844,54.483055555556,18.958611111111,52,http://www.wikidata.org/entity/Q39594,Gdańsk Bay,bay
http://www.wikidata.org/entity/Q503146,https://de.wikipedia.org/wiki/Starogard_Gda%C5%84ski,https://en.wikipedia.org/wiki/Starogard_Gda%C5%84ski,Point(18.533333333 53.966666666),44.369,53.966666666667,18.533333333333,50,http://www.wikidata.org/entity/Q2616791,Starogard Gdański,urban municipality
http://www.wikidata.org/entity/Q182385,https://de.wikipedia.org/wiki/Stadion_Gda%C5%84sk,https://en.wikipedia.org/wiki/Gda%C5%84sk_Stadium,Point(18.640278 54.39),3.394,54.39,18.640278,49,http://www.wikidata.org/entity/Q1154710,Stadion Energa Gdańsk,association football venue
http://www.wikidata.org/entity/Q156654,https://de.wikipedia.org/wiki/Polnischer_Korridor,https://en.wikipedia.org/wiki/Polish_Corridor,Point(18.333333333 54.35),18.423,54.35,18.333333333333,47,http://www.wikidata.org/entity/Q1530361,Polish Corridor,geopolitical corridor
http://www.wikidata.org/entity/Q628962,https://de.wikipedia.org/wiki/Puck_(Polen),"https://en.wikipedia.org/wiki/Puck,_Poland",Point(18.4051 54.7142),41.4,54.7142,18.4051,47,http://www.wikidata.org/entity/Q2616791,Puck,urban municipality
http://www.wikidata.org/entity/Q672949,https://de.wikipedia.org/wiki/Wejherowo,https://en.wikipedia.org/wiki/Wejherowo,Point(18.25 54.6),35.463,54.6,18.25,46,http://www.wikidata.org/entity/Q2616791,Wejherowo,urban municipality
http://www.wikidata.org/entity/Q848973,https://de.wikipedia.org/wiki/Hel_(Stadt),"https://en.wikipedia.org/wiki/Hel,_Poland",Point(18.783333333 54.616666666),30.216,54.616666666667,18.783333333333,46,http://www.wikidata.org/entity/Q2616791,Hel,urban municipality
http://www.wikidata.org/entity/Q5606,https://de.wikipedia.org/wiki/Hel_(Halbinsel),https://en.wikipedia.org/wiki/Hel_Peninsula,Point(18.781388888 54.641666666),32.787,54.641666666667,18.781388888889,44,http://www.wikidata.org/entity/Q191992,Hel Peninsula,headland
http://www.wikidata.org/entity/Q5606,https://de.wikipedia.org/wiki/Hel_(Halbinsel),https://en.wikipedia.org/wiki/Hel_Peninsula,Point(18.781388888 54.641666666),32.787,54.641666666667,18.781388888889,44,http://www.wikidata.org/entity/Q217101,Hel Peninsula,spit
http://www.wikidata.org/entity/Q5606,https://de.wikipedia.org/wiki/Hel_(Halbinsel),https://en.wikipedia.org/wiki/Hel_Peninsula,Point(18.781388888 54.641666666),32.787,54.641666666667,18.781388888889,44,http://www.wikidata.org/entity/Q34763,Hel Peninsula,peninsula
http://www.wikidata.org/entity/Q78712,https://de.wikipedia.org/wiki/Rumia,https://en.wikipedia.org/wiki/Rumia,Point(18.4 54.566666666),26.658,54.566666666667,18.4,40,http://www.wikidata.org/entity/Q2616791,Rumia,urban municipality
http://www.wikidata.org/entity/Q78712,https://de.wikipedia.org/wiki/Rumia,https://en.wikipedia.org/wiki/Rumia,Point(18.4 54.566666666),26.658,54.566666666667,18.4,40,http://www.wikidata.org/entity/Q3957,Rumia,town
http://www.wikidata.org/entity/Q497154,https://de.wikipedia.org/wiki/Jastarnia,https://en.wikipedia.org/wiki/Jastarnia,Point(18.666666666 54.7),37.641,54.7,18.666666666667,39,http://www.wikidata.org/entity/Q515,Jastarnia,city
http://www.wikidata.org/entity/Q936933,https://de.wikipedia.org/wiki/Reda,"https://en.wikipedia.org/wiki/Reda,_Poland",Point(18.346944444 54.605277777),32.115,54.605277777778,18.346944444444,38,http://www.wikidata.org/entity/Q2616791,Reda,urban municipality
http://www.wikidata.org/entity/Q988590,https://de.wikipedia.org/wiki/Pruszcz_Gda%C5%84ski,https://en.wikipedia.org/wiki/Pruszcz_Gda%C5%84ski,Point(18.633333333 54.266666666),10.732,54.266666666667,18.633333333333,37,http://www.wikidata.org/entity/Q2616791,Pruszcz Gdański,urban municipality
http://www.wikidata.org/entity/Q326193,https://de.wikipedia.org/wiki/KZ_Stutthof,https://en.wikipedia.org/wiki/Stutthof_concentration_camp,Point(19.153888888 54.328888888),35.01,54.328888888889,19.153888888889,36,http://www.wikidata.org/entity/Q152081,Stutthof concentration camp,concentration camp
http://www.wikidata.org/entity/Q326193,https://de.wikipedia.org/wiki/KZ_Stutthof,https://en.wikipedia.org/wiki/Stutthof_concentration_camp,Point(19.153888888 54.328888888),35.01,54.328888888889,19.153888888889,36,http://www.wikidata.org/entity/Q328468,Stutthof concentration camp,Nazi concentration camp
http://www.wikidata.org/entity/Q326193,https://de.wikipedia.org/wiki/KZ_Stutthof,https://en.wikipedia.org/wiki/Stutthof_concentration_camp,Point(19.153888888 54.328888888),35.01,54.328888888889,19.153888888889,36,http://www.wikidata.org/entity/Q1360677,Stutthof concentration camp,crime scene
http://www.wikidata.org/entity/Q326193,https://de.wikipedia.org/wiki/KZ_Stutthof,https://en.wikipedia.org/wiki/Stutthof_concentration_camp,Point(19.153888888 54.328888888),35.01,54.328888888889,19.153888888889,36,http://www.wikidata.org/entity/Q2772772,Stutthof concentration camp,military museum
http://www.wikidata.org/entity/Q326193,https://de.wikipedia.org/wiki/KZ_Stutthof,https://en.wikipedia.org/wiki/Stutthof_concentration_camp,Point(19.153888888 54.328888888),35.01,54.328888888889,19.153888888889,36,http://www.wikidata.org/entity/Q5003624,Stutthof concentration camp,memorial
http://www.wikidata.org/entity/Q640355,https://de.wikipedia.org/wiki/Kartuzy,https://en.wikipedia.org/wiki/Kartuzy,Point(18.19735 54.33424),27.369,54.33424,18.19735,36,http://www.wikidata.org/entity/Q515,Kartuzy,city
http://www.wikidata.org/entity/Q533034,https://de.wikipedia.org/wiki/Kampf_um_die_Westerplatte,https://en.wikipedia.org/wiki/Battle_of_Westerplatte,Point(18.671388888 54.4075),6.106,54.4075,18.671388888889,36,http://www.wikidata.org/entity/Q178561,Battle of Westerplatte,battle
http://www.wikidata.org/entity/Q533034,https://de.wikipedia.org/wiki/Kampf_um_die_Westerplatte,https://en.wikipedia.org/wiki/Battle_of_Westerplatte,Point(18.671388888 54.4075),6.106,54.4075,18.671388888889,36,http://www.wikidata.org/entity/Q188055,Battle of Westerplatte,siege
http://www.wikidata.org/entity/Q779984,https://de.wikipedia.org/wiki/Lech-Wa%C5%82%C4%99sa-Flughafen_Danzig,https://en.wikipedia.org/wiki/Gda%C5%84sk_Lech_Wa%C5%82%C4%99sa_Airport,Point(18.466111111 54.3775),9.9,54.3775,18.466111111111,35,http://www.wikidata.org/entity/Q644371,Gdańsk Lech Wałęsa Airport,international airport
http://www.wikidata.org/entity/Q779984,https://de.wikipedia.org/wiki/Lech-Wa%C5%82%C4%99sa-Flughafen_Danzig,https://en.wikipedia.org/wiki/Gda%C5%84sk_Lech_Wa%C5%82%C4%99sa_Airport,Point(18.466111111 54.3775),9.9,54.3775,18.466111111111,35,http://www.wikidata.org/entity/Q1248784,Gdańsk Lech Wałęsa Airport,airport
http://www.wikidata.org/entity/Q779984,https://de.wikipedia.org/wiki/Lech-Wa%C5%82%C4%99sa-Flughafen_Danzig,https://en.wikipedia.org/wiki/Gda%C5%84sk_Lech_Wa%C5%82%C4%99sa_Airport,Point(18.466111111 54.3775),9.9,54.3775,18.466111111111,35,http://www.wikidata.org/entity/Q94993988,Gdańsk Lech Wałęsa Airport,commercial traffic aerodrome
http://www.wikidata.org/entity/Q732001,https://de.wikipedia.org/wiki/Dreistadt,"https://en.wikipedia.org/wiki/Tricity,_Poland",Point(18.55 54.433333333),8.966,54.433333333333,18.55,35,http://www.wikidata.org/entity/Q245260,Tricity,conurbation
http://www.wikidata.org/entity/Q1138182,https://de.wikipedia.org/wiki/Powiat_Wejherowski,https://en.wikipedia.org/wiki/Wejherowo_County,Point(18.25 54.6),35.463,54.6,18.25,33,http://www.wikidata.org/entity/Q247073,Wejherowo County,powiat
http://www.wikidata.org/entity/Q942452,https://de.wikipedia.org/wiki/Powiat_Kartuski,https://en.wikipedia.org/wiki/Kartuzy_County,Point(18.2 54.333333333),27.21,54.333333333333,18.2,33,http://www.wikidata.org/entity/Q247073,Kartuzy County,powiat
http://www.wikidata.org/entity/Q517081,https://de.wikipedia.org/wiki/Westerplatte,https://en.wikipedia.org/wiki/Westerplatte,Point(18.671388888 54.4075),6.106,54.4075,18.671388888889,33,http://www.wikidata.org/entity/Q34763,Westerplatte,peninsula
http://www.wikidata.org/entity/Q326188,https://de.wikipedia.org/wiki/Pommerellen,https://en.wikipedia.org/wiki/Pomerelia,Point(18.633 54.3667),1.138,54.3667,18.633,32,http://www.wikidata.org/entity/Q1620908,Pomerelia,historical region
http://www.wikidata.org/entity/Q161893,https://de.wikipedia.org/wiki/%C5%BBukowo_(Powiat_Kartuski),https://en.wikipedia.org/wiki/%C5%BBukowo,Point(18.360555555 54.345833333),16.712,54.345833333333,18.360555555556,32,http://www.wikidata.org/entity/Q486972,Żukowo,human settlement
http://www.wikidata.org/entity/Q161893,https://de.wikipedia.org/wiki/%C5%BBukowo_(Powiat_Kartuski),https://en.wikipedia.org/wiki/%C5%BBukowo,Point(18.360555555 54.345833333),16.712,54.345833333333,18.360555555556,32,http://www.wikidata.org/entity/Q515,Żukowo,city
http://www.wikidata.org/entity/Q1341069,https://de.wikipedia.org/wiki/Powiat_Tczewski,https://en.wikipedia.org/wiki/Tczew_County,Point(18.716666666 54.1),29.922,54.1,18.716666666667,31,http://www.wikidata.org/entity/Q247073,Tczew County,powiat
http://www.wikidata.org/entity/Q1015036,https://de.wikipedia.org/wiki/Skarszewy,https://en.wikipedia.org/wiki/Skarszewy,Point(18.445833333 54.067222222),34.685,54.067222222222,18.445833333333,31,http://www.wikidata.org/entity/Q515,Skarszewy,city
http://www.wikidata.org/entity/Q219987,https://de.wikipedia.org/wiki/Powiat_Pucki,https://en.wikipedia.org/wiki/Puck_County,Point(18.4 54.7),40.028,54.7,18.4,31,http://www.wikidata.org/entity/Q247073,Puck County,powiat
http://www.wikidata.org/entity/Q1165710,https://de.wikipedia.org/wiki/Powiat_Gda%C5%84ski,https://en.wikipedia.org/wiki/Gda%C5%84sk_County,Point(18.633333333 54.266666666),10.732,54.266666666667,18.633333333333,30,http://www.wikidata.org/entity/Q247073,Powiat gdański,powiat
http://www.wikidata.org/entity/Q1341090,https://de.wikipedia.org/wiki/Powiat_Starogardzki,https://en.wikipedia.org/wiki/Starogard_County,Point(18.533333333 53.966666666),44.369,53.966666666667,18.533333333333,29,http://www.wikidata.org/entity/Q247073,Starogard County,powiat
http://www.wikidata.org/entity/Q1758009,https://de.wikipedia.org/wiki/Universit%C3%A4t_Danzig,https://en.wikipedia.org/wiki/University_of_Gda%C5%84sk,Point(18.568611111 54.399444444),5.142,54.399444444444,18.568611111111,29,http://www.wikidata.org/entity/Q45400320,University of Gdańsk,open-access publisher
http://www.wikidata.org/entity/Q1758009,https://de.wikipedia.org/wiki/Universit%C3%A4t_Danzig,https://en.wikipedia.org/wiki/University_of_Gda%C5%84sk,Point(18.568611111 54.399444444),5.142,54.399444444444,18.568611111111,29,http://www.wikidata.org/entity/Q3918,University of Gdańsk,university
http://www.wikidata.org/entity/Q948486,https://de.wikipedia.org/wiki/Powiat_Nowodworski_(Woiwodschaft_Pommern),"https://en.wikipedia.org/wiki/Nowy_Dw%C3%B3r_County,_Pomeranian_Voivodeship",Point(19.116666666 54.216666666),36.276,54.216666666667,19.116666666667,29,http://www.wikidata.org/entity/Q247073,Nowy Dwór Gdański County,powiat
http://www.wikidata.org/entity/Q604251,https://de.wikipedia.org/wiki/Nowy_Dw%C3%B3r_Gda%C5%84ski,https://en.wikipedia.org/wiki/Nowy_Dw%C3%B3r_Gda%C5%84ski,Point(19.116666666 54.216666666),36.276,54.216666666667,19.116666666667,29,http://www.wikidata.org/entity/Q515,Nowy Dwór Gdański,city
http://www.wikidata.org/entity/Q933903,https://de.wikipedia.org/wiki/Marienkirche_(Danzig),"https://en.wikipedia.org/wiki/St._Mary%27s_Church,_Gda%C5%84sk",Point(18.653497222 54.349841666),2.773,54.349841666667,18.653497222222,27,http://www.wikidata.org/entity/Q16970,St. Mary's Basilica in Gdańsk,church building
http://www.wikidata.org/entity/Q465922,https://de.wikipedia.org/wiki/Technische_Universit%C3%A4t_Danzig,https://en.wikipedia.org/wiki/Gda%C5%84sk_University_of_Technology,Point(18.618888888 54.371388888),0.975,54.371388888889,18.618888888889,26,http://www.wikidata.org/entity/Q875538,Gdańsk University of Technology,public university
http://www.wikidata.org/entity/Q1814406,https://de.wikipedia.org/wiki/Leichtathletik-Hallenweltmeisterschaften_2014,https://en.wikipedia.org/wiki/2014_IAAF_World_Indoor_Championships,Point(18.54782 54.44185),9.869,54.44185,18.54782,26,http://www.wikidata.org/entity/Q725169,2014 IAAF World Indoor Championships,World Athletics Indoor Championships
http://www.wikidata.org/entity/Q1814406,https://de.wikipedia.org/wiki/Leichtathletik-Hallenweltmeisterschaften_2014,https://en.wikipedia.org/wiki/2014_IAAF_World_Indoor_Championships,Point(18.54782 54.44185),9.869,54.44185,18.54782,26,http://www.wikidata.org/entity/Q11783626,2014 IAAF World Indoor Championships,athletics meeting
http://www.wikidata.org/entity/Q1021282,https://de.wikipedia.org/wiki/Nowy_Staw,https://en.wikipedia.org/wiki/Nowy_Staw,Point(19.00909 54.13609),35.837,54.13609,19.00909,25,http://www.wikidata.org/entity/Q515,Nowy Staw,city
http://www.wikidata.org/entity/Q1736541,https://de.wikipedia.org/wiki/Werft_Danzig,https://en.wikipedia.org/wiki/Gda%C5%84sk_Shipyard,Point(18.655238 54.370563),2.637,54.370563,18.655238,25,http://www.wikidata.org/entity/Q190928,Gdańsk Shipyard,shipyard
http://www.wikidata.org/entity/Q1736541,https://de.wikipedia.org/wiki/Werft_Danzig,https://en.wikipedia.org/wiki/Gda%C5%84sk_Shipyard,Point(18.655238 54.370563),2.637,54.370563,18.655238,25,http://www.wikidata.org/entity/Q4830453,Gdańsk Shipyard,business
http://www.wikidata.org/entity/Q1950176,https://de.wikipedia.org/wiki/Mot%C5%82awa,https://en.wikipedia.org/wiki/Mot%C5%82awa,Point(18.664197 54.360047),3.083,54.066944444444,18.705277777778,24,http://www.wikidata.org/entity/Q4022,Motława,river
http://www.wikidata.org/entity/Q1950176,https://de.wikipedia.org/wiki/Mot%C5%82awa,https://en.wikipedia.org/wiki/Mot%C5%82awa,Point(18.664197 54.360047),3.083,54.360047,18.664197,24,http://www.wikidata.org/entity/Q4022,Motława,river
http://www.wikidata.org/entity/Q1950176,https://de.wikipedia.org/wiki/Mot%C5%82awa,https://en.wikipedia.org/wiki/Mot%C5%82awa,Point(18.664197 54.360047),3.083,54.3529,18.6588,24,http://www.wikidata.org/entity/Q4022,Motława,river
http://www.wikidata.org/entity/Q1950176,https://de.wikipedia.org/wiki/Mot%C5%82awa,https://en.wikipedia.org/wiki/Mot%C5%82awa,Point(18.705277777 54.066944444),33.384,54.066944444444,18.705277777778,24,http://www.wikidata.org/entity/Q4022,Motława,river
http://www.wikidata.org/entity/Q1950176,https://de.wikipedia.org/wiki/Mot%C5%82awa,https://en.wikipedia.org/wiki/Mot%C5%82awa,Point(18.705277777 54.066944444),33.384,54.360047,18.664197,24,http://www.wikidata.org/entity/Q4022,Motława,river
http://www.wikidata.org/entity/Q1950176,https://de.wikipedia.org/wiki/Mot%C5%82awa,https://en.wikipedia.org/wiki/Mot%C5%82awa,Point(18.705277777 54.066944444),33.384,54.3529,18.6588,24,http://www.wikidata.org/entity/Q4022,Motława,river
http://www.wikidata.org/entity/Q1950176,https://de.wikipedia.org/wiki/Mot%C5%82awa,https://en.wikipedia.org/wiki/Mot%C5%82awa,Point(18.6588 54.3529),2.93,54.066944444444,18.705277777778,24,http://www.wikidata.org/entity/Q4022,Motława,river
http://www.wikidata.org/entity/Q1950176,https://de.wikipedia.org/wiki/Mot%C5%82awa,https://en.wikipedia.org/wiki/Mot%C5%82awa,Point(18.6588 54.3529),2.93,54.360047,18.664197,24,http://www.wikidata.org/entity/Q4022,Motława,river
http://www.wikidata.org/entity/Q1950176,https://de.wikipedia.org/wiki/Mot%C5%82awa,https://en.wikipedia.org/wiki/Mot%C5%82awa,Point(18.6588 54.3529),2.93,54.3529,18.6588,24,http://www.wikidata.org/entity/Q4022,Motława,river
http://www.wikidata.org/entity/Q1638749,https://de.wikipedia.org/wiki/Sopot_Festival,https://en.wikipedia.org/wiki/Sopot_International_Song_Festival,Point(18.6540233 54.3482907),2.894,54.3482907,18.6540233,24,http://www.wikidata.org/entity/Q868557,Sopot International Song Festival,music festival
http://www.wikidata.org/entity/Q1790121,https://de.wikipedia.org/wiki/Sztutowo,https://en.wikipedia.org/wiki/Sztutowo,Point(19.179166666 54.326666666),36.667,54.326666666667,19.179166666667,23,http://www.wikidata.org/entity/Q3558970,Sztutowo,village of Poland
http://www.wikidata.org/entity/Q959999,https://de.wikipedia.org/wiki/Krummes_H%C3%A4uschen,https://en.wikipedia.org/wiki/Krzywy_Domek,Point(18.566675 54.44415556),9.621,54.44415556,18.566675,23,http://www.wikidata.org/entity/Q41176,Krzywy Domek,building
http://www.wikidata.org/entity/Q1810813,https://de.wikipedia.org/wiki/%C5%81eba_(Fluss),https://en.wikipedia.org/wiki/%C5%81eba_(river),Point(17.975126666 54.300746388),42.17,54.769028611111,17.550585555556,22,http://www.wikidata.org/entity/Q4022,Łeba,river
http://www.wikidata.org/entity/Q1810813,https://de.wikipedia.org/wiki/%C5%81eba_(Fluss),https://en.wikipedia.org/wiki/%C5%81eba_(river),Point(17.975126666 54.300746388),42.17,54.300746388889,17.975126666667,22,http://www.wikidata.org/entity/Q4022,Łeba,river
http://www.wikidata.org/entity/Q1447540,https://de.wikipedia.org/wiki/Oliwa_(Danzig),https://en.wikipedia.org/wiki/Oliwa,Point(18.558888888 54.410555555),6.51,54.410555555556,18.558888888889,21,http://www.wikidata.org/entity/Q1434401,Oliwa,dzielnica
http://www.wikidata.org/entity/Q1247814,https://de.wikipedia.org/wiki/Ergo_Arena,https://en.wikipedia.org/wiki/Ergo_Arena,Point(18.580278 54.425833),7.407,54.425833,18.580278,21,http://www.wikidata.org/entity/Q641226,Ergo Arena,arena
http://www.wikidata.org/entity/Q1030987,https://de.wikipedia.org/wiki/Intervision-Liederwettbewerb,https://en.wikipedia.org/wiki/Intervision_Song_Contest,Point(18.54782 54.44185),9.869,54.44185,18.54782,20,http://www.wikidata.org/entity/Q868557,Intervision Song Contest,music festival
http://www.wikidata.org/entity/Q1030987,https://de.wikipedia.org/wiki/Intervision-Liederwettbewerb,https://en.wikipedia.org/wiki/Intervision_Song_Contest,Point(18.54782 54.44185),9.869,54.44185,18.54782,20,http://www.wikidata.org/entity/Q11483816,Intervision Song Contest,annual event
http://www.wikidata.org/entity/Q550997,https://de.wikipedia.org/wiki/Puck_(Landgemeinde),https://en.wikipedia.org/wiki/Gmina_Puck,Point(18.4 54.7),40.028,54.7,18.4,20,http://www.wikidata.org/entity/Q3504085,Gmina Puck,rural municipality
http://www.wikidata.org/entity/Q2119446,https://de.wikipedia.org/wiki/Zatoka_Pucka,https://en.wikipedia.org/wiki/Bay_of_Puck,Point(18.5833 54.6667),33.87,54.6667,18.5833,20,http://www.wikidata.org/entity/Q39594,Bay of Puck,bay
http://www.wikidata.org/entity/Q551152,https://de.wikipedia.org/wiki/Gmina_Kosakowo,https://en.wikipedia.org/wiki/Gmina_Kosakowo,Point(18.481666666 54.589444444),26.681,54.589444444444,18.481666666667,20,http://www.wikidata.org/entity/Q3504085,Gmina Kosakowo,rural municipality
http://www.wikidata.org/entity/Q564388,https://de.wikipedia.org/wiki/Gefecht_um_das_polnische_Postamt_in_Danzig,https://en.wikipedia.org/wiki/Defence_of_the_Polish_Post_Office_in_Danzig,Point(18.65694444 54.355),2.737,54.355,18.65694444,20,http://www.wikidata.org/entity/Q178561,Defense of the Polish Post Office in Danzig,battle
http://www.wikidata.org/entity/Q11129717,https://de.wikipedia.org/wiki/Muzeum_II_Wojny_%C5%9Awiatowej,https://en.wikipedia.org/wiki/Museum_of_the_Second_World_War,Point(18.66055556 54.35583333),2.934,54.35583333,18.66055556,20,http://www.wikidata.org/entity/Q2772772,Museum of World War II in Gdańsk,military museum
http://www.wikidata.org/entity/Q1236685,https://de.wikipedia.org/wiki/Dom_zu_Oliva,https://en.wikipedia.org/wiki/Oliwa_Cathedral,Point(18.557777777 54.411111111),6.602,54.411111111111,18.557777777778,19,http://www.wikidata.org/entity/Q2977,Oliwa Cathedral,cathedral
http://www.wikidata.org/entity/Q938694,https://de.wikipedia.org/wiki/Gmina_Przodkowo,https://en.wikipedia.org/wiki/Gmina_Przodkowo,Point(18.2875 54.379722222),21.415,54.379722222222,18.2875,19,http://www.wikidata.org/entity/Q3504085,Gmina Przodkowo,rural municipality
http://www.wikidata.org/entity/Q2057298,https://de.wikipedia.org/wiki/Gmina_Kartuzy,https://en.wikipedia.org/wiki/Gmina_Kartuzy,Point(18.2 54.333333333),27.21,54.333333333333,18.2,19,http://www.wikidata.org/entity/Q3491915,Gmina Kartuzy,urban-rural municipality
http://www.wikidata.org/entity/Q2135657,https://de.wikipedia.org/wiki/Rechtst%C3%A4dtisches_Rathaus,https://en.wikipedia.org/wiki/Gda%C5%84sk_Town_Hall,Point(18.6527 54.34883),2.79,54.34883,18.6527,19,http://www.wikidata.org/entity/Q543654,Gdańsk Main Town Hall,Rathaus
http://www.wikidata.org/entity/Q2307863,https://de.wikipedia.org/wiki/Gmina_Szemud,https://en.wikipedia.org/wiki/Gmina_Szemud,Point(18.225555555 54.486666666),28.82,54.486666666667,18.225555555556,19,http://www.wikidata.org/entity/Q3504085,Gmina Szemud,rural municipality
http://www.wikidata.org/entity/Q946365,https://de.wikipedia.org/wiki/Gmina_Chmielno,https://en.wikipedia.org/wiki/Gmina_Chmielno,Point(18.100833333 54.326388888),33.686,54.326388888889,18.100833333333,19,http://www.wikidata.org/entity/Q3504085,Gmina Chmielno,rural municipality
http://www.wikidata.org/entity/Q2355501,https://de.wikipedia.org/wiki/Gmina_Luzino,https://en.wikipedia.org/wiki/Gmina_Luzino,Point(18.103055555 54.562777777),39.967,54.562777777778,18.103055555556,19,http://www.wikidata.org/entity/Q3504085,Gmina Luzino,rural municipality
http://www.wikidata.org/entity/Q662520,https://de.wikipedia.org/wiki/Gmina_Kolbudy,https://en.wikipedia.org/wiki/Gmina_Kolbudy,Point(18.472222222 54.270833333),13.868,54.270833333333,18.472222222222,18,http://www.wikidata.org/entity/Q3504085,Gmina Kolbudy,rural municipality
http://www.wikidata.org/entity/Q1900156,https://de.wikipedia.org/wiki/Gmina_Somonino,https://en.wikipedia.org/wiki/Gmina_Somonino,Point(18.198888888 54.276666666),28.743,54.276666666667,18.198888888889,18,http://www.wikidata.org/entity/Q3504085,Gmina Somonino,rural municipality
http://www.wikidata.org/entity/Q2233504,https://de.wikipedia.org/wiki/Wejherowo_(Landgemeinde),https://en.wikipedia.org/wiki/Gmina_Wejherowo,Point(18.25 54.6),35.463,54.6,18.25,18,http://www.wikidata.org/entity/Q3504085,Gmina Wejherowo,rural municipality
http://www.wikidata.org/entity/Q2094829,https://de.wikipedia.org/wiki/Gmina_%C5%BBukowo,https://en.wikipedia.org/wiki/Gmina_%C5%BBukowo,Point(18.360555555 54.345833333),16.712,54.345833333333,18.360555555556,18,http://www.wikidata.org/entity/Q3491915,Gmina Żukowo,urban-rural municipality
http://www.wikidata.org/entity/Q551707,https://de.wikipedia.org/wiki/Gmina_Sztutowo,https://en.wikipedia.org/wiki/Gmina_Sztutowo,Point(19.178888888 54.325833333),36.659,54.325833333333,19.178888888889,18,http://www.wikidata.org/entity/Q3504085,Gmina Sztutowo,rural municipality
http://www.wikidata.org/entity/Q2165775,https://de.wikipedia.org/wiki/Erzbistum_Danzig,https://en.wikipedia.org/wiki/Roman_Catholic_Archdiocese_of_Gda%C5%84sk,Point(18.5589 54.411),6.55,54.411,18.5589,18,http://www.wikidata.org/entity/Q105390172,Roman Catholic Archdiocese of Gdańsk,Roman Catholic metropolitan archdiocese
http://www.wikidata.org/entity/Q2355489,https://de.wikipedia.org/wiki/Gmina_Tr%C4%85bki_Wielkie,https://en.wikipedia.org/wiki/Gmina_Tr%C4%85bki_Wielkie,Point(18.539722222 54.169722222),22.034,54.169722222222,18.539722222222,18,http://www.wikidata.org/entity/Q3504085,Gmina Trąbki Wielkie,rural municipality
http://www.wikidata.org/entity/Q2355514,https://de.wikipedia.org/wiki/Gmina_Przywidz,https://en.wikipedia.org/wiki/Gmina_Przywidz,Point(18.326388888 54.197777777),26.301,54.197777777778,18.326388888889,18,http://www.wikidata.org/entity/Q3504085,Gmina Przywidz,rural municipality
http://www.wikidata.org/entity/Q2355532,https://de.wikipedia.org/wiki/Gmina_Liniewo,https://en.wikipedia.org/wiki/Gmina_Liniewo,Point(18.226944444 54.075833333),40.741,54.075833333333,18.226944444444,18,http://www.wikidata.org/entity/Q3504085,Gmina Liniewo,rural municipality
http://www.wikidata.org/entity/Q3736104,https://de.wikipedia.org/wiki/%C5%BBu%C5%82awy_Wi%C5%9Blane,https://en.wikipedia.org/wiki/Vistula_Fens,Point(19.0 54.16667),33.08,54.16667,19.0,18,http://www.wikidata.org/entity/Q82794,Żuławy Wiślane,geographic region
http://www.wikidata.org/entity/Q3736104,https://de.wikipedia.org/wiki/%C5%BBu%C5%82awy_Wi%C5%9Blane,https://en.wikipedia.org/wiki/Vistula_Fens,Point(19.0 54.16667),33.08,54.16667,19.0,18,http://www.wikidata.org/entity/Q160091,Żuławy Wiślane,plain
http://www.wikidata.org/entity/Q3736104,https://de.wikipedia.org/wiki/%C5%BBu%C5%82awy_Wi%C5%9Blane,https://en.wikipedia.org/wiki/Vistula_Fens,Point(19.0 54.16667),33.08,54.16667,19.0,18,http://www.wikidata.org/entity/Q570116,Żuławy Wiślane,tourist attraction
http://www.wikidata.org/entity/Q3736104,https://de.wikipedia.org/wiki/%C5%BBu%C5%82awy_Wi%C5%9Blane,https://en.wikipedia.org/wiki/Vistula_Fens,Point(19.0 54.16667),33.08,54.16667,19.0,18,http://www.wikidata.org/entity/Q3491088,Żuławy Wiślane,mesoregion
http://www.wikidata.org/entity/Q3736104,https://de.wikipedia.org/wiki/%C5%BBu%C5%82awy_Wi%C5%9Blane,https://en.wikipedia.org/wiki/Vistula_Fens,Point(19.0 54.16667),33.08,54.16667,19.0,18,http://www.wikidata.org/entity/Q3502482,Żuławy Wiślane,cultural region
http://www.wikidata.org/entity/Q3736104,https://de.wikipedia.org/wiki/%C5%BBu%C5%82awy_Wi%C5%9Blane,https://en.wikipedia.org/wiki/Vistula_Fens,Point(19.0 54.16667),33.08,54.16667,19.0,18,http://www.wikidata.org/entity/Q43197,Żuławy Wiślane,river delta
http://www.wikidata.org/entity/Q980095,https://de.wikipedia.org/wiki/Nogat,https://en.wikipedia.org/wiki/Nogat,Point(19.272222222 54.275),43.609,54.275,19.272222222222,17,http://www.wikidata.org/entity/Q4022,Nogat,river
http://www.wikidata.org/entity/Q254384,https://de.wikipedia.org/wiki/Gmina_Mi%C5%82oradz,https://en.wikipedia.org/wiki/Gmina_Mi%C5%82oradz,Point(18.918055555 54.014166666),43.427,54.014166666667,18.918055555556,17,http://www.wikidata.org/entity/Q3504085,Gmina Miłoradz,rural municipality
http://www.wikidata.org/entity/Q349091,https://de.wikipedia.org/wiki/B%C5%82yskawica_(Schiff),https://en.wikipedia.org/wiki/ORP_B%C5%82yskawica,Point(18.551212 54.519554),17.949,54.519554,18.551212,17,http://www.wikidata.org/entity/Q174736,ORP Błyskawica,destroyer
http://www.wikidata.org/entity/Q349091,https://de.wikipedia.org/wiki/B%C5%82yskawica_(Schiff),https://en.wikipedia.org/wiki/ORP_B%C5%82yskawica,Point(18.551212 54.519554),17.949,54.519554,18.551212,17,http://www.wikidata.org/entity/Q575727,ORP Błyskawica,museum ship
http://www.wikidata.org/entity/Q901954,https://de.wikipedia.org/wiki/Belagerung_von_Danzig_(1807),https://en.wikipedia.org/wiki/Siege_of_Danzig_(1807),Point(18.633333333 54.366666666),1.156,54.3667,18.6333,17,http://www.wikidata.org/entity/Q188055,Siege of Danzig,siege
http://www.wikidata.org/entity/Q901954,https://de.wikipedia.org/wiki/Belagerung_von_Danzig_(1807),https://en.wikipedia.org/wiki/Siege_of_Danzig_(1807),Point(18.6333 54.3667),1.156,54.3667,18.6333,17,http://www.wikidata.org/entity/Q188055,Siege of Danzig,siege
http://www.wikidata.org/entity/Q901954,https://de.wikipedia.org/wiki/Belagerung_von_Danzig_(1807),https://en.wikipedia.org/wiki/Siege_of_Danzig_(1807),Point(18.633333333 54.366666666),1.156,54.366666666667,18.633333333333,17,http://www.wikidata.org/entity/Q188055,Siege of Danzig,siege
http://www.wikidata.org/entity/Q901954,https://de.wikipedia.org/wiki/Belagerung_von_Danzig_(1807),https://en.wikipedia.org/wiki/Siege_of_Danzig_(1807),Point(18.6333 54.3667),1.156,54.366666666667,18.633333333333,17,http://www.wikidata.org/entity/Q188055,Siege of Danzig,siege
http://www.wikidata.org/entity/Q2259703,https://de.wikipedia.org/wiki/Pruszcz_Gda%C5%84ski_(Landgemeinde),https://en.wikipedia.org/wiki/Gmina_Pruszcz_Gda%C5%84ski,Point(18.633333333 54.266666666),10.732,54.266666666667,18.633333333333,17,http://www.wikidata.org/entity/Q3504085,Gmina Pruszcz Gdański,rural municipality
http://www.wikidata.org/entity/Q550737,https://de.wikipedia.org/wiki/Gmina_Nowy_Staw,https://en.wikipedia.org/wiki/Gmina_Nowy_Staw,Point(19.013333333 54.135555555),36.075,54.135555555556,19.013333333333,17,http://www.wikidata.org/entity/Q3491915,Gmina Nowy Staw,urban-rural municipality
http://www.wikidata.org/entity/Q550743,https://de.wikipedia.org/wiki/Gmina_Stegna,https://en.wikipedia.org/wiki/Gmina_Stegna,Point(19.112222222 54.326388888),32.361,54.326388888889,19.112222222222,17,http://www.wikidata.org/entity/Q3504085,Gmina Stegna,rural municipality
http://www.wikidata.org/entity/Q550740,https://de.wikipedia.org/wiki/Starogard_Gda%C5%84ski_(Landgemeinde),https://en.wikipedia.org/wiki/Gmina_Starogard_Gda%C5%84ski,Point(18.533333333 53.966666666),44.369,53.966666666667,18.533333333333,17,http://www.wikidata.org/entity/Q3504085,Gmina Starogard Gdański,rural municipality
http://www.wikidata.org/entity/Q550805,https://de.wikipedia.org/wiki/Tczew_(Landgemeinde),https://en.wikipedia.org/wiki/Gmina_Tczew,Point(18.716666666 54.1),29.922,54.1,18.716666666667,17,http://www.wikidata.org/entity/Q3504085,Gmina Tczew,rural municipality
http://www.wikidata.org/entity/Q2071057,https://de.wikipedia.org/wiki/Gmina_Nowa_Karczma,https://en.wikipedia.org/wiki/Gmina_Nowa_Karczma,Point(18.2025 54.133333333),37.08,54.133333333333,18.2025,17,http://www.wikidata.org/entity/Q3504085,Gmina Nowa Karczma,rural municipality
http://www.wikidata.org/entity/Q551170,https://de.wikipedia.org/wiki/Gmina_Lichnowy,https://en.wikipedia.org/wiki/Gmina_Lichnowy,Point(18.913055555 54.114722222),33.627,54.114722222222,18.913055555556,17,http://www.wikidata.org/entity/Q3504085,Gmina Lichnowy,rural municipality
http://www.wikidata.org/entity/Q551185,https://de.wikipedia.org/wiki/Gmina_Subkowy,https://en.wikipedia.org/wiki/Gmina_Subkowy,Point(18.769444444 54.001666666),41.354,54.001666666667,18.769444444444,17,http://www.wikidata.org/entity/Q3504085,Gmina Subkowy,rural municipality
http://www.wikidata.org/entity/Q551711,https://de.wikipedia.org/wiki/Gmina_Skarszewy,https://en.wikipedia.org/wiki/Gmina_Skarszewy,Point(18.445833333 54.067222222),34.685,54.067222222222,18.445833333333,17,http://www.wikidata.org/entity/Q3491915,Gmina Skarszewy,urban-rural municipality
http://www.wikidata.org/entity/Q2458910,https://de.wikipedia.org/wiki/Gmina_Suchy_D%C4%85b,https://en.wikipedia.org/wiki/Gmina_Suchy_D%C4%85b,Point(18.7675 54.206666666),19.916,54.206666666667,18.7675,17,http://www.wikidata.org/entity/Q3504085,Gmina Suchy Dąb,rural municipality
http://www.wikidata.org/entity/Q2459704,https://de.wikipedia.org/wiki/Gmina_Pszcz%C3%B3%C5%82ki,https://en.wikipedia.org/wiki/Gmina_Pszcz%C3%B3%C5%82ki,Point(18.698055555 54.1725),21.797,54.1725,18.698055555556,17,http://www.wikidata.org/entity/Q3504085,Gmina Pszczółki,rural municipality
http://www.wikidata.org/entity/Q2461740,https://de.wikipedia.org/wiki/Gmina_Cedry_Wielkie,https://en.wikipedia.org/wiki/Gmina_Cedry_Wielkie,Point(18.845555555 54.244166666),19.848,54.244166666667,18.845555555556,17,http://www.wikidata.org/entity/Q3504085,Gmina Cedry Wielkie,rural municipality
http://www.wikidata.org/entity/Q551720,https://de.wikipedia.org/wiki/Gmina_Ostaszewo,https://en.wikipedia.org/wiki/Gmina_Ostaszewo,Point(18.947222222 54.218333333),26.785,54.218333333333,18.947222222222,17,http://www.wikidata.org/entity/Q3504085,Gmina Ostaszewo,rural municipality
http://www.wikidata.org/entity/Q551739,https://de.wikipedia.org/wiki/Gmina_Nowy_Dw%C3%B3r_Gda%C5%84ski,https://en.wikipedia.org/wiki/Gmina_Nowy_Dw%C3%B3r_Gda%C5%84ski,Point(19.116666666 54.216666666),36.276,54.216666666667,19.116666666667,17,http://www.wikidata.org/entity/Q3491915,Gmina Nowy Dwór Gdański,urban-rural municipality
http://www.wikidata.org/entity/Q2662904,,"https://en.wikipedia.org/wiki/Jantar,_Poland",Point(19.03306 54.33583),27.139,54.33583,19.03306,17,http://www.wikidata.org/entity/Q3558970,Jantar,village of Poland
http://www.wikidata.org/entity/Q2662904,,"https://en.wikipedia.org/wiki/Jantar,_Poland",Point(19.03326 54.33607),27.149,54.33583,19.03306,17,http://www.wikidata.org/entity/Q3558970,Jantar,village of Poland
http://www.wikidata.org/entity/Q2662904,,"https://en.wikipedia.org/wiki/Jantar,_Poland",Point(19.03306 54.33583),27.139,54.33607,19.03326,17,http://www.wikidata.org/entity/Q3558970,Jantar,village of Poland
http://www.wikidata.org/entity/Q2662904,,"https://en.wikipedia.org/wiki/Jantar,_Poland",Point(19.03326 54.33607),27.149,54.33607,19.03326,17,http://www.wikidata.org/entity/Q3558970,Jantar,village of Poland
http://www.wikidata.org/entity/Q704550,https://de.wikipedia.org/wiki/Belagerung_der_Halbinsel_Hel,https://en.wikipedia.org/wiki/Battle_of_Hel,Point(18.781388888 54.641666666),32.787,54.641666666667,18.781388888889,16,http://www.wikidata.org/entity/Q178561,Battle of Hel,battle
http://www.wikidata.org/entity/Q2038951,https://de.wikipedia.org/wiki/Wielka_Pia%C5%9Bnica,https://en.wikipedia.org/wiki/Wielka_Pia%C5%9Bnica,Point(18.195277777 54.682222222),44.746,54.682222222222,18.195277777778,16,http://www.wikidata.org/entity/Q3558970,Wielka Piaśnica,village of Poland
http://www.wikidata.org/entity/Q2176067,https://de.wikipedia.org/wiki/K%C4%85ty_Rybackie,https://en.wikipedia.org/wiki/K%C4%85ty_Rybackie,Point(19.22976 54.3399),39.8,54.3399,19.22976,16,http://www.wikidata.org/entity/Q3558970,Kąty Rybackie,village of Poland
http://www.wikidata.org/entity/Q3077076,https://de.wikipedia.org/wiki/Rewa_(Kosakowo),"https://en.wikipedia.org/wiki/Rewa,_Poland",Point(18.504166666 54.632222222),30.838,54.632222222222,18.504166666667,16,http://www.wikidata.org/entity/Q3558970,Rewa,village of Poland
http://www.wikidata.org/entity/Q560402,"https://de.wikipedia.org/wiki/U_4_(U-Boot,_1935)",https://en.wikipedia.org/wiki/German_submarine_U-4_(1935),Point(18.55 54.533333333),19.458,54.533333333333,18.55,16,http://www.wikidata.org/entity/Q428661,U-4,U-boat
http://www.wikidata.org/entity/Q3060591,https://de.wikipedia.org/wiki/Cha%C5%82upy_(W%C5%82adys%C5%82awowo),https://en.wikipedia.org/wiki/Cha%C5%82upy,Point(18.5 54.75),43.717,54.75,18.5,16,http://www.wikidata.org/entity/Q486972,Chałupy,human settlement
http://www.wikidata.org/entity/Q4977088,https://de.wikipedia.org/wiki/Chwaszczyno,https://en.wikipedia.org/wiki/Chwaszczyno,Point(18.41917 54.44361),15.639,54.44361,18.41917,16,http://www.wikidata.org/entity/Q3558970,Chwaszczyno,village of Poland
http://www.wikidata.org/entity/Q653582,https://de.wikipedia.org/wiki/Belagerung_der_Marienburg_(1410),https://en.wikipedia.org/wiki/Siege_of_Marienburg_(1410),Point(19.02777778 54.03972222),44.767,54.03972222,19.02777778,15,http://www.wikidata.org/entity/Q188055,Siege of Marienburg,siege
http://www.wikidata.org/entity/Q764396,https://de.wikipedia.org/wiki/Pomnik_Poleg%C5%82ych_Stoczniowc%C3%B3w_1970,https://en.wikipedia.org/wiki/Monument_to_the_Fallen_Shipyard_Workers_of_1970,Point(18.6492 54.3605),2.112,54.3605,18.6492,15,http://www.wikidata.org/entity/Q321053,Monument to the Fallen Shipyard Workers of 1970,cenotaph
http://www.wikidata.org/entity/Q185808,https://de.wikipedia.org/wiki/Kosakowo_(Puck),"https://en.wikipedia.org/wiki/Kosakowo,_Pomeranian_Voivodeship",Point(18.46667 54.58333),26.38,54.58333,18.46667,15,http://www.wikidata.org/entity/Q3558970,Kosakowo,village of Poland
http://www.wikidata.org/entity/Q995277,https://de.wikipedia.org/wiki/Mokry_Dw%C3%B3r_(Pruszcz_Gda%C5%84ski),"https://en.wikipedia.org/wiki/Mokry_Dw%C3%B3r,_Pomeranian_Voivodeship",Point(18.69015 54.3034),8.129,54.3034,18.69015,15,http://www.wikidata.org/entity/Q3558970,"Mokry Dwór, Pomeranian Voivodeship",village of Poland
http://www.wikidata.org/entity/Q995277,https://de.wikipedia.org/wiki/Mokry_Dw%C3%B3r_(Pruszcz_Gda%C5%84ski),"https://en.wikipedia.org/wiki/Mokry_Dw%C3%B3r,_Pomeranian_Voivodeship",Point(18.71556 54.29278),10.071,54.3034,18.69015,15,http://www.wikidata.org/entity/Q3558970,"Mokry Dwór, Pomeranian Voivodeship",village of Poland
http://www.wikidata.org/entity/Q995277,https://de.wikipedia.org/wiki/Mokry_Dw%C3%B3r_(Pruszcz_Gda%C5%84ski),"https://en.wikipedia.org/wiki/Mokry_Dw%C3%B3r,_Pomeranian_Voivodeship",Point(18.69015 54.3034),8.129,54.29278,18.71556,15,http://www.wikidata.org/entity/Q3558970,"Mokry Dwór, Pomeranian Voivodeship",village of Poland
http://www.wikidata.org/entity/Q995277,https://de.wikipedia.org/wiki/Mokry_Dw%C3%B3r_(Pruszcz_Gda%C5%84ski),"https://en.wikipedia.org/wiki/Mokry_Dw%C3%B3r,_Pomeranian_Voivodeship",Point(18.71556 54.29278),10.071,54.29278,18.71556,15,http://www.wikidata.org/entity/Q3558970,"Mokry Dwór, Pomeranian Voivodeship",village of Poland
http://www.wikidata.org/entity/Q996881,https://de.wikipedia.org/wiki/Stegna,https://en.wikipedia.org/wiki/Stegna,Point(19.11222222 54.32638889),32.361,54.32638889,19.11222222,15,http://www.wikidata.org/entity/Q3558970,Stegna,village of Poland
http://www.wikidata.org/entity/Q1021035,https://de.wikipedia.org/wiki/Chmielno_(Powiat_Kartuski),"https://en.wikipedia.org/wiki/Chmielno,_Pomeranian_Voivodeship",Point(18.1 54.31667),33.89,54.31667,18.1,15,http://www.wikidata.org/entity/Q3558970,Chmielno,village of Poland
http://www.wikidata.org/entity/Q453700,https://de.wikipedia.org/wiki/Baltischer_Landr%C3%BCcken,https://en.wikipedia.org/wiki/Baltic_Uplands,Point(18.1233 54.2236),35.566,54.2236,18.1233,15,http://www.wikidata.org/entity/Q1437459,Baltic Uplands,non-geologically related mountain range
http://www.wikidata.org/entity/Q453700,https://de.wikipedia.org/wiki/Baltischer_Landr%C3%BCcken,https://en.wikipedia.org/wiki/Baltic_Uplands,Point(18.1233 54.2236),35.566,54.2236,18.1233,15,http://www.wikidata.org/entity/Q55075651,Baltic Uplands,upland
http://www.wikidata.org/entity/Q453700,https://de.wikipedia.org/wiki/Baltischer_Landr%C3%BCcken,https://en.wikipedia.org/wiki/Baltic_Uplands,Point(18.1233 54.2236),35.566,54.2236,18.1233,15,http://www.wikidata.org/entity/Q46831,Baltic Uplands,mountain range
http://www.wikidata.org/entity/Q1761064,https://de.wikipedia.org/wiki/Radunia,https://en.wikipedia.org/wiki/Radunia,Point(18.686863 54.3131972),7.135,54.1825642,17.9419411,15,http://www.wikidata.org/entity/Q4022,Radunia,river
http://www.wikidata.org/entity/Q1761064,https://de.wikipedia.org/wiki/Radunia,https://en.wikipedia.org/wiki/Radunia,Point(18.686863 54.3131972),7.135,54.3131972,18.686863,15,http://www.wikidata.org/entity/Q4022,Radunia,river
http://www.wikidata.org/entity/Q2146375,https://de.wikipedia.org/wiki/Rzucewo,https://en.wikipedia.org/wiki/Rzucewo,Point(18.46222 54.68583),37.288,54.68583,18.46222,15,http://www.wikidata.org/entity/Q3558970,Rzucewo,village of Poland
http://www.wikidata.org/entity/Q2146375,https://de.wikipedia.org/wiki/Rzucewo,https://en.wikipedia.org/wiki/Rzucewo,Point(18.46287 54.68782),37.49,54.68583,18.46222,15,http://www.wikidata.org/entity/Q3558970,Rzucewo,village of Poland
http://www.wikidata.org/entity/Q2146375,https://de.wikipedia.org/wiki/Rzucewo,https://en.wikipedia.org/wiki/Rzucewo,Point(18.46222 54.68583),37.288,54.68782,18.46287,15,http://www.wikidata.org/entity/Q3558970,Rzucewo,village of Poland
http://www.wikidata.org/entity/Q2146375,https://de.wikipedia.org/wiki/Rzucewo,https://en.wikipedia.org/wiki/Rzucewo,Point(18.46287 54.68782),37.49,54.68782,18.46287,15,http://www.wikidata.org/entity/Q3558970,Rzucewo,village of Poland
http://www.wikidata.org/entity/Q2354105,https://de.wikipedia.org/wiki/Belagerung_von_Danzig_(1734),https://en.wikipedia.org/wiki/Siege_of_Danzig_(1734),Point(18.633333333 54.366666666),1.156,54.366666666667,18.633333333333,15,http://www.wikidata.org/entity/Q178561,Siege of Danzig,battle
http://www.wikidata.org/entity/Q2354105,https://de.wikipedia.org/wiki/Belagerung_von_Danzig_(1734),https://en.wikipedia.org/wiki/Siege_of_Danzig_(1734),Point(18.633333333 54.366666666),1.156,54.366666666667,18.633333333333,15,http://www.wikidata.org/entity/Q178561,Siege of Danzig,battle
http://www.wikidata.org/entity/Q2354105,https://de.wikipedia.org/wiki/Belagerung_von_Danzig_(1734),https://en.wikipedia.org/wiki/Siege_of_Danzig_(1734),Point(18.633333333 54.366666666),1.156,54.366666666667,18.633333333333,15,http://www.wikidata.org/entity/Q188055,Siege of Danzig,siege
http://www.wikidata.org/entity/Q2354105,https://de.wikipedia.org/wiki/Belagerung_von_Danzig_(1734),https://en.wikipedia.org/wiki/Siege_of_Danzig_(1734),Point(18.633333333 54.366666666),1.156,54.366666666667,18.633333333333,15,http://www.wikidata.org/entity/Q188055,Siege of Danzig,siege
http://www.wikidata.org/entity/Q557448,https://de.wikipedia.org/wiki/Bahnhof_Gda%C5%84sk_G%C5%82%C3%B3wny,https://en.wikipedia.org/wiki/Gda%C5%84sk_G%C5%82%C3%B3wny_railway_station,Point(18.644722 54.355556),1.974,54.355556,18.644722,15,http://www.wikidata.org/entity/Q55488,Gdańsk Główny railway station,railway station
http://www.wikidata.org/entity/Q2408232,https://de.wikipedia.org/wiki/Mechowo_(Puck),"https://en.wikipedia.org/wiki/Mechowo,_Pomeranian_Voivodeship",Point(18.26667 54.7),43.782,54.71339,18.27861,15,http://www.wikidata.org/entity/Q3558970,"Mechowo, Pomeranian Voivodeship",village of Poland
http://www.wikidata.org/entity/Q2408232,https://de.wikipedia.org/wiki/Mechowo_(Puck),"https://en.wikipedia.org/wiki/Mechowo,_Pomeranian_Voivodeship",Point(18.27861 54.71339),44.681,54.71339,18.27861,15,http://www.wikidata.org/entity/Q3558970,"Mechowo, Pomeranian Voivodeship",village of Poland
http://www.wikidata.org/entity/Q2408232,https://de.wikipedia.org/wiki/Mechowo_(Puck),"https://en.wikipedia.org/wiki/Mechowo,_Pomeranian_Voivodeship",Point(18.26667 54.7),43.782,54.7,18.26667,15,http://www.wikidata.org/entity/Q3558970,"Mechowo, Pomeranian Voivodeship",village of Poland
http://www.wikidata.org/entity/Q2408232,https://de.wikipedia.org/wiki/Mechowo_(Puck),"https://en.wikipedia.org/wiki/Mechowo,_Pomeranian_Voivodeship",Point(18.27861 54.71339),44.681,54.7,18.26667,15,http://www.wikidata.org/entity/Q3558970,"Mechowo, Pomeranian Voivodeship",village of Poland
http://www.wikidata.org/entity/Q4559814,https://de.wikipedia.org/wiki/Mirachowo,https://en.wikipedia.org/wiki/Mirachowo,Point(18.02739 54.39503),38.34,54.395,18.02778,15,http://www.wikidata.org/entity/Q3558970,Mirachowo,village of Poland
http://www.wikidata.org/entity/Q4559814,https://de.wikipedia.org/wiki/Mirachowo,https://en.wikipedia.org/wiki/Mirachowo,Point(18.02778 54.395),38.315,54.395,18.02778,15,http://www.wikidata.org/entity/Q3558970,Mirachowo,village of Poland
http://www.wikidata.org/entity/Q4559814,https://de.wikipedia.org/wiki/Mirachowo,https://en.wikipedia.org/wiki/Mirachowo,Point(18.02739 54.39503),38.34,54.39503,18.02739,15,http://www.wikidata.org/entity/Q3558970,Mirachowo,village of Poland
http://www.wikidata.org/entity/Q4559814,https://de.wikipedia.org/wiki/Mirachowo,https://en.wikipedia.org/wiki/Mirachowo,Point(18.02778 54.395),38.315,54.39503,18.02739,15,http://www.wikidata.org/entity/Q3558970,Mirachowo,village of Poland
http://www.wikidata.org/entity/Q4845346,https://de.wikipedia.org/wiki/Narodowe_Muzeum_Morskie,"https://en.wikipedia.org/wiki/National_Maritime_Museum,_Gda%C5%84sk",Point(18.659 54.351),3.027,54.351,18.659,15,http://www.wikidata.org/entity/Q1863818,National Maritime Museum in Gdańsk,maritime museum
http://www.wikidata.org/entity/Q4845346,https://de.wikipedia.org/wiki/Narodowe_Muzeum_Morskie,"https://en.wikipedia.org/wiki/National_Maritime_Museum,_Gda%C5%84sk",Point(18.659 54.351),3.027,54.351,18.659,15,http://www.wikidata.org/entity/Q17431399,National Maritime Museum in Gdańsk,national museum
http://www.wikidata.org/entity/Q1021046,,https://en.wikipedia.org/wiki/Szemud,Point(18.22555556 54.48666667),28.82,54.48666667,18.22555556,15,http://www.wikidata.org/entity/Q3558970,Szemud,village of Poland
http://www.wikidata.org/entity/Q2684288,,https://en.wikipedia.org/wiki/Garcz,Point(18.10169 54.3476),33.421,54.34528,18.10639,15,http://www.wikidata.org/entity/Q3558970,Garcz,village of Poland
http://www.wikidata.org/entity/Q2684288,,https://en.wikipedia.org/wiki/Garcz,Point(18.10639 54.34528),33.132,54.34528,18.10639,15,http://www.wikidata.org/entity/Q3558970,Garcz,village of Poland
http://www.wikidata.org/entity/Q2684288,,https://en.wikipedia.org/wiki/Garcz,Point(18.10169 54.3476),33.421,54.3476,18.10169,15,http://www.wikidata.org/entity/Q3558970,Garcz,village of Poland
http://www.wikidata.org/entity/Q2684288,,https://en.wikipedia.org/wiki/Garcz,Point(18.10639 54.34528),33.132,54.3476,18.10169,15,http://www.wikidata.org/entity/Q3558970,Garcz,village of Poland
http://www.wikidata.org/entity/Q805784,https://de.wikipedia.org/wiki/Baltische_Philharmonie_(Danzig),https://en.wikipedia.org/wiki/Polish_Baltic_Philharmonic,Point(18.659682778 54.352422954),3.003,54.352422954571,18.659682778134,14,http://www.wikidata.org/entity/Q294422,Polish Baltic Philharmonic,public building
http://www.wikidata.org/entity/Q819199,https://de.wikipedia.org/wiki/Przyja%C5%BA%C5%84,"https://en.wikipedia.org/wiki/Przyja%C5%BA%C5%84,_Pomeranian_Voivodeship",Point(18.391388888 54.310277777),15.734,54.310277777778,18.391388888889,14,http://www.wikidata.org/entity/Q3558970,"Przyjaźń, Pomeranian Voivodeship",village of Poland
http://www.wikidata.org/entity/Q1463060,https://de.wikipedia.org/wiki/Polnisches_Filmfestival_Gdynia,https://en.wikipedia.org/wiki/Gdynia_Film_Festival,Point(18.5456233 54.5168339),17.745,54.5168339,18.5456233,14,http://www.wikidata.org/entity/Q220505,Gdynia Film Festival,film festival
http://www.wikidata.org/entity/Q682989,https://de.wikipedia.org/wiki/Luzino,https://en.wikipedia.org/wiki/Luzino,Point(18.10305556 54.56277778),39.967,54.56277778,18.10305556,14,http://www.wikidata.org/entity/Q3558970,Luzino,village of Poland
http://www.wikidata.org/entity/Q685290,https://de.wikipedia.org/wiki/B%C4%85cz,https://en.wikipedia.org/wiki/B%C4%85cz,Point(17.99166667 54.38),40.538,54.38,17.99166667,14,http://www.wikidata.org/entity/Q3558970,Bącz,village of Poland
http://www.wikidata.org/entity/Q1525921,https://de.wikipedia.org/wiki/Sianowo,https://en.wikipedia.org/wiki/Sianowo,Point(18.088888888 54.388055555),34.308,54.388055555556,18.088888888889,14,http://www.wikidata.org/entity/Q3558970,Sianowo,village of Poland
http://www.wikidata.org/entity/Q1567868,https://de.wikipedia.org/wiki/Hafen_von_Danzig,https://en.wikipedia.org/wiki/Port_of_Gda%C5%84sk,Point(18.665 54.383055555),3.854,54.383055555556,18.665,14,http://www.wikidata.org/entity/Q15310171,Port of Gdańsk,seaport
http://www.wikidata.org/entity/Q1967790,https://de.wikipedia.org/wiki/Seeschlacht_von_Oliwa,https://en.wikipedia.org/wiki/Battle_of_Oliwa,Point(18.646638 54.352025),2.267,54.352025,18.646638,14,http://www.wikidata.org/entity/Q178561,Battle of Oliwa,battle
http://www.wikidata.org/entity/Q534403,https://de.wikipedia.org/wiki/Europ%C3%A4isches_Zentrum_der_Solidarno%C5%9B%C4%87,https://en.wikipedia.org/wiki/European_Solidarity_Centre,Point(18.649421 54.361234),2.118,54.361234,18.649421,14,http://www.wikidata.org/entity/Q671735,European Solidarity Centre,media library
http://www.wikidata.org/entity/Q534403,https://de.wikipedia.org/wiki/Europ%C3%A4isches_Zentrum_der_Solidarno%C5%9B%C4%87,https://en.wikipedia.org/wiki/European_Solidarity_Centre,Point(18.649421 54.361234),2.118,54.361234,18.649421,14,http://www.wikidata.org/entity/Q1378975,European Solidarity Centre,convention center
http://www.wikidata.org/entity/Q534403,https://de.wikipedia.org/wiki/Europ%C3%A4isches_Zentrum_der_Solidarno%C5%9B%C4%87,https://en.wikipedia.org/wiki/European_Solidarity_Centre,Point(18.649421 54.361234),2.118,54.361234,18.649421,14,http://www.wikidata.org/entity/Q7075,European Solidarity Centre,library
http://www.wikidata.org/entity/Q534403,https://de.wikipedia.org/wiki/Europ%C3%A4isches_Zentrum_der_Solidarno%C5%9B%C4%87,https://en.wikipedia.org/wiki/European_Solidarity_Centre,Point(18.649421 54.361234),2.118,54.361234,18.649421,14,http://www.wikidata.org/entity/Q33506,European Solidarity Centre,museum
http://www.wikidata.org/entity/Q2064139,https://de.wikipedia.org/wiki/%C5%81apalice,https://en.wikipedia.org/wiki/%C5%81apalice,Point(18.12899 54.3459),31.666,54.3459,18.12899,14,http://www.wikidata.org/entity/Q3558970,Łapalice,village of Poland
http://www.wikidata.org/entity/Q2064139,https://de.wikipedia.org/wiki/%C5%81apalice,https://en.wikipedia.org/wiki/%C5%81apalice,Point(18.12889 54.34611),31.671,54.3459,18.12899,14,http://www.wikidata.org/entity/Q3558970,Łapalice,village of Poland
http://www.wikidata.org/entity/Q2064139,https://de.wikipedia.org/wiki/%C5%81apalice,https://en.wikipedia.org/wiki/%C5%81apalice,Point(18.12899 54.3459),31.666,54.34611,18.12889,14,http://www.wikidata.org/entity/Q3558970,Łapalice,village of Poland
http://www.wikidata.org/entity/Q2064139,https://de.wikipedia.org/wiki/%C5%81apalice,https://en.wikipedia.org/wiki/%C5%81apalice,Point(18.12889 54.34611),31.671,54.34611,18.12889,14,http://www.wikidata.org/entity/Q3558970,Łapalice,village of Poland
http://www.wikidata.org/entity/Q2107666,https://de.wikipedia.org/wiki/Mechelinki,https://en.wikipedia.org/wiki/Mechelinki,Point(18.51222 54.60889),28.195,54.60889,18.51222,14,http://www.wikidata.org/entity/Q3558970,Mechelinki,village of Poland
http://www.wikidata.org/entity/Q2107666,https://de.wikipedia.org/wiki/Mechelinki,https://en.wikipedia.org/wiki/Mechelinki,Point(18.50561 54.61016),28.437,54.60889,18.51222,14,http://www.wikidata.org/entity/Q3558970,Mechelinki,village of Poland
http://www.wikidata.org/entity/Q2107666,https://de.wikipedia.org/wiki/Mechelinki,https://en.wikipedia.org/wiki/Mechelinki,Point(18.51222 54.60889),28.195,54.61016,18.50561,14,http://www.wikidata.org/entity/Q3558970,Mechelinki,village of Poland
http://www.wikidata.org/entity/Q2107666,https://de.wikipedia.org/wiki/Mechelinki,https://en.wikipedia.org/wiki/Mechelinki,Point(18.50561 54.61016),28.437,54.61016,18.50561,14,http://www.wikidata.org/entity/Q3558970,Mechelinki,village of Poland
http://www.wikidata.org/entity/Q2120386,https://de.wikipedia.org/wiki/Domat%C3%B3wko,https://en.wikipedia.org/wiki/Domat%C3%B3wko,Point(18.21012 54.68715),44.611,54.68806,18.21139,14,http://www.wikidata.org/entity/Q3558970,Domatówko,village of Poland
http://www.wikidata.org/entity/Q2120386,https://de.wikipedia.org/wiki/Domat%C3%B3wko,https://en.wikipedia.org/wiki/Domat%C3%B3wko,Point(18.21139 54.68806),44.645,54.68806,18.21139,14,http://www.wikidata.org/entity/Q3558970,Domatówko,village of Poland
http://www.wikidata.org/entity/Q2120386,https://de.wikipedia.org/wiki/Domat%C3%B3wko,https://en.wikipedia.org/wiki/Domat%C3%B3wko,Point(18.21012 54.68715),44.611,54.68715,18.21012,14,http://www.wikidata.org/entity/Q3558970,Domatówko,village of Poland
http://www.wikidata.org/entity/Q2120386,https://de.wikipedia.org/wiki/Domat%C3%B3wko,https://en.wikipedia.org/wiki/Domat%C3%B3wko,Point(18.21139 54.68806),44.645,54.68715,18.21012,14,http://www.wikidata.org/entity/Q3558970,Domatówko,village of Poland
http://www.wikidata.org/entity/Q2179507,https://de.wikipedia.org/wiki/Mosty_(Kosakowo),"https://en.wikipedia.org/wiki/Mosty,_Puck_County",Point(18.49611 54.60806),28.373,54.61195,18.49634,14,http://www.wikidata.org/entity/Q3558970,"Mosty, powiat pucki",village of Poland
http://www.wikidata.org/entity/Q2179507,https://de.wikipedia.org/wiki/Mosty_(Kosakowo),"https://en.wikipedia.org/wiki/Mosty,_Puck_County",Point(18.49634 54.61195),28.785,54.61195,18.49634,14,http://www.wikidata.org/entity/Q3558970,"Mosty, powiat pucki",village of Poland
http://www.wikidata.org/entity/Q2179507,https://de.wikipedia.org/wiki/Mosty_(Kosakowo),"https://en.wikipedia.org/wiki/Mosty,_Puck_County",Point(18.49611 54.60806),28.373,54.60806,18.49611,14,http://www.wikidata.org/entity/Q3558970,"Mosty, powiat pucki",village of Poland
http://www.wikidata.org/entity/Q2179507,https://de.wikipedia.org/wiki/Mosty_(Kosakowo),"https://en.wikipedia.org/wiki/Mosty,_Puck_County",Point(18.49634 54.61195),28.785,54.60806,18.49611,14,http://www.wikidata.org/entity/Q3558970,"Mosty, powiat pucki",village of Poland
http://www.wikidata.org/entity/Q3188054,https://de.wikipedia.org/wiki/B%C5%82%C4%85dzikowo,https://en.wikipedia.org/wiki/B%C5%82%C4%85dzikowo,Point(18.43166667 54.69777778),39.125,54.69824,18.4306,14,http://www.wikidata.org/entity/Q3558970,Błądzikowo,village of Poland
http://www.wikidata.org/entity/Q3188054,https://de.wikipedia.org/wiki/B%C5%82%C4%85dzikowo,https://en.wikipedia.org/wiki/B%C5%82%C4%85dzikowo,Point(18.4306 54.69824),39.195,54.69824,18.4306,14,http://www.wikidata.org/entity/Q3558970,Błądzikowo,village of Poland
http://www.wikidata.org/entity/Q3188054,https://de.wikipedia.org/wiki/B%C5%82%C4%85dzikowo,https://en.wikipedia.org/wiki/B%C5%82%C4%85dzikowo,Point(18.43166667 54.69777778),39.125,54.69777778,18.43166667,14,http://www.wikidata.org/entity/Q3558970,Błądzikowo,village of Poland
http://www.wikidata.org/entity/Q3188054,https://de.wikipedia.org/wiki/B%C5%82%C4%85dzikowo,https://en.wikipedia.org/wiki/B%C5%82%C4%85dzikowo,Point(18.4306 54.69824),39.195,54.69777778,18.43166667,14,http://www.wikidata.org/entity/Q3558970,Błądzikowo,village of Poland
http://www.wikidata.org/entity/Q606782,"https://de.wikipedia.org/wiki/U_10_(U-Boot,_1935)",https://en.wikipedia.org/wiki/German_submarine_U-10_(1935),Point(18.666666666 54.383333333),3.96,54.383333333333,18.666666666667,14,http://www.wikidata.org/entity/Q428661,U-10,U-boat
http://www.wikidata.org/entity/Q618638,"https://de.wikipedia.org/wiki/U_11_(U-Boot,_1935)",https://en.wikipedia.org/wiki/German_submarine_U-11_(1935),Point(18.666666666 54.316666666),6.053,54.316666666667,18.666666666667,14,http://www.wikidata.org/entity/Q428661,U-11,U-boat
http://www.wikidata.org/entity/Q2830963,https://de.wikipedia.org/wiki/Le%C5%BAno,https://en.wikipedia.org/wiki/Le%C5%BAno,Point(18.43278 54.3475),12.045,54.34615,18.4342,14,http://www.wikidata.org/entity/Q3558970,Leźno,village of Poland
http://www.wikidata.org/entity/Q2830963,https://de.wikipedia.org/wiki/Le%C5%BAno,https://en.wikipedia.org/wiki/Le%C5%BAno,Point(18.4342 54.34615),11.976,54.34615,18.4342,14,http://www.wikidata.org/entity/Q3558970,Leźno,village of Poland
http://www.wikidata.org/entity/Q2830963,https://de.wikipedia.org/wiki/Le%C5%BAno,https://en.wikipedia.org/wiki/Le%C5%BAno,Point(18.43278 54.3475),12.045,54.3475,18.43278,14,http://www.wikidata.org/entity/Q3558970,Leźno,village of Poland
http://www.wikidata.org/entity/Q2830963,https://de.wikipedia.org/wiki/Le%C5%BAno,https://en.wikipedia.org/wiki/Le%C5%BAno,Point(18.4342 54.34615),11.976,54.3475,18.43278,14,http://www.wikidata.org/entity/Q3558970,Leźno,village of Poland
http://www.wikidata.org/entity/Q4977079,https://de.wikipedia.org/wiki/%C5%BBelistrzewo,https://en.wikipedia.org/wiki/%C5%BBelistrzewo,Point(18.41738 54.6777),37.314,54.6777,18.41738,14,http://www.wikidata.org/entity/Q3558970,Żelistrzewo,village of Poland
http://www.wikidata.org/entity/Q4977079,https://de.wikipedia.org/wiki/%C5%BBelistrzewo,https://en.wikipedia.org/wiki/%C5%BBelistrzewo,Point(18.41944 54.67722),37.219,54.6777,18.41738,14,http://www.wikidata.org/entity/Q3558970,Żelistrzewo,village of Poland
http://www.wikidata.org/entity/Q4977079,https://de.wikipedia.org/wiki/%C5%BBelistrzewo,https://en.wikipedia.org/wiki/%C5%BBelistrzewo,Point(18.41738 54.6777),37.314,54.67722,18.41944,14,http://www.wikidata.org/entity/Q3558970,Żelistrzewo,village of Poland
http://www.wikidata.org/entity/Q4977079,https://de.wikipedia.org/wiki/%C5%BBelistrzewo,https://en.wikipedia.org/wiki/%C5%BBelistrzewo,Point(18.41944 54.67722),37.219,54.67722,18.41944,14,http://www.wikidata.org/entity/Q3558970,Żelistrzewo,village of Poland
http://www.wikidata.org/entity/Q7108312,https://de.wikipedia.org/wiki/Os%C5%82onino,https://en.wikipedia.org/wiki/Os%C5%82onino,Point(18.45737 54.66837),35.511,54.66837,18.45737,14,http://www.wikidata.org/entity/Q3558970,Osłonino,village of Poland
http://www.wikidata.org/entity/Q7108312,https://de.wikipedia.org/wiki/Os%C5%82onino,https://en.wikipedia.org/wiki/Os%C5%82onino,Point(18.45666667 54.66888889),35.579,54.66837,18.45737,14,http://www.wikidata.org/entity/Q3558970,Osłonino,village of Poland
http://www.wikidata.org/entity/Q7108312,https://de.wikipedia.org/wiki/Os%C5%82onino,https://en.wikipedia.org/wiki/Os%C5%82onino,Point(18.45737 54.66837),35.511,54.66888889,18.45666667,14,http://www.wikidata.org/entity/Q3558970,Osłonino,village of Poland
http://www.wikidata.org/entity/Q7108312,https://de.wikipedia.org/wiki/Os%C5%82onino,https://en.wikipedia.org/wiki/Os%C5%82onino,Point(18.45666667 54.66888889),35.579,54.66888889,18.45666667,14,http://www.wikidata.org/entity/Q3558970,Osłonino,village of Poland
http://www.wikidata.org/entity/Q589502,,https://en.wikipedia.org/wiki/Ma%C5%82kowo,Point(18.3328877 54.371083),18.417,54.371083,18.3328877,14,http://www.wikidata.org/entity/Q486972,Małkowo,human settlement
http://www.wikidata.org/entity/Q589502,,https://en.wikipedia.org/wiki/Ma%C5%82kowo,Point(18.3328877 54.371083),18.417,54.371083,18.3328877,14,http://www.wikidata.org/entity/Q3558970,Małkowo,village of Poland
http://www.wikidata.org/entity/Q1827149,,"https://en.wikipedia.org/wiki/Kamela,_Poland",Point(18.233888888 54.229444444),28.931,54.229166666667,18.233888888889,14,http://www.wikidata.org/entity/Q3558970,Kamela,village of Poland
http://www.wikidata.org/entity/Q1827149,,"https://en.wikipedia.org/wiki/Kamela,_Poland",Point(18.233888888 54.229444444),28.931,54.229444444444,18.233888888889,14,http://www.wikidata.org/entity/Q3558970,Kamela,village of Poland
http://www.wikidata.org/entity/Q1841681,,https://en.wikipedia.org/wiki/Egiertowo,Point(18.20171 54.23895),30.245,54.23895,18.20171,14,http://www.wikidata.org/entity/Q3558970,Egiertowo,village of Poland
http://www.wikidata.org/entity/Q1841681,,https://en.wikipedia.org/wiki/Egiertowo,Point(18.20361 54.24028),30.068,54.23895,18.20171,14,http://www.wikidata.org/entity/Q3558970,Egiertowo,village of Poland
http://www.wikidata.org/entity/Q1841681,,https://en.wikipedia.org/wiki/Egiertowo,Point(18.20171 54.23895),30.245,54.24028,18.20361,14,http://www.wikidata.org/entity/Q3558970,Egiertowo,village of Poland
http://www.wikidata.org/entity/Q1841681,,https://en.wikipedia.org/wiki/Egiertowo,Point(18.20361 54.24028),30.068,54.24028,18.20361,14,http://www.wikidata.org/entity/Q3558970,Egiertowo,village of Poland
http://www.wikidata.org/entity/Q2856096,,https://en.wikipedia.org/wiki/Banino,Point(18.4086592 54.3920505),13.871,54.3920505,18.4086592,14,http://www.wikidata.org/entity/Q3558970,Banino,village of Poland
http://www.wikidata.org/entity/Q3127219,,https://en.wikipedia.org/wiki/B%C4%99domin,Point(18.12277778 54.12777778),41.384,54.12777778,18.12277778,14,http://www.wikidata.org/entity/Q3558970,Będomin,village of Poland
http://www.wikidata.org/entity/Q3127219,,https://en.wikipedia.org/wiki/B%C4%99domin,Point(18.11944 54.13),41.397,54.12777778,18.12277778,14,http://www.wikidata.org/entity/Q3558970,Będomin,village of Poland
http://www.wikidata.org/entity/Q3127219,,https://en.wikipedia.org/wiki/B%C4%99domin,Point(18.12277778 54.12777778),41.384,54.13,18.11944,14,http://www.wikidata.org/entity/Q3558970,Będomin,village of Poland
http://www.wikidata.org/entity/Q3127219,,https://en.wikipedia.org/wiki/B%C4%99domin,Point(18.11944 54.13),41.397,54.13,18.11944,14,http://www.wikidata.org/entity/Q3558970,Będomin,village of Poland
http://www.wikidata.org/entity/Q4615651,,https://en.wikipedia.org/wiki/Barwik,Point(18.18611 54.40222),28.234,54.40087,18.19418,14,http://www.wikidata.org/entity/Q3558970,Barwik,village of Poland
http://www.wikidata.org/entity/Q4615651,,https://en.wikipedia.org/wiki/Barwik,Point(18.19418 54.40087),27.695,54.40087,18.19418,14,http://www.wikidata.org/entity/Q3558970,Barwik,village of Poland
http://www.wikidata.org/entity/Q4615651,,https://en.wikipedia.org/wiki/Barwik,Point(18.18611 54.40222),28.234,54.40222,18.18611,14,http://www.wikidata.org/entity/Q3558970,Barwik,village of Poland
http://www.wikidata.org/entity/Q4615651,,https://en.wikipedia.org/wiki/Barwik,Point(18.19418 54.40087),27.695,54.40222,18.18611,14,http://www.wikidata.org/entity/Q3558970,Barwik,village of Poland
http://www.wikidata.org/entity/Q4978475,,https://en.wikipedia.org/wiki/Tuchom,Point(18.3903 54.4294),16.432,54.4294,18.3903,14,http://www.wikidata.org/entity/Q3558970,Tuchom,village of Poland
http://www.wikidata.org/entity/Q6454910,,https://en.wikipedia.org/wiki/K%C5%82obuczyno,Point(18.1 54.18556),38.908,54.18556,18.1,14,http://www.wikidata.org/entity/Q3558970,Kłobuczyno,village of Poland
http://www.wikidata.org/entity/Q783294,https://de.wikipedia.org/wiki/Neptunbrunnen_(Danzig),"https://en.wikipedia.org/wiki/Neptune%27s_Fountain,_Gda%C5%84sk",Point(18.65338056 54.34856389),2.843,54.34856389,18.65338056,13,http://www.wikidata.org/entity/Q483453,Neptune's Fountain,fountain
http://www.wikidata.org/entity/Q784483,https://de.wikipedia.org/wiki/Jurata,https://en.wikipedia.org/wiki/Jurata,Point(18.714527777 54.683333333),36.204,54.683333333333,18.714527777778,13,http://www.wikidata.org/entity/Q486972,Jurata,human settlement
http://www.wikidata.org/entity/Q1426552,https://de.wikipedia.org/wiki/Langgasser_Tor,https://en.wikipedia.org/wiki/Golden_Gate_(Gda%C5%84sk),Point(18.64802 54.34967),2.487,54.34967,18.64802,13,http://www.wikidata.org/entity/Q811979,Golden Gate,architectural structure
http://www.wikidata.org/entity/Q1450669,https://de.wikipedia.org/wiki/Gr%C3%BCnes_Tor_(Danzig),https://en.wikipedia.org/wiki/Green_Gate,Point(18.65562983 54.347924839),3.004,54.347924839971,18.65562983022,13,http://www.wikidata.org/entity/Q82117,Green Gate,city gate
http://www.wikidata.org/entity/Q1450669,https://de.wikipedia.org/wiki/Gr%C3%BCnes_Tor_(Danzig),https://en.wikipedia.org/wiki/Green_Gate,Point(18.65573 54.34794),3.008,54.347924839971,18.65562983022,13,http://www.wikidata.org/entity/Q82117,Green Gate,city gate
http://www.wikidata.org/entity/Q1450669,https://de.wikipedia.org/wiki/Gr%C3%BCnes_Tor_(Danzig),https://en.wikipedia.org/wiki/Green_Gate,Point(18.65562983 54.347924839),3.004,54.34794,18.65573,13,http://www.wikidata.org/entity/Q82117,Green Gate,city gate
http://www.wikidata.org/entity/Q1450669,https://de.wikipedia.org/wiki/Gr%C3%BCnes_Tor_(Danzig),https://en.wikipedia.org/wiki/Green_Gate,Point(18.65573 54.34794),3.008,54.34794,18.65573,13,http://www.wikidata.org/entity/Q82117,Green Gate,city gate
http://www.wikidata.org/entity/Q1450669,https://de.wikipedia.org/wiki/Gr%C3%BCnes_Tor_(Danzig),https://en.wikipedia.org/wiki/Green_Gate,Point(18.65562983 54.347924839),3.004,54.347924839971,18.65562983022,13,http://www.wikidata.org/entity/Q570116,Green Gate,tourist attraction
http://www.wikidata.org/entity/Q1450669,https://de.wikipedia.org/wiki/Gr%C3%BCnes_Tor_(Danzig),https://en.wikipedia.org/wiki/Green_Gate,Point(18.65573 54.34794),3.008,54.347924839971,18.65562983022,13,http://www.wikidata.org/entity/Q570116,Green Gate,tourist attraction
http://www.wikidata.org/entity/Q1450669,https://de.wikipedia.org/wiki/Gr%C3%BCnes_Tor_(Danzig),https://en.wikipedia.org/wiki/Green_Gate,Point(18.65562983 54.347924839),3.004,54.34794,18.65573,13,http://www.wikidata.org/entity/Q570116,Green Gate,tourist attraction
http://www.wikidata.org/entity/Q1450669,https://de.wikipedia.org/wiki/Gr%C3%BCnes_Tor_(Danzig),https://en.wikipedia.org/wiki/Green_Gate,Point(18.65573 54.34794),3.008,54.34794,18.65573,13,http://www.wikidata.org/entity/Q570116,Green Gate,tourist attraction
http://www.wikidata.org/entity/Q1450669,https://de.wikipedia.org/wiki/Gr%C3%BCnes_Tor_(Danzig),https://en.wikipedia.org/wiki/Green_Gate,Point(18.65562983 54.347924839),3.004,54.347924839971,18.65562983022,13,http://www.wikidata.org/entity/Q2323517,Green Gate,water gate
http://www.wikidata.org/entity/Q1450669,https://de.wikipedia.org/wiki/Gr%C3%BCnes_Tor_(Danzig),https://en.wikipedia.org/wiki/Green_Gate,Point(18.65573 54.34794),3.008,54.347924839971,18.65562983022,13,http://www.wikidata.org/entity/Q2323517,Green Gate,water gate
http://www.wikidata.org/entity/Q1450669,https://de.wikipedia.org/wiki/Gr%C3%BCnes_Tor_(Danzig),https://en.wikipedia.org/wiki/Green_Gate,Point(18.65562983 54.347924839),3.004,54.34794,18.65573,13,http://www.wikidata.org/entity/Q2323517,Green Gate,water gate
http://www.wikidata.org/entity/Q1450669,https://de.wikipedia.org/wiki/Gr%C3%BCnes_Tor_(Danzig),https://en.wikipedia.org/wiki/Green_Gate,Point(18.65573 54.34794),3.008,54.34794,18.65573,13,http://www.wikidata.org/entity/Q2323517,Green Gate,water gate
http://www.wikidata.org/entity/Q988614,https://de.wikipedia.org/wiki/Rajkowy,https://en.wikipedia.org/wiki/Rajkowy,Point(18.70669 53.96176),44.963,53.96176,18.70669,13,http://www.wikidata.org/entity/Q3558970,Rajkowy,village of Poland
http://www.wikidata.org/entity/Q988614,https://de.wikipedia.org/wiki/Rajkowy,https://en.wikipedia.org/wiki/Rajkowy,Point(18.70972222 53.96416667),44.724,53.96176,18.70669,13,http://www.wikidata.org/entity/Q3558970,Rajkowy,village of Poland
http://www.wikidata.org/entity/Q988614,https://de.wikipedia.org/wiki/Rajkowy,https://en.wikipedia.org/wiki/Rajkowy,Point(18.70669 53.96176),44.963,53.96416667,18.70972222,13,http://www.wikidata.org/entity/Q3558970,Rajkowy,village of Poland
http://www.wikidata.org/entity/Q988614,https://de.wikipedia.org/wiki/Rajkowy,https://en.wikipedia.org/wiki/Rajkowy,Point(18.70972222 53.96416667),44.724,53.96416667,18.70972222,13,http://www.wikidata.org/entity/Q3558970,Rajkowy,village of Poland
http://www.wikidata.org/entity/Q1005873,https://de.wikipedia.org/wiki/Kolbudy,https://en.wikipedia.org/wiki/Kolbudy,Point(18.46667 54.26667),14.452,54.26989,18.46639,13,http://www.wikidata.org/entity/Q3558970,Kolbudy,village of Poland
http://www.wikidata.org/entity/Q1005873,https://de.wikipedia.org/wiki/Kolbudy,https://en.wikipedia.org/wiki/Kolbudy,Point(18.46639 54.26989),14.202,54.26989,18.46639,13,http://www.wikidata.org/entity/Q3558970,Kolbudy,village of Poland
http://www.wikidata.org/entity/Q1005873,https://de.wikipedia.org/wiki/Kolbudy,https://en.wikipedia.org/wiki/Kolbudy,Point(18.46667 54.26667),14.452,54.26667,18.46667,13,http://www.wikidata.org/entity/Q3558970,Kolbudy,village of Poland
http://www.wikidata.org/entity/Q1005873,https://de.wikipedia.org/wiki/Kolbudy,https://en.wikipedia.org/wiki/Kolbudy,Point(18.46639 54.26989),14.202,54.26667,18.46667,13,http://www.wikidata.org/entity/Q3558970,Kolbudy,village of Poland
http://www.wikidata.org/entity/Q253930,https://de.wikipedia.org/wiki/Krantor_(Danzig),,Point(18.65777778 54.35055556),2.977,54.35055556,18.65777778,13,http://www.wikidata.org/entity/Q178692,Żuraw in Gdańsk,crane
http://www.wikidata.org/entity/Q1752073,https://de.wikipedia.org/wiki/Truso,https://en.wikipedia.org/wiki/Truso,Point(19.263611111 54.266666666),43.288,54.2666666667,19.2636111111,13,http://www.wikidata.org/entity/Q74047,Truso,ghost town
http://www.wikidata.org/entity/Q1752073,https://de.wikipedia.org/wiki/Truso,https://en.wikipedia.org/wiki/Truso,Point(19.263611111 54.266666666),43.288,54.2666666667,19.2636111111,13,http://www.wikidata.org/entity/Q839954,Truso,archaeological site
http://www.wikidata.org/entity/Q1968661,https://de.wikipedia.org/wiki/Nationalmuseum_(Danzig),"https://en.wikipedia.org/wiki/National_Museum,_Gda%C5%84sk",Point(18.64691389 54.345425),2.737,54.345425,18.64691389,13,http://www.wikidata.org/entity/Q17431399,National Museum in Gdańsk,national museum
http://www.wikidata.org/entity/Q2071029,https://de.wikipedia.org/wiki/Flughafen_Gdynia-Kosakowo,https://en.wikipedia.org/wiki/Gdynia-Kosakowo_Airport,Point(18.51722222 54.57972222),24.974,54.57972222,18.51722222,13,http://www.wikidata.org/entity/Q1248784,Gdynia-Kosakowo Airport,airport
http://www.wikidata.org/entity/Q2134229,https://de.wikipedia.org/wiki/Tote_Weichsel,https://en.wikipedia.org/wiki/Martwa_Wis%C5%82a,Point(18.9234 54.3087),20.762,54.41,18.6608,13,http://www.wikidata.org/entity/Q4022,Martwa Wisła,river
http://www.wikidata.org/entity/Q2134229,https://de.wikipedia.org/wiki/Tote_Weichsel,https://en.wikipedia.org/wiki/Martwa_Wis%C5%82a,Point(18.6608 54.41),5.98,54.41,18.6608,13,http://www.wikidata.org/entity/Q4022,Martwa Wisła,river
http://www.wikidata.org/entity/Q2134229,https://de.wikipedia.org/wiki/Tote_Weichsel,https://en.wikipedia.org/wiki/Martwa_Wis%C5%82a,Point(18.6608 54.41),5.98,54.3087,18.9234,13,http://www.wikidata.org/entity/Q4022,Martwa Wisła,river
http://www.wikidata.org/entity/Q2134229,https://de.wikipedia.org/wiki/Tote_Weichsel,https://en.wikipedia.org/wiki/Martwa_Wis%C5%82a,Point(18.9234 54.3087),20.762,54.3087,18.9234,13,http://www.wikidata.org/entity/Q4022,Martwa Wisła,river
http://www.wikidata.org/entity/Q2521604,https://de.wikipedia.org/wiki/Mikoszewo,https://en.wikipedia.org/wiki/Mikoszewo,Point(18.95278 54.33389),22.007,54.33389,18.95278,13,http://www.wikidata.org/entity/Q3558970,Mikoszewo,village of Poland
http://www.wikidata.org/entity/Q2521604,https://de.wikipedia.org/wiki/Mikoszewo,https://en.wikipedia.org/wiki/Mikoszewo,Point(18.96679 54.33344),22.913,54.33389,18.95278,13,http://www.wikidata.org/entity/Q3558970,Mikoszewo,village of Poland
http://www.wikidata.org/entity/Q2521604,https://de.wikipedia.org/wiki/Mikoszewo,https://en.wikipedia.org/wiki/Mikoszewo,Point(18.95278 54.33389),22.007,54.33344,18.96679,13,http://www.wikidata.org/entity/Q3558970,Mikoszewo,village of Poland
http://www.wikidata.org/entity/Q2521604,https://de.wikipedia.org/wiki/Mikoszewo,https://en.wikipedia.org/wiki/Mikoszewo,Point(18.96679 54.33344),22.913,54.33344,18.96679,13,http://www.wikidata.org/entity/Q3558970,Mikoszewo,village of Poland
http://www.wikidata.org/entity/Q2561260,https://de.wikipedia.org/wiki/Lubiszewo_Tczewskie,https://en.wikipedia.org/wiki/Lubiszewo_Tczewskie,Point(18.70556 54.08944),30.927,54.08944,18.70556,13,http://www.wikidata.org/entity/Q3558970,Lubiszewo Tczewskie,village of Poland
http://www.wikidata.org/entity/Q2561260,https://de.wikipedia.org/wiki/Lubiszewo_Tczewskie,https://en.wikipedia.org/wiki/Lubiszewo_Tczewskie,Point(18.70646 54.0894),30.942,54.08944,18.70556,13,http://www.wikidata.org/entity/Q3558970,Lubiszewo Tczewskie,village of Poland
http://www.wikidata.org/entity/Q2561260,https://de.wikipedia.org/wiki/Lubiszewo_Tczewskie,https://en.wikipedia.org/wiki/Lubiszewo_Tczewskie,Point(18.70556 54.08944),30.927,54.0894,18.70646,13,http://www.wikidata.org/entity/Q3558970,Lubiszewo Tczewskie,village of Poland
http://www.wikidata.org/entity/Q2561260,https://de.wikipedia.org/wiki/Lubiszewo_Tczewskie,https://en.wikipedia.org/wiki/Lubiszewo_Tczewskie,Point(18.70646 54.0894),30.942,54.0894,18.70646,13,http://www.wikidata.org/entity/Q3558970,Lubiszewo Tczewskie,village of Poland
http://www.wikidata.org/entity/Q2008029,https://de.wikipedia.org/wiki/Wicher_(Schiff),https://en.wikipedia.org/wiki/ORP_Wicher_(1928),Point(18.53333333 54.66666667),34.224,54.66666667,18.53333333,13,http://www.wikidata.org/entity/Q174736,ORP Wicher,destroyer
http://www.wikidata.org/entity/Q4976781,https://de.wikipedia.org/wiki/Szymbark_(St%C4%99%C5%BCyca),"https://en.wikipedia.org/wiki/Szymbark,_Pomeranian_Voivodeship",Point(18.10162 54.21886),37.064,54.218888888889,18.102222222222,13,http://www.wikidata.org/entity/Q3558970,"Szymbark, Pomeranian Voivodeship",village of Poland
http://www.wikidata.org/entity/Q4976781,https://de.wikipedia.org/wiki/Szymbark_(St%C4%99%C5%BCyca),"https://en.wikipedia.org/wiki/Szymbark,_Pomeranian_Voivodeship",Point(18.102222222 54.218888888),37.028,54.218888888889,18.102222222222,13,http://www.wikidata.org/entity/Q3558970,"Szymbark, Pomeranian Voivodeship",village of Poland
http://www.wikidata.org/entity/Q4976781,https://de.wikipedia.org/wiki/Szymbark_(St%C4%99%C5%BCyca),"https://en.wikipedia.org/wiki/Szymbark,_Pomeranian_Voivodeship",Point(18.10162 54.21886),37.064,54.21886,18.10162,13,http://www.wikidata.org/entity/Q3558970,"Szymbark, Pomeranian Voivodeship",village of Poland
http://www.wikidata.org/entity/Q4976781,https://de.wikipedia.org/wiki/Szymbark_(St%C4%99%C5%BCyca),"https://en.wikipedia.org/wiki/Szymbark,_Pomeranian_Voivodeship",Point(18.102222222 54.218888888),37.028,54.21886,18.10162,13,http://www.wikidata.org/entity/Q3558970,"Szymbark, Pomeranian Voivodeship",village of Poland
http://www.wikidata.org/entity/Q60614851,https://de.wikipedia.org/wiki/Attentat_auf_Pawe%C5%82_Adamowicz,https://en.wikipedia.org/wiki/Assassination_of_Pawe%C5%82_Adamowicz,Point(18.647222222 54.349166666),2.479,54.349166666667,18.647222222222,13,http://www.wikidata.org/entity/Q132821,assassination of Paweł Adamowicz,murder
http://www.wikidata.org/entity/Q60614851,https://de.wikipedia.org/wiki/Attentat_auf_Pawe%C5%82_Adamowicz,https://en.wikipedia.org/wiki/Assassination_of_Pawe%C5%82_Adamowicz,Point(18.647222222 54.349166666),2.479,54.349166666667,18.647222222222,13,http://www.wikidata.org/entity/Q3882219,assassination of Paweł Adamowicz,assassination
http://www.wikidata.org/entity/Q130331,,"https://en.wikipedia.org/wiki/Dzier%C5%BC%C4%85%C5%BCno,_Kartuzy_County",Point(18.269722222 54.316111111),23.089,54.316111111111,18.269722222222,13,http://www.wikidata.org/entity/Q3558970,Dzierżążno,village of Poland
http://www.wikidata.org/entity/Q679431,,https://en.wikipedia.org/wiki/Somonino,Point(18.19888889 54.27666667),28.743,54.27666667,18.19888889,13,http://www.wikidata.org/entity/Q3558970,Somonino,village of Poland
http://www.wikidata.org/entity/Q729313,,https://en.wikipedia.org/wiki/Dar%C5%BClubie,Point(18.32306 54.70333),42.351,54.70333,18.32306,13,http://www.wikidata.org/entity/Q3558970,Darżlubie,village of Poland
http://www.wikidata.org/entity/Q739748,,"https://en.wikipedia.org/wiki/Kaplica,_Pomeranian_Voivodeship",Point(18.17917 54.21222),32.967,54.21222,18.17917,13,http://www.wikidata.org/entity/Q3558970,Kaplica,village of Poland
http://www.wikidata.org/entity/Q1003527,,https://en.wikipedia.org/wiki/Subkowy,Point(18.76944444 54.00166667),41.354,54.00166667,18.76944444,13,http://www.wikidata.org/entity/Q3558970,Subkowy,village of Poland
http://www.wikidata.org/entity/Q1003527,,https://en.wikipedia.org/wiki/Subkowy,Point(18.76928 54.00227),41.286,54.00166667,18.76944444,13,http://www.wikidata.org/entity/Q3558970,Subkowy,village of Poland
http://www.wikidata.org/entity/Q1003527,,https://en.wikipedia.org/wiki/Subkowy,Point(18.76944444 54.00166667),41.354,54.00227,18.76928,13,http://www.wikidata.org/entity/Q3558970,Subkowy,village of Poland
http://www.wikidata.org/entity/Q1003527,,https://en.wikipedia.org/wiki/Subkowy,Point(18.76928 54.00227),41.286,54.00227,18.76928,13,http://www.wikidata.org/entity/Q3558970,Subkowy,village of Poland
http://www.wikidata.org/entity/Q1021240,,https://en.wikipedia.org/wiki/Przodkowo,Point(18.2875 54.37972222),21.415,54.37991,18.2876,13,http://www.wikidata.org/entity/Q3558970,Przodkowo,village of Poland
http://www.wikidata.org/entity/Q1021240,,https://en.wikipedia.org/wiki/Przodkowo,Point(18.2876 54.37991),21.41,54.37991,18.2876,13,http://www.wikidata.org/entity/Q3558970,Przodkowo,village of Poland
http://www.wikidata.org/entity/Q1021240,,https://en.wikipedia.org/wiki/Przodkowo,Point(18.2875 54.37972222),21.415,54.37972222,18.2875,13,http://www.wikidata.org/entity/Q3558970,Przodkowo,village of Poland
http://www.wikidata.org/entity/Q1021240,,https://en.wikipedia.org/wiki/Przodkowo,Point(18.2876 54.37991),21.41,54.37972222,18.2875,13,http://www.wikidata.org/entity/Q3558970,Przodkowo,village of Poland
http://www.wikidata.org/entity/Q1952177,,https://en.wikipedia.org/wiki/Grabowo_Ko%C5%9Bcierskie,Point(18.14692 54.16816),37.404,54.16833,18.1475,13,http://www.wikidata.org/entity/Q3558970,Grabowo Kościerskie,village of Poland
http://www.wikidata.org/entity/Q1952177,,https://en.wikipedia.org/wiki/Grabowo_Ko%C5%9Bcierskie,Point(18.1475 54.16833),37.362,54.16833,18.1475,13,http://www.wikidata.org/entity/Q3558970,Grabowo Kościerskie,village of Poland
http://www.wikidata.org/entity/Q1952177,,https://en.wikipedia.org/wiki/Grabowo_Ko%C5%9Bcierskie,Point(18.14692 54.16816),37.404,54.16816,18.14692,13,http://www.wikidata.org/entity/Q3558970,Grabowo Kościerskie,village of Poland
http://www.wikidata.org/entity/Q1952177,,https://en.wikipedia.org/wiki/Grabowo_Ko%C5%9Bcierskie,Point(18.1475 54.16833),37.362,54.16816,18.14692,13,http://www.wikidata.org/entity/Q3558970,Grabowo Kościerskie,village of Poland
http://www.wikidata.org/entity/Q1982814,,https://en.wikipedia.org/wiki/Kobysewo,Point(18.26333 54.35611),22.915,54.35812,18.26745,13,http://www.wikidata.org/entity/Q3558970,Kobysewo,village of Poland
http://www.wikidata.org/entity/Q1982814,,https://en.wikipedia.org/wiki/Kobysewo,Point(18.26745 54.35812),22.641,54.35812,18.26745,13,http://www.wikidata.org/entity/Q3558970,Kobysewo,village of Poland
http://www.wikidata.org/entity/Q1982814,,https://en.wikipedia.org/wiki/Kobysewo,Point(18.26333 54.35611),22.915,54.35611,18.26333,13,http://www.wikidata.org/entity/Q3558970,Kobysewo,village of Poland
http://www.wikidata.org/entity/Q1982814,,https://en.wikipedia.org/wiki/Kobysewo,Point(18.26745 54.35812),22.641,54.35611,18.26333,13,http://www.wikidata.org/entity/Q3558970,Kobysewo,village of Poland
http://www.wikidata.org/entity/Q2181051,,https://en.wikipedia.org/wiki/Brze%C5%BAno_Wielkie,Point(18.64777778 53.98944444),41.551,53.98944444,18.64777778,13,http://www.wikidata.org/entity/Q3558970,Brzeźno Wielkie,village of Poland
http://www.wikidata.org/entity/Q2181051,,https://en.wikipedia.org/wiki/Brze%C5%BAno_Wielkie,Point(18.64716 53.99029),41.456,53.98944444,18.64777778,13,http://www.wikidata.org/entity/Q3558970,Brzeźno Wielkie,village of Poland
http://www.wikidata.org/entity/Q2181051,,https://en.wikipedia.org/wiki/Brze%C5%BAno_Wielkie,Point(18.64777778 53.98944444),41.551,53.99029,18.64716,13,http://www.wikidata.org/entity/Q3558970,Brzeźno Wielkie,village of Poland
http://www.wikidata.org/entity/Q2181051,,https://en.wikipedia.org/wiki/Brze%C5%BAno_Wielkie,Point(18.64716 53.99029),41.456,53.99029,18.64716,13,http://www.wikidata.org/entity/Q3558970,Brzeźno Wielkie,village of Poland
http://www.wikidata.org/entity/Q2215567,,"https://en.wikipedia.org/wiki/Garczyn,_Gmina_Liniewo",Point(18.24028 54.04139),43.315,54.042222222222,18.239166666667,13,http://www.wikidata.org/entity/Q3558970,"Garczyn, Gmina Liniewo",village of Poland
http://www.wikidata.org/entity/Q2215567,,"https://en.wikipedia.org/wiki/Garczyn,_Gmina_Liniewo",Point(18.239166666 54.042222222),43.279,54.042222222222,18.239166666667,13,http://www.wikidata.org/entity/Q3558970,"Garczyn, Gmina Liniewo",village of Poland
http://www.wikidata.org/entity/Q2215567,,"https://en.wikipedia.org/wiki/Garczyn,_Gmina_Liniewo",Point(18.24028 54.04139),43.315,54.04139,18.24028,13,http://www.wikidata.org/entity/Q3558970,"Garczyn, Gmina Liniewo",village of Poland
http://www.wikidata.org/entity/Q2215567,,"https://en.wikipedia.org/wiki/Garczyn,_Gmina_Liniewo",Point(18.239166666 54.042222222),43.279,54.04139,18.24028,13,http://www.wikidata.org/entity/Q3558970,"Garczyn, Gmina Liniewo",village of Poland
http://www.wikidata.org/entity/Q2270731,,https://en.wikipedia.org/wiki/Cieszenie,Point(18.05722 54.3425),36.332,54.3425,18.05722,13,http://www.wikidata.org/entity/Q3558970,Cieszenie,village of Poland
http://www.wikidata.org/entity/Q2270731,,https://en.wikipedia.org/wiki/Cieszenie,Point(18.05715 54.34261),36.336,54.3425,18.05722,13,http://www.wikidata.org/entity/Q3558970,Cieszenie,village of Poland
http://www.wikidata.org/entity/Q2270731,,https://en.wikipedia.org/wiki/Cieszenie,Point(18.05722 54.3425),36.332,54.34261,18.05715,13,http://www.wikidata.org/entity/Q3558970,Cieszenie,village of Poland
http://www.wikidata.org/entity/Q2270731,,https://en.wikipedia.org/wiki/Cieszenie,Point(18.05715 54.34261),36.336,54.34261,18.05715,13,http://www.wikidata.org/entity/Q3558970,Cieszenie,village of Poland
http://www.wikidata.org/entity/Q2512522,,https://en.wikipedia.org/wiki/Kaliska_Ko%C5%9Bcierskie,Point(18.04111 54.16472),43.387,54.16472,18.04111,13,http://www.wikidata.org/entity/Q3558970,Kaliska Kościerskie,village of Poland
http://www.wikidata.org/entity/Q2546027,,https://en.wikipedia.org/wiki/Jankowo_Gda%C5%84skie,Point(18.5525 54.29556),8.552,54.29556,18.5525,13,http://www.wikidata.org/entity/Q3558970,Jankowo Gdańskie,village of Poland
http://www.wikidata.org/entity/Q2546027,,https://en.wikipedia.org/wiki/Jankowo_Gda%C5%84skie,Point(18.56106 54.29429),8.423,54.29556,18.5525,13,http://www.wikidata.org/entity/Q3558970,Jankowo Gdańskie,village of Poland
http://www.wikidata.org/entity/Q2546027,,https://en.wikipedia.org/wiki/Jankowo_Gda%C5%84skie,Point(18.5525 54.29556),8.552,54.29429,18.56106,13,http://www.wikidata.org/entity/Q3558970,Jankowo Gdańskie,village of Poland
http://www.wikidata.org/entity/Q2546027,,https://en.wikipedia.org/wiki/Jankowo_Gda%C5%84skie,Point(18.56106 54.29429),8.423,54.29429,18.56106,13,http://www.wikidata.org/entity/Q3558970,Jankowo Gdańskie,village of Poland
http://www.wikidata.org/entity/Q2703597,,https://en.wikipedia.org/wiki/Borzestowo,Point(17.99736 54.30521),40.666,54.30472222,17.99777778,13,http://www.wikidata.org/entity/Q3558970,Borzestowo,village of Poland
http://www.wikidata.org/entity/Q2703597,,https://en.wikipedia.org/wiki/Borzestowo,Point(17.99777778 54.30472222),40.648,54.30472222,17.99777778,13,http://www.wikidata.org/entity/Q3558970,Borzestowo,village of Poland
http://www.wikidata.org/entity/Q2703597,,https://en.wikipedia.org/wiki/Borzestowo,Point(17.99736 54.30521),40.666,54.30521,17.99736,13,http://www.wikidata.org/entity/Q3558970,Borzestowo,village of Poland
http://www.wikidata.org/entity/Q2703597,,https://en.wikipedia.org/wiki/Borzestowo,Point(17.99777778 54.30472222),40.648,54.30521,17.99736,13,http://www.wikidata.org/entity/Q3558970,Borzestowo,village of Poland
http://www.wikidata.org/entity/Q5001137,,https://en.wikipedia.org/wiki/Hopy,Point(18.22528 54.39722),25.644,54.39724,18.2258,13,http://www.wikidata.org/entity/Q3558970,Hopy,village of Poland
http://www.wikidata.org/entity/Q5001137,,https://en.wikipedia.org/wiki/Hopy,Point(18.2258 54.39724),25.611,54.39724,18.2258,13,http://www.wikidata.org/entity/Q3558970,Hopy,village of Poland
http://www.wikidata.org/entity/Q5001137,,https://en.wikipedia.org/wiki/Hopy,Point(18.22528 54.39722),25.644,54.39722,18.22528,13,http://www.wikidata.org/entity/Q3558970,Hopy,village of Poland
http://www.wikidata.org/entity/Q5001137,,https://en.wikipedia.org/wiki/Hopy,Point(18.2258 54.39724),25.611,54.39722,18.22528,13,http://www.wikidata.org/entity/Q3558970,Hopy,village of Poland
http://www.wikidata.org/entity/Q254856,https://de.wikipedia.org/wiki/Pszcz%C3%B3%C5%82ki,"https://en.wikipedia.org/wiki/Pszcz%C3%B3%C5%82ki,_Pomeranian_Voivodeship",Point(18.69805556 54.1725),21.797,54.1725,18.69805556,12,http://www.wikidata.org/entity/Q3558970,"Pszczółki, Pomeranian Voivodeship",village of Poland
http://www.wikidata.org/entity/Q1408190,https://de.wikipedia.org/wiki/Wierzyca,https://en.wikipedia.org/wiki/Wierzyca,Point(18.1523 54.1915),35.662,53.832583,18.836411,12,http://www.wikidata.org/entity/Q4022,Wierzyca,river
http://www.wikidata.org/entity/Q1408190,https://de.wikipedia.org/wiki/Wierzyca,https://en.wikipedia.org/wiki/Wierzyca,Point(18.1523 54.1915),35.662,53.8327,18.8365,12,http://www.wikidata.org/entity/Q4022,Wierzyca,river
http://www.wikidata.org/entity/Q1408190,https://de.wikipedia.org/wiki/Wierzyca,https://en.wikipedia.org/wiki/Wierzyca,Point(18.1523 54.1915),35.662,54.060555555556,18.030555555556,12,http://www.wikidata.org/entity/Q4022,Wierzyca,river
http://www.wikidata.org/entity/Q1408190,https://de.wikipedia.org/wiki/Wierzyca,https://en.wikipedia.org/wiki/Wierzyca,Point(18.1523 54.1915),35.662,54.1915,18.1523,12,http://www.wikidata.org/entity/Q4022,Wierzyca,river
http://www.wikidata.org/entity/Q1409002,https://de.wikipedia.org/wiki/Festung_Weichselm%C3%BCnde,https://en.wikipedia.org/wiki/Wis%C5%82ouj%C5%9Bcie_Fortress,Point(18.679138888 54.395861111),5.466,54.395861111111,18.679138888889,12,http://www.wikidata.org/entity/Q39715,Wisłoujście Fortress,lighthouse
http://www.wikidata.org/entity/Q1409002,https://de.wikipedia.org/wiki/Festung_Weichselm%C3%BCnde,https://en.wikipedia.org/wiki/Wis%C5%82ouj%C5%9Bcie_Fortress,Point(18.679138888 54.395861111),5.466,54.394763888889,18.680855555556,12,http://www.wikidata.org/entity/Q39715,Wisłoujście Fortress,lighthouse
http://www.wikidata.org/entity/Q1409002,https://de.wikipedia.org/wiki/Festung_Weichselm%C3%BCnde,https://en.wikipedia.org/wiki/Wis%C5%82ouj%C5%9Bcie_Fortress,Point(18.679138888 54.395861111),5.466,54.395861111111,18.679138888889,12,http://www.wikidata.org/entity/Q57831,Wisłoujście Fortress,fortress
http://www.wikidata.org/entity/Q1409002,https://de.wikipedia.org/wiki/Festung_Weichselm%C3%BCnde,https://en.wikipedia.org/wiki/Wis%C5%82ouj%C5%9Bcie_Fortress,Point(18.679138888 54.395861111),5.466,54.394763888889,18.680855555556,12,http://www.wikidata.org/entity/Q57831,Wisłoujście Fortress,fortress
http://www.wikidata.org/entity/Q983944,https://de.wikipedia.org/wiki/Ostaszewo,"https://en.wikipedia.org/wiki/Ostaszewo,_Pomeranian_Voivodeship",Point(18.950277777 54.213333333),27.28,54.213333333333,18.950277777778,12,http://www.wikidata.org/entity/Q3558970,Ostaszewo,village of Poland
http://www.wikidata.org/entity/Q984124,https://de.wikipedia.org/wiki/Suchy_D%C4%85b,https://en.wikipedia.org/wiki/Suchy_D%C4%85b,Point(18.76667 54.2),20.54,54.20809,18.76731,12,http://www.wikidata.org/entity/Q3558970,Suchy Dąb,village of Poland
http://www.wikidata.org/entity/Q984124,https://de.wikipedia.org/wiki/Suchy_D%C4%85b,https://en.wikipedia.org/wiki/Suchy_D%C4%85b,Point(18.76731 54.20809),19.772,54.20809,18.76731,12,http://www.wikidata.org/entity/Q3558970,Suchy Dąb,village of Poland
http://www.wikidata.org/entity/Q984124,https://de.wikipedia.org/wiki/Suchy_D%C4%85b,https://en.wikipedia.org/wiki/Suchy_D%C4%85b,Point(18.76667 54.2),20.54,54.2,18.76667,12,http://www.wikidata.org/entity/Q3558970,Suchy Dąb,village of Poland
http://www.wikidata.org/entity/Q984124,https://de.wikipedia.org/wiki/Suchy_D%C4%85b,https://en.wikipedia.org/wiki/Suchy_D%C4%85b,Point(18.76731 54.20809),19.772,54.2,18.76667,12,http://www.wikidata.org/entity/Q3558970,Suchy Dąb,village of Poland
http://www.wikidata.org/entity/Q139080,https://de.wikipedia.org/wiki/Tr%C4%85bki_Wielkie,https://en.wikipedia.org/wiki/Tr%C4%85bki_Wielkie,Point(18.54003 54.17062),21.932,54.17062,18.54003,12,http://www.wikidata.org/entity/Q3558970,Trąbki Wielkie,village of Poland
http://www.wikidata.org/entity/Q1003290,https://de.wikipedia.org/wiki/Lichnowy,"https://en.wikipedia.org/wiki/Lichnowy,_Malbork_County",Point(18.91305556 54.11472222),33.627,54.11472222,18.91305556,12,http://www.wikidata.org/entity/Q486972,Lichnowy,human settlement
http://www.wikidata.org/entity/Q1003290,https://de.wikipedia.org/wiki/Lichnowy,"https://en.wikipedia.org/wiki/Lichnowy,_Malbork_County",Point(18.91399 54.11522),33.617,54.11472222,18.91305556,12,http://www.wikidata.org/entity/Q486972,Lichnowy,human settlement
http://www.wikidata.org/entity/Q1003290,https://de.wikipedia.org/wiki/Lichnowy,"https://en.wikipedia.org/wiki/Lichnowy,_Malbork_County",Point(18.91305556 54.11472222),33.627,54.11522,18.91399,12,http://www.wikidata.org/entity/Q486972,Lichnowy,human settlement
http://www.wikidata.org/entity/Q1003290,https://de.wikipedia.org/wiki/Lichnowy,"https://en.wikipedia.org/wiki/Lichnowy,_Malbork_County",Point(18.91399 54.11522),33.617,54.11522,18.91399,12,http://www.wikidata.org/entity/Q486972,Lichnowy,human settlement
http://www.wikidata.org/entity/Q1003290,https://de.wikipedia.org/wiki/Lichnowy,"https://en.wikipedia.org/wiki/Lichnowy,_Malbork_County",Point(18.91305556 54.11472222),33.627,54.11472222,18.91305556,12,http://www.wikidata.org/entity/Q3558970,Lichnowy,village of Poland
http://www.wikidata.org/entity/Q1003290,https://de.wikipedia.org/wiki/Lichnowy,"https://en.wikipedia.org/wiki/Lichnowy,_Malbork_County",Point(18.91399 54.11522),33.617,54.11472222,18.91305556,12,http://www.wikidata.org/entity/Q3558970,Lichnowy,village of Poland
http://www.wikidata.org/entity/Q1003290,https://de.wikipedia.org/wiki/Lichnowy,"https://en.wikipedia.org/wiki/Lichnowy,_Malbork_County",Point(18.91305556 54.11472222),33.627,54.11522,18.91399,12,http://www.wikidata.org/entity/Q3558970,Lichnowy,village of Poland
http://www.wikidata.org/entity/Q1003290,https://de.wikipedia.org/wiki/Lichnowy,"https://en.wikipedia.org/wiki/Lichnowy,_Malbork_County",Point(18.91399 54.11522),33.617,54.11522,18.91399,12,http://www.wikidata.org/entity/Q3558970,Lichnowy,village of Poland
http://www.wikidata.org/entity/Q1003520,https://de.wikipedia.org/wiki/Mi%C5%82oradz,https://en.wikipedia.org/wiki/Mi%C5%82oradz,Point(18.91667 54.0),44.801,54.0,18.91667,12,http://www.wikidata.org/entity/Q3558970,Miłoradz,village of Poland
http://www.wikidata.org/entity/Q1003520,https://de.wikipedia.org/wiki/Mi%C5%82oradz,https://en.wikipedia.org/wiki/Mi%C5%82oradz,Point(18.91846 54.01392),43.464,54.0,18.91667,12,http://www.wikidata.org/entity/Q3558970,Miłoradz,village of Poland
http://www.wikidata.org/entity/Q1003520,https://de.wikipedia.org/wiki/Mi%C5%82oradz,https://en.wikipedia.org/wiki/Mi%C5%82oradz,Point(18.91667 54.0),44.801,54.01392,18.91846,12,http://www.wikidata.org/entity/Q3558970,Miłoradz,village of Poland
http://www.wikidata.org/entity/Q1003520,https://de.wikipedia.org/wiki/Mi%C5%82oradz,https://en.wikipedia.org/wiki/Mi%C5%82oradz,Point(18.91846 54.01392),43.464,54.01392,18.91846,12,http://www.wikidata.org/entity/Q3558970,Miłoradz,village of Poland
http://www.wikidata.org/entity/Q1003733,https://de.wikipedia.org/wiki/Cedry_Wielkie,https://en.wikipedia.org/wiki/Cedry_Wielkie,Point(18.83333 54.23333),20.107,54.23333,18.83333,12,http://www.wikidata.org/entity/Q3558970,Cedry Wielkie,village of Poland
http://www.wikidata.org/entity/Q1003733,https://de.wikipedia.org/wiki/Cedry_Wielkie,https://en.wikipedia.org/wiki/Cedry_Wielkie,Point(18.84567 54.24707),19.64,54.23333,18.83333,12,http://www.wikidata.org/entity/Q3558970,Cedry Wielkie,village of Poland
http://www.wikidata.org/entity/Q1003733,https://de.wikipedia.org/wiki/Cedry_Wielkie,https://en.wikipedia.org/wiki/Cedry_Wielkie,Point(18.83333 54.23333),20.107,54.24707,18.84567,12,http://www.wikidata.org/entity/Q3558970,Cedry Wielkie,village of Poland
http://www.wikidata.org/entity/Q1003733,https://de.wikipedia.org/wiki/Cedry_Wielkie,https://en.wikipedia.org/wiki/Cedry_Wielkie,Point(18.84567 54.24707),19.64,54.24707,18.84567,12,http://www.wikidata.org/entity/Q3558970,Cedry Wielkie,village of Poland
http://www.wikidata.org/entity/Q1021058,https://de.wikipedia.org/wiki/Przywidz,"https://en.wikipedia.org/wiki/Przywidz,_Pomeranian_Voivodeship",Point(18.32638889 54.19777778),26.301,54.19777778,18.32638889,12,http://www.wikidata.org/entity/Q3558970,Przywidz,village of Poland
http://www.wikidata.org/entity/Q479323,https://de.wikipedia.org/wiki/Katharinenkirche_(Danzig),"https://en.wikipedia.org/wiki/St._Catherine%27s_Church,_Gda%C5%84sk",Point(18.65145278 54.35411389),2.438,54.35411389,18.65145278,12,http://www.wikidata.org/entity/Q1088552,St Catherine's Church,Catholic church building
http://www.wikidata.org/entity/Q479323,https://de.wikipedia.org/wiki/Katharinenkirche_(Danzig),"https://en.wikipedia.org/wiki/St._Catherine%27s_Church,_Gda%C5%84sk",Point(18.65145278 54.35411389),2.438,54.35411389,18.65145278,12,http://www.wikidata.org/entity/Q16970,St Catherine's Church,church building
http://www.wikidata.org/entity/Q2232688,https://de.wikipedia.org/wiki/Lewino,https://en.wikipedia.org/wiki/Lewino,Point(18.09194 54.44806),35.27,54.44806,18.09194,12,http://www.wikidata.org/entity/Q486972,Lewino,human settlement
http://www.wikidata.org/entity/Q2232688,https://de.wikipedia.org/wiki/Lewino,https://en.wikipedia.org/wiki/Lewino,Point(18.09209 54.44914),35.293,54.44806,18.09194,12,http://www.wikidata.org/entity/Q486972,Lewino,human settlement
http://www.wikidata.org/entity/Q2232688,https://de.wikipedia.org/wiki/Lewino,https://en.wikipedia.org/wiki/Lewino,Point(18.09194 54.44806),35.27,54.44914,18.09209,12,http://www.wikidata.org/entity/Q486972,Lewino,human settlement
http://www.wikidata.org/entity/Q2232688,https://de.wikipedia.org/wiki/Lewino,https://en.wikipedia.org/wiki/Lewino,Point(18.09209 54.44914),35.293,54.44914,18.09209,12,http://www.wikidata.org/entity/Q486972,Lewino,human settlement
http://www.wikidata.org/entity/Q2232688,https://de.wikipedia.org/wiki/Lewino,https://en.wikipedia.org/wiki/Lewino,Point(18.09194 54.44806),35.27,54.44806,18.09194,12,http://www.wikidata.org/entity/Q3558970,Lewino,village of Poland
http://www.wikidata.org/entity/Q2232688,https://de.wikipedia.org/wiki/Lewino,https://en.wikipedia.org/wiki/Lewino,Point(18.09209 54.44914),35.293,54.44806,18.09194,12,http://www.wikidata.org/entity/Q3558970,Lewino,village of Poland
http://www.wikidata.org/entity/Q2232688,https://de.wikipedia.org/wiki/Lewino,https://en.wikipedia.org/wiki/Lewino,Point(18.09194 54.44806),35.27,54.44914,18.09209,12,http://www.wikidata.org/entity/Q3558970,Lewino,village of Poland
http://www.wikidata.org/entity/Q2232688,https://de.wikipedia.org/wiki/Lewino,https://en.wikipedia.org/wiki/Lewino,Point(18.09209 54.44914),35.293,54.44914,18.09209,12,http://www.wikidata.org/entity/Q3558970,Lewino,village of Poland
http://www.wikidata.org/entity/Q541765,https://de.wikipedia.org/wiki/Wrzeszcz,https://en.wikipedia.org/wiki/Wrzeszcz,Point(18.616666666 54.383333333),2.294,54.383333333333,18.616666666667,12,http://www.wikidata.org/entity/Q2983893,Wrzeszcz,quarter
http://www.wikidata.org/entity/Q2571791,https://de.wikipedia.org/wiki/D%C4%99bog%C3%B3rze,https://en.wikipedia.org/wiki/D%C4%99bog%C3%B3rze,Point(18.46166667 54.59138889),27.332,54.59138889,18.46166667,12,http://www.wikidata.org/entity/Q3558970,Dębogórze,village of Poland
http://www.wikidata.org/entity/Q953686,https://de.wikipedia.org/wiki/M%C4%85towy_Ma%C5%82e,https://en.wikipedia.org/wiki/M%C4%85towy_Ma%C5%82e,Point(18.8675 53.99805556),43.703,53.99823,18.8684,12,http://www.wikidata.org/entity/Q3558970,Mątowy Małe,village of Poland
http://www.wikidata.org/entity/Q953686,https://de.wikipedia.org/wiki/M%C4%85towy_Ma%C5%82e,https://en.wikipedia.org/wiki/M%C4%85towy_Ma%C5%82e,Point(18.8684 53.99823),43.707,53.99823,18.8684,12,http://www.wikidata.org/entity/Q3558970,Mątowy Małe,village of Poland
http://www.wikidata.org/entity/Q953686,https://de.wikipedia.org/wiki/M%C4%85towy_Ma%C5%82e,https://en.wikipedia.org/wiki/M%C4%85towy_Ma%C5%82e,Point(18.8675 53.99805556),43.703,53.99805556,18.8675,12,http://www.wikidata.org/entity/Q3558970,Mątowy Małe,village of Poland
http://www.wikidata.org/entity/Q953686,https://de.wikipedia.org/wiki/M%C4%85towy_Ma%C5%82e,https://en.wikipedia.org/wiki/M%C4%85towy_Ma%C5%82e,Point(18.8684 53.99823),43.707,53.99805556,18.8675,12,http://www.wikidata.org/entity/Q3558970,Mątowy Małe,village of Poland
http://www.wikidata.org/entity/Q2018938,https://de.wikipedia.org/wiki/Juszkowo,https://en.wikipedia.org/wiki/Juszkowo,Point(18.6075 54.25556),11.929,54.25556,18.6075,12,http://www.wikidata.org/entity/Q3558970,Juszkowo,village of Poland
