item,itemLabel,lat,lon,location,distance,sitelinks,thingLabel
http://www.wikidata.org/entity/Q84999029,Rajajinagar First Grade College,12.9846655,77.5537526,Point(77.5537526 12.9846655),0.204,0,college
http://www.wikidata.org/entity/Q111063070,OYO 26900 Royal Inn,12.985332,77.553246,Point(77.553246 12.985332),0.251,0,hotel
http://www.wikidata.org/entity/Q111063315,OYO 3664 Hotel Shivaal's Residency,12.985794,77.552328,Point(77.552328 12.985794),0.299,0,hotel
http://www.wikidata.org/entity/Q6975125,"National Public School, Rajajinagar",12.98416111,77.54953889,Point(77.54953889 12.98416111),0.364,1,school
http://www.wikidata.org/entity/Q111063487,OYO 12802 KES Country Classic,12.9874133,77.5527133,Point(77.5527133 12.9874133),0.476,0,hotel
http://www.wikidata.org/entity/Q59536858,Karnataka Health Promotion Trust,12.978303,77.550805,Point(77.550805 12.978303),0.576,0,organization
http://www.wikidata.org/entity/Q111416007,Fairfield by Marriott Bengaluru Rajajinagar,12.98269,77.559,Point(77.559 12.98269),0.681,0,hotel
http://www.wikidata.org/entity/Q84999096,SJR Women College,12.9823165,77.559216,Point(77.559216 12.9823165),0.709,0,college
http://www.wikidata.org/entity/Q111063178,OYO 13594 Mathrushree Residency,12.9899115,77.5533384,Point(77.5533384 12.9899115),0.757,0,hotel
http://www.wikidata.org/entity/Q111063798,SPOT ON 49367 R K Residency,12.982367543577,77.559971250594,Point(77.55997125 12.982367543),0.789,0,hotel
http://www.wikidata.org/entity/Q111063098,SPOT ON 83080 Hotel Aryan Residency,12.990234865317,77.552369702607,Point(77.552369702 12.990234865),0.791,0,hotel
http://www.wikidata.org/entity/Q111063734,OYO 765 Hotel Sunil Residency,12.9886292,77.5477809,Point(77.5477809 12.9886292),0.813,0,hotel
http://www.wikidata.org/entity/Q111063204,Capital O 46423 Clove Boutique Hotel Rajaji Nagar,12.985,77.56,Point(77.56 12.985),0.815,0,hotel
http://www.wikidata.org/entity/Q85094310,Sheshadripuram Commerce College,12.9756072,77.5547351,Point(77.5547351 12.9756072),0.864,0,college
http://www.wikidata.org/entity/Q23838569,Magadi Road metro station,12.9756582,77.5554118,Point(77.5554118 12.9756582),0.88,1,metro station
http://www.wikidata.org/entity/Q23838569,Magadi Road metro station,12.9756582,77.5554118,Point(77.5554118 12.9756582),0.88,1,elevated station
http://www.wikidata.org/entity/Q85093593,ASC Degree College,12.9769621,77.5473115,Point(77.5473115 12.9769621),0.903,0,college
http://www.wikidata.org/entity/Q111063068,Townhouse Oak Abhimaani Vasathi,12.9870673,77.5600319,Point(77.5600319 12.9870673),0.904,0,hotel
http://www.wikidata.org/entity/Q84014269,P R College of Nursing,12.975777,77.5580856,Point(77.5580856 12.975777),1.003,0,college
http://www.wikidata.org/entity/Q52856516,ESI - Post Graduate Institute of Medical Science and Research,12.992363,77.553314,Point(77.553314 12.992363),1.029,0,medical organization
http://www.wikidata.org/entity/Q48726298,"Government First Grade College, Rajajinagar",12.9925127,77.5531742,Point(77.5531742 12.9925127),1.044,0,academic institution
http://www.wikidata.org/entity/Q85094662,Universal College of Computer Application,12.9763734,77.5452214,Point(77.5452214 12.9763734),1.107,0,college
http://www.wikidata.org/entity/Q55435075,Rajaji Nagar Vidhan Sabha constituency,12.993,77.555,Point(77.555 12.993),1.125,4,constituency of the Karnataka Legislative Assembly
http://www.wikidata.org/entity/Q111063144,CAPITAL O 23461 Champion Lotus,12.975989,77.545298,Point(77.545298 12.975989),1.131,0,hotel
http://www.wikidata.org/entity/Q23838583,Hosahalli metro station,12.974303,77.5454434,Point(77.5454434 12.974303),1.26,2,metro station
http://www.wikidata.org/entity/Q23838583,Hosahalli metro station,12.974303,77.5454434,Point(77.5454434 12.974303),1.26,2,elevated station
http://www.wikidata.org/entity/Q83512829,"Basaveshwara College of Commerce, Arts and Science",12.9944175,77.550787,Point(77.550787 12.9944175),1.273,0,college
http://www.wikidata.org/entity/Q85093947,IIFT College of Fashion,12.9760552,77.5432614,Point(77.5432614 12.9760552),1.293,0,college
http://www.wikidata.org/entity/Q111063777,Capital O 6593 West Fort Hotel,12.978741,77.564278,Point(77.56418 12.97911),1.319,0,hotel
http://www.wikidata.org/entity/Q111063777,Capital O 6593 West Fort Hotel,12.97911,77.56418,Point(77.56418 12.97911),1.319,0,hotel
http://www.wikidata.org/entity/Q111063777,Capital O 6593 West Fort Hotel,12.978741,77.564278,Point(77.564278 12.978741),1.343,0,hotel
http://www.wikidata.org/entity/Q111063777,Capital O 6593 West Fort Hotel,12.97911,77.56418,Point(77.564278 12.978741),1.343,0,hotel
http://www.wikidata.org/entity/Q84998721,MES Instiute of Management Studies,12.9953271,77.5508109,Point(77.5508109 12.9953271),1.372,0,college
http://www.wikidata.org/entity/Q111063211,OYO 71574 Hotel Silver House,12.978907,77.540575,Point(77.540575 12.978907),1.398,0,hotel
http://www.wikidata.org/entity/Q84999218,Vidya Vardhaka Sangha First Grade College,12.9871086,77.5401546,Point(77.5401546 12.9871086),1.433,0,college
http://www.wikidata.org/entity/Q84998693,K.L.E Society S. Nijalingappa College,12.9962433,77.5509689,Point(77.5509689 12.9962433),1.47,0,college
http://www.wikidata.org/entity/Q7456049,Seshadripuram,12.98333333,77.56666667,Point(77.56666667 12.98333333),1.51,2,human settlement
http://www.wikidata.org/entity/Q83513338,Sri Adichunchanagiri College of Business Management,12.9733922,77.5422969,Point(77.5422969 12.9733922),1.565,0,college
http://www.wikidata.org/entity/Q4866307,Basaveshwaranagar,12.986666666667,77.538611111111,Point(77.538611111 12.986666666),1.579,3,human settlement
http://www.wikidata.org/entity/Q84998608,Goutham College of Science,12.9959228,77.545758,Point(77.545758 12.9959228),1.611,0,college
http://www.wikidata.org/entity/Q28408057,Sarvajna PU College,12.97636111,77.53944444,Point(77.53944444 12.97636111),1.624,0,school
http://www.wikidata.org/entity/Q39070950,City Railway Station metro station,12.9758405,77.5657558,Point(77.5657558 12.9758405),1.628,2,metro station
http://www.wikidata.org/entity/Q39070950,City Railway Station metro station,12.9758405,77.5657558,Point(77.5657558 12.9758405),1.628,2,underground station
http://www.wikidata.org/entity/Q111063611,OYO 9253 Champion Comfort,12.980606,77.537882,Point(77.537882 12.980606),1.633,0,hotel
http://www.wikidata.org/entity/Q111063590,Collection O 19780 Basaweshwara Nagar,12.981442,77.537716,Point(77.537716 12.981442),1.638,0,hotel
http://www.wikidata.org/entity/Q111063148,OYO 62331 GN Collection O,12.981431,77.537708,Point(77.537708 12.981431),1.639,0,hotel
http://www.wikidata.org/entity/Q84014057,G.B. College of Nursing,12.9821391,77.537563,Point(77.537563 12.9821391),1.647,0,college
http://www.wikidata.org/entity/Q85094233,Om Prabha First Grade College Womens College,12.9793638,77.5380208,Point(77.5380208 12.9793638),1.648,0,college
http://www.wikidata.org/entity/Q85094235,Om Prabha First Grade Evening College,12.9793638,77.5380208,Point(77.5380208 12.9793638),1.648,0,college
http://www.wikidata.org/entity/Q806463,Bengaluru Urban district,12.970213888889,77.560288888889,Point(77.560288888 12.970213888),1.653,33,district of India
http://www.wikidata.org/entity/Q87763738,COVID-19 pandemic in Karnataka,12.970213888889,77.560288888889,Point(77.560288888 12.970213888),1.653,10,disease outbreak
http://www.wikidata.org/entity/Q85094666,Vasavi Jnana Peeta First Grade College,12.9736296,77.5408615,Point(77.5408615 12.9736296),1.664,0,college
http://www.wikidata.org/entity/Q84998708,Mariyappa Evening College,12.998542,77.5536493,Point(77.5536493 12.998542),1.717,0,college
http://www.wikidata.org/entity/Q84014232,Nightingale College of Nursing,12.9715207,77.5634564,Point(77.5634564 12.9715207),1.737,0,college
http://www.wikidata.org/entity/Q111063568,OYO 19559 Pavithra Paradise,12.9881775,77.5375516,Point(77.5375516 12.9881775),1.738,0,hotel
http://www.wikidata.org/entity/Q111063490,OYO 74309 Crossroad Heights,12.980456141445,77.536771986633,Point(77.536771986 12.980456141),1.754,0,hotel
http://www.wikidata.org/entity/Q111063677,OYO 35680 Sri Sai Residency,12.980350124503,77.536745667458,Point(77.536745667 12.980350124),1.759,0,hotel
http://www.wikidata.org/entity/Q111063529,OYO 16557 Sri Krishna International,12.988658,77.53744,Point(77.53744 12.988658),1.767,0,hotel
http://www.wikidata.org/entity/Q17068244,Kuvempu Road metro station,12.9985024,77.5569474,Point(77.5569474 12.9985024),1.769,1,metro station
http://www.wikidata.org/entity/Q17068244,Kuvempu Road metro station,12.9985024,77.5569474,Point(77.5569474 12.9985024),1.769,1,elevated station
http://www.wikidata.org/entity/Q3633970,Krantivira Sangolli Rayanna railway station,12.977595,77.568083,Point(77.568083 12.977595),1.774,14,railway station
http://www.wikidata.org/entity/Q3633970,Krantivira Sangolli Rayanna railway station,12.977595,77.568083,Point(77.568083 12.977595),1.774,14,station located on surface
http://www.wikidata.org/entity/Q84014333,Sarvodaya College of Nursing,12.9800698,77.536637,Point(77.536637 12.9800698),1.777,0,college
http://www.wikidata.org/entity/Q43896982,GVK Emergency Management and Research Institute,12.982672,77.535991,Point(77.535991 12.982672),1.814,1,nonprofit organization
http://www.wikidata.org/entity/Q4882003,Belavanaki,12.9779204,77.5687766,Point(77.5687766 12.9779204),1.833,3,village in India
http://www.wikidata.org/entity/Q84014078,Government Unani Medical College,12.982872,77.5355061,Point(77.5355061 12.982872),1.866,0,college
http://www.wikidata.org/entity/Q84014076,Government Homoeopathic Medical College,12.9831448,77.5353794,Point(77.5353794 12.9831448),1.88,0,college
http://www.wikidata.org/entity/Q104843629,Binnypet,12.967,77.558,Point(77.558 12.967),1.882,2,former constituency of the Karnataka Legislative Assembly
http://www.wikidata.org/entity/Q17100145,Srirampura metro station,12.9965259,77.5633565,Point(77.5633565 12.9965259),1.883,1,metro station
http://www.wikidata.org/entity/Q17100145,Srirampura metro station,12.9965259,77.5633565,Point(77.5633565 12.9965259),1.883,1,elevated station
http://www.wikidata.org/entity/Q111063139,OYO 19934 Hotel Golden Arch,12.972593,77.538737,Point(77.538737 12.972593),1.916,0,hotel
http://www.wikidata.org/entity/Q17085511,Rajajinagar metro station,13.0003455,77.5497483,Point(77.5497483 13.0003455),1.941,1,metro station
http://www.wikidata.org/entity/Q17085511,Rajajinagar metro station,13.0003455,77.5497483,Point(77.5497483 13.0003455),1.941,1,elevated station
http://www.wikidata.org/entity/Q83513040,Kamala College of Management Studies,12.9727316,77.5677063,Point(77.5677063 12.9727316),1.992,0,college
http://www.wikidata.org/entity/Q84014070,"Government Ayurvedic Medical College, Bangalore",12.9796463,77.5708326,Point(77.5708326 12.9796463),1.999,0,college
http://www.wikidata.org/entity/Q111063077,SPOT ON 38819 Sri Sai Comforts,12.980307979056,77.571104764938,Point(77.571104764 12.980307979),2.015,0,hotel
http://www.wikidata.org/entity/Q111332052,The Bell Hotel and Convention Center,12.976553,77.570122,Point(77.570122 12.976553),2.021,0,hotel
http://www.wikidata.org/entity/Q111063092,OYO 10884 Pavana Residency,12.976881,77.570693,Point(77.570693 12.976881),2.067,0,hotel
http://www.wikidata.org/entity/Q85093574,Amith First Grade Evening College,13.0005487,77.5456891,Point(77.5456891 13.0005487),2.082,0,college
http://www.wikidata.org/entity/Q85093571,Amitha B.Ed. College,13.0005487,77.5456891,Point(77.5456891 13.0005487),2.082,0,college
http://www.wikidata.org/entity/Q111063347,OYO 47145 Hotel City Centaur International,12.974926371418,77.57036883384,Point(77.570368833 12.974926371),2.118,0,hotel
http://www.wikidata.org/entity/Q52843677,"Sri Kalabyraveshwara Swamy Ayurvedic Medical College, Hospital and Research Center",12.966254,77.543632,Point(77.543632 12.966254),2.12,0,hospital
http://www.wikidata.org/entity/Q52843677,"Sri Kalabyraveshwara Swamy Ayurvedic Medical College, Hospital and Research Center",12.966254,77.543632,Point(77.543632 12.966254),2.12,0,medical organization
http://www.wikidata.org/entity/Q17088462,Sampige Road metro station,12.9905455,77.570805,Point(77.570805 12.9905455),2.125,2,metro station
http://www.wikidata.org/entity/Q17088462,Sampige Road metro station,12.9905455,77.570805,Point(77.570805 12.9905455),2.125,2,elevated station
http://www.wikidata.org/entity/Q111063199,OYO 6790 Hotel subha Residency,12.974011,77.570021,Point(77.570021 12.974011),2.13,0,hotel
http://www.wikidata.org/entity/Q39046429,Vijayanagar metro station,12.9709156,77.5374015,Point(77.5374015 12.9709156),2.145,1,metro station
http://www.wikidata.org/entity/Q39046429,Vijayanagar metro station,12.9709156,77.5374015,Point(77.5374015 12.9709156),2.145,1,elevated station
http://www.wikidata.org/entity/Q111063127,SPOT ON 41554 Hotel Sri Thirumala Paradise,12.972500328916,77.569266613573,Point(77.569266613 12.972500328),2.146,0,hotel
http://www.wikidata.org/entity/Q6752215,Mantri Square,12.9916,77.5708,Point(77.5708 12.9916),2.173,3,shopping center
http://www.wikidata.org/entity/Q111063039,Capital O 13184 Savi International,12.99013,77.572314,Point(77.572314 12.99013),2.26,0,hotel
http://www.wikidata.org/entity/Q33121638,Directorate General of Commercial Intelligence and Statistics,13.00292,77.547913,Point(77.547913 13.00292),2.261,0,government agency
http://www.wikidata.org/entity/Q84999095,"SJRC Arts, Science and Commerce College",12.9817321,77.5735788,Point(77.5735788 12.9817321),2.264,0,college
http://www.wikidata.org/entity/Q15235446,Kempegowda Bus Station,12.97679167,77.57259722,Point(77.57259722 12.97679167),2.265,4,bus station
http://www.wikidata.org/entity/Q15235446,Kempegowda Bus Station,12.97679167,77.57259722,Point(77.57259722 12.97679167),2.265,4,station located on surface
http://www.wikidata.org/entity/Q111063095,OYO Flagship 30678 S K Residency,12.996565,77.568622,Point(77.568622 12.996565),2.28,0,hotel
http://www.wikidata.org/entity/Q111063381,OYO 71538 Royal Residency,12.971783179276,77.570327427238,Point(77.570327427 12.971783179),2.286,0,hotel
http://www.wikidata.org/entity/Q111063701,Collection O 150 1st Cross Road Cottonpet,12.971776,77.570451,Point(77.570451 12.971776),2.298,0,hotel
http://www.wikidata.org/entity/Q63356763,Malleswaram railway station,13.001289,77.563207,Point(77.563207 13.001289),2.316,0,railway station
http://www.wikidata.org/entity/Q111063377,OYO Flagship 16105 Majestic,12.97106,77.57015,Point(77.57015 12.97106),2.316,0,hotel
http://www.wikidata.org/entity/Q30269848,Diacon Hospital,13.003812,77.549839,Point(77.549839 13.003812),2.321,0,hospital
http://www.wikidata.org/entity/Q30269848,Diacon Hospital,13.003812,77.549839,Point(77.549839 13.003812),2.321,0,medical organization
http://www.wikidata.org/entity/Q111063447,OYO 9016 Charu Comforts,12.9710437,77.5701968,Point(77.5701968 12.9710437),2.321,0,hotel
http://www.wikidata.org/entity/Q111063762,SPOT ON 39787 Radha Krishna Deluxe Lodge,12.97175,77.570778,Point(77.570778 12.97175),2.329,0,hotel
http://www.wikidata.org/entity/Q6737727,Majestic metro station,12.9756893,77.5728703,Point(77.5728703 12.9756893),2.334,3,metro station
http://www.wikidata.org/entity/Q85093616,Basaveshwara Degree College,12.9703098,77.5355507,Point(77.5355507 12.9703098),2.345,0,college
http://www.wikidata.org/entity/Q111063110,OYO Flagship 65625 Sai Star Deluxe Hotel,12.9707537,77.5702667,Point(77.5702667 12.9707537),2.346,0,hotel
http://www.wikidata.org/entity/Q28408211,KMWA Vidya Niketan Composite PU College,13.00311111,77.54538889,Point(77.54538889 13.00311111),2.36,0,school
http://www.wikidata.org/entity/Q806457,Bangalore division,12.9667,77.5667,Point(77.5667 12.9667),2.372,7,division of Karnataka
http://www.wikidata.org/entity/Q7285659,Rajajinagar,12.97,77.57,Point(77.57 12.97),2.373,4,human settlement
http://www.wikidata.org/entity/Q24932099,K.R. Puram Vidhan Sabha constituency,12.966666666667,77.566666666667,Point(77.566666666 12.966666666),2.373,5,constituency of the Karnataka Legislative Assembly
http://www.wikidata.org/entity/Q111063434,SPOT ON 67398 Hotel Shree Pawan Paradise,12.970226844136,77.570192143321,Point(77.570192143 12.970226844),2.374,0,hotel
http://www.wikidata.org/entity/Q84014388,Sri Kalabyreshwara Ayurvedic Medical College,12.9648319,77.5414006,Point(77.5414006 12.9648319),2.376,0,college
http://www.wikidata.org/entity/Q112003311,Regenta Inn Ayra Seshadripuram,12.98973,77.57363,Point(77.57363 12.98973),2.38,0,hotel
http://www.wikidata.org/entity/Q111063073,OYO Flagship 1097 Hotel Sky Land,12.9940778,77.5716762,Point(77.5716762 12.9940778),2.387,0,hotel
http://www.wikidata.org/entity/Q84999074,Sheshadripuram Evening College,12.9886814,77.5740555,Point(77.5740555 12.9886814),2.392,0,college
http://www.wikidata.org/entity/Q111063281,SPOT ON 63243 Sri Comforts Deluxe Lodge,12.978399,77.5743,Point(77.5743 12.978399),2.396,0,hotel
http://www.wikidata.org/entity/Q84014401,Sri Ramakrishna College of Nursing,13.0006648,77.5398241,Point(77.5398241 13.0006648),2.399,0,college
http://www.wikidata.org/entity/Q111861993,Citrine Hotel,12.98631,77.57469,Point(77.57469 12.98631),2.405,0,hotel
http://www.wikidata.org/entity/Q111861998,JP Cordial,12.980664,77.57481,Point(77.57481 12.980664),2.408,0,hotel
http://www.wikidata.org/entity/Q3536951,Malleswaram,12.98,77.575,Point(77.575 12.98),2.438,5,suburb
http://www.wikidata.org/entity/Q3536951,Malleswaram,13.0031,77.5643,Point(77.575 12.98),2.438,5,suburb
http://www.wikidata.org/entity/Q5136638,"Cluny Convent High School, Malleswaram",13.00291667,77.56275,Point(77.56275 13.00291667),2.453,0,high school
http://www.wikidata.org/entity/Q85093647,Darshan First Grade Evening College,12.9795121,77.5302772,Point(77.5302772 12.9795121),2.466,0,college
http://www.wikidata.org/entity/Q111063346,Collection O 30004 Malleswaram,12.99421,77.57252,Point(77.57252 12.99421),2.473,0,hotel
http://www.wikidata.org/entity/Q85093969,"Kaveri First Grade College, Anekal",12.9665649,77.5374752,Point(77.5374752 12.9665649),2.475,0,college
http://www.wikidata.org/entity/Q85094591,Sri Gandhadh Kavalu First Grade College,12.9665649,77.5374752,Point(77.5374752 12.9665649),2.475,0,college
http://www.wikidata.org/entity/Q84999251,Yadava Degree College,12.9869245,77.575425,Point(77.575425 12.9869245),2.495,0,college
http://www.wikidata.org/entity/Q111063152,OYO 3974 Hotel BCP Suites,12.9797666,77.5755446,Point(77.5755446 12.9797666),2.5,0,hotel
http://www.wikidata.org/entity/Q111063426,SPOT ON 72596 Royal Regency,12.978344777382,77.575342655182,Point(77.575342655 12.978344777),2.507,0,hotel
http://www.wikidata.org/entity/Q111063735,OYO 16475 Sai Vishram,12.980464,77.575739,Point(77.575739 12.980464),2.511,0,hotel
http://www.wikidata.org/entity/Q83513193,Ramanashree Academy of Management,12.9695803,77.5340225,Point(77.5340225 12.9695803),2.526,0,college
http://www.wikidata.org/entity/Q111402706,"Fortune Park JP Celestial - Member ITC Hotel Group, Bengaluru",12.9809,77.57602,Point(77.57602 12.9809),2.536,0,hotel
http://www.wikidata.org/entity/Q111063278,Collection O 81817 Snt Comforts,12.974244087966,77.57433942965,Point(77.574339429 12.974244087),2.541,0,hotel
http://www.wikidata.org/entity/Q111063108,SPOT ON 48699 Hotel PawanSree Deluxe Lodge,12.97728100245,77.575439885259,Point(77.575439885 12.977281002),2.545,0,hotel
http://www.wikidata.org/entity/Q84014435,St. Theresas College of Nursing,13.0059275,77.5504108,Point(77.5504108 13.0059275),2.547,0,college
http://www.wikidata.org/entity/Q3536951,Malleswaram,13.0031,77.5643,Point(77.5643 13.0031),2.55,5,suburb
http://www.wikidata.org/entity/Q3536951,Malleswaram,12.98,77.575,Point(77.5643 13.0031),2.55,5,suburb
http://www.wikidata.org/entity/Q111063258,OYO 84161 S B Comforts,12.960509773667,77.557552400976,Point(77.5575524 12.960509773),2.569,0,hotel
http://www.wikidata.org/entity/Q111402697,Renaissance Bengaluru Race Course Hotel,12.98442,77.57668,Point(77.57668 12.98442),2.599,0,hotel
http://www.wikidata.org/entity/Q111063337,SPOT ON 46978 Saroja Palace Delux Lodge,12.979189978605,77.576485276222,Point(77.576485276 12.979189978),2.611,0,hotel
http://www.wikidata.org/entity/Q111063542,SPOT ON 85094 National Deluxe Lodge,12.973986523335,77.574970331043,Point(77.574970331 12.973986523),2.615,0,hotel
http://www.wikidata.org/entity/Q111063741,Capital O 28398 Mysore Gate,12.959861,77.556639,Point(77.556639 12.959861),2.622,0,hotel
http://www.wikidata.org/entity/Q112003313,Zion A Luxurious Hotel Bangalore,12.979588,77.577,Point(77.577 12.979588),2.659,0,hotel
http://www.wikidata.org/entity/Q111063478,SPOT ON 46264 M K Grande,12.966111,77.570028,Point(77.570028 12.966111),2.663,0,hotel
http://www.wikidata.org/entity/Q84014127,Kamala Krishna Royale Nursing College,12.9695897,77.5732792,Point(77.5732792 12.9695897),2.688,0,college
http://www.wikidata.org/entity/Q55435079,Chamrajpet Vidhan Sabha constituency,12.96,77.56,Point(77.56 12.96),2.69,4,constituency of the Karnataka Legislative Assembly
http://www.wikidata.org/entity/Q111117632,goSTOPS Bengaluru,12.9774459,77.5769327,Point(77.5769327 12.9774459),2.697,0,hostel
http://www.wikidata.org/entity/Q111063130,Townhouse OAK Hotel U T Elite,12.977060960577,77.576874364167,Point(77.576874364 12.97706096),2.702,0,hotel
http://www.wikidata.org/entity/Q6948702,MES Kishora Kendra School,13.00469,77.56424,Point(77.56424 13.00469),2.702,2,school
http://www.wikidata.org/entity/Q111063816,OYO 73860 Sai Ram Residency,12.997283,77.573189,Point(77.573189 12.997283),2.718,0,hotel
http://www.wikidata.org/entity/Q111063474,OYO 9251 NAR Comforts,12.971304207112,77.57490394637,Point(77.574903946 12.971304207),2.739,0,hotel
http://www.wikidata.org/entity/Q55435324,Gandhi Nagar Vidhan Sabha constituency,12.982,77.578,Point(77.578 12.982),2.741,4,constituency of the Karnataka Legislative Assembly
http://www.wikidata.org/entity/Q84999234,"Vivekananda Degree College, Rajajinagar",13.0077831,77.5534249,Point(77.5534249 13.0077831),2.742,0,college
http://www.wikidata.org/entity/Q7126170,Palace Guttahalli,12.99563056,77.57485,Point(77.57485 12.99563056),2.77,1,human settlement
http://www.wikidata.org/entity/Q84999194,St. Teresas Degree College For Women,12.9621077,77.5665032,Point(77.5665032 12.9621077),2.773,0,college
http://www.wikidata.org/entity/Q111063700,SPOT ON 75643 Golden Guest House,12.970717090208,77.574957925826,Point(77.574957925 12.97071709),2.776,0,hotel
http://www.wikidata.org/entity/Q111861995,Vividus,12.9846679,77.578344,Point(77.578344 12.9846679),2.78,0,hotel
http://www.wikidata.org/entity/Q111063404,OYO 25036 Suraksha Residency,12.9793308,77.5783984,Point(77.5783984 12.9793308),2.813,0,hotel
http://www.wikidata.org/entity/Q17070948,Mahalakshmi metro station,13.0083374,77.5488344,Point(77.5488344 13.0083374),2.834,2,metro station
http://www.wikidata.org/entity/Q17070948,Mahalakshmi metro station,13.0083374,77.5488344,Point(77.5488344 13.0083374),2.834,2,elevated station
http://www.wikidata.org/entity/Q111063104,OYO 3778 Hotel Pulkeshi,12.97869,77.578543,Point(77.578543 12.97869),2.84,0,hotel
http://www.wikidata.org/entity/Q111063559,OYO Flagship 10332 Sai Orchid,12.986937,77.578698,Point(77.578698 12.986937),2.845,0,hotel
http://www.wikidata.org/entity/Q55435076,Govindraj Nagar Vidhan Sabha constituency,12.972,77.529,Point(77.529 12.972),2.853,4,constituency of the Karnataka Legislative Assembly
http://www.wikidata.org/entity/Q6372843,Karnataka Chitrakala Parishath,12.9891667,77.5783669,Point(77.5783669 12.9891667),2.858,4,museum
http://www.wikidata.org/entity/Q6372843,Karnataka Chitrakala Parishath,12.9891667,77.5783669,Point(77.5783669 12.9891667),2.858,4,college
http://www.wikidata.org/entity/Q55435080,Chickpet Vidhan Sabha constituency,12.971,77.576,Point(77.576 12.971),2.859,4,constituency of the Karnataka Legislative Assembly
http://www.wikidata.org/entity/Q55435077,Vijay Nagar Vidhan Sabha constituency,12.97,77.53,Point(77.53 12.97),2.863,3,constituency of the Karnataka Legislative Assembly
http://www.wikidata.org/entity/Q28180254,"St. Joseph's High School, Briand Square,Bangalore",12.961791,77.5678915,Point(77.5678915 12.961791),2.886,1,high school
http://www.wikidata.org/entity/Q111063038,OYO 435 Hotel Amshi International,12.978683,77.579054,Point(77.579054 12.978683),2.895,0,hotel
http://www.wikidata.org/entity/Q84014484,Vivekananda College of Pharmacy,13.0092373,77.5524869,Point(77.5524869 13.0092373),2.903,0,college
http://www.wikidata.org/entity/Q111402696,Goldfinch Hotel Bangalore,12.985427,77.57947,Point(77.57947 12.985427),2.908,0,hotel
http://www.wikidata.org/entity/Q85093902,"Dr. Ambedekar College of Education, Mahalakshimpuram",13.0023621,77.5345281,Point(77.5345281 13.0023621),2.909,0,college
http://www.wikidata.org/entity/Q7929281,"Vijayanagar, Bangalore",12.96,77.54,Point(77.54 12.96),2.918,2,human settlement
http://www.wikidata.org/entity/Q84998733,MLA Academy of Higher Learning,13.0047621,77.5679824,Point(77.5679824 13.0047621),2.918,0,college
http://www.wikidata.org/entity/Q84998705,Malleshwaram Ladies Association FGC,13.004632,77.5681813,Point(77.5681813 13.004632),2.919,0,college
http://www.wikidata.org/entity/Q84014071,"Government  College of Nursing, Bangalore",12.9631859,77.5703222,Point(77.5703222 12.9631859),2.924,0,college
http://www.wikidata.org/entity/Q84014084,Heardtland College of Nursing,12.9631326,77.5702977,Point(77.5702977 12.9631326),2.927,0,college
http://www.wikidata.org/entity/Q84014296,R L Abhishek Rao College of Nursing,12.9631326,77.5702977,Point(77.5702977 12.9631326),2.927,0,college
http://www.wikidata.org/entity/Q4500903,"ISKCON Temple, Bengaluru",13.009444444444,77.550833333333,Point(77.550833333 13.009444444),2.933,7,architectural structure
http://www.wikidata.org/entity/Q5096366,Chickpet,12.97186,77.57721,Point(77.57721 12.97186),2.934,3,human settlement
http://www.wikidata.org/entity/Q111063247,OYO 1161 Hotel Golden Residency,12.9780788,77.5793767,Point(77.5793767 12.9780788),2.941,0,hotel
http://www.wikidata.org/entity/Q111063660,Capital O 797 Adarsh Inn,12.9759078,77.578952,Point(77.578952 12.9759078),2.952,0,hotel
http://www.wikidata.org/entity/Q20861592,Chickpete metro station,12.9675484,77.5747975,Point(77.5747975 12.9675484),2.953,3,metro station
http://www.wikidata.org/entity/Q20861592,Chickpete metro station,12.9675484,77.5747975,Point(77.5747975 12.9675484),2.953,3,underground station
http://www.wikidata.org/entity/Q112003315,Vanusa Residency,12.97688,77.57924,Point(77.57924 12.97688),2.955,0,hotel
http://www.wikidata.org/entity/Q64343188,Taj West End Bangalore,12.98,77.58,Point(77.58 12.98),2.975,2,hotel
http://www.wikidata.org/entity/Q64343188,Taj West End Bangalore,12.98412,77.58452,Point(77.58 12.98),2.975,2,hotel
http://www.wikidata.org/entity/Q83512796,Anupama College of Education,13.0067056,77.5396717,Point(77.5396717 13.0067056),2.979,0,college
http://www.wikidata.org/entity/Q28154018,Sri Gangamma Devi Temple,13.0044484,77.5694959,Point(77.5694959 13.0044484),2.986,3,Hindu temple
http://www.wikidata.org/entity/Q60771806,"Gandhi Bhavan, Bengaluru",12.988117,77.579826,Point(77.579826 12.988117),2.988,4,architectural structure
http://www.wikidata.org/entity/Q111063549,SPOT ON 83062 Vasavi Residency,12.965215365595,77.57382536307,Point(77.573825363 12.965215365),3.032,0,hotel
http://www.wikidata.org/entity/Q84999008,"Osteen College, Chamarajpet",12.9570097,77.5612522,Point(77.5612522 12.9570097),3.048,0,college
http://www.wikidata.org/entity/Q84998317,B.S.V Degree College,12.9578926,77.5637534,Point(77.5637534 12.9578926),3.05,0,college
http://www.wikidata.org/entity/Q84014111,Institute of Nephro-urology Bangalore,12.961924,77.5706782,Point(77.5706782 12.961924),3.056,0,college
http://www.wikidata.org/entity/Q15233128,"Kamala Nagar, Bangalore",12.99318333,77.52631111,Point(77.52631111 12.99318333),3.073,1,human settlement
http://www.wikidata.org/entity/Q122974263,Mahabodhi Loka Shanti Buddha Vihara,12.978588888889,77.580730555556,Point(77.580730555 12.978588888),3.076,1,vihara
http://www.wikidata.org/entity/Q17081306,Orion Mall,13.011,77.555,Point(77.555 13.011),3.109,4,shopping center
http://www.wikidata.org/entity/Q34501077,PVR Orion Cinemas,13.011,77.55504,Point(77.55504 13.011),3.109,0,movie theater
http://www.wikidata.org/entity/Q111063522,Townhouse 817 Hiland Suites,12.986639843783,77.581247873604,Point(77.581247873 12.986639843),3.114,0,hotel
http://www.wikidata.org/entity/Q30262963,Narayana Nethralaya,13.011243,77.552158,Point(77.552158 13.011243),3.126,0,medical organization
http://www.wikidata.org/entity/Q55616249,Krishnadevaraya halt railway station,12.958105555556,77.539463888889,Point(77.539463888 12.958105555),3.132,1,railway station
http://www.wikidata.org/entity/Q55616249,Krishnadevaraya halt railway station,12.958105555556,77.539463888889,Point(77.539463888 12.958105555),3.132,1,station located on surface
http://www.wikidata.org/entity/Q39046425,Attiguppe metro station,12.961957,77.533582,Point(77.533582 12.961957),3.138,2,metro station
http://www.wikidata.org/entity/Q39046425,Attiguppe metro station,12.961957,77.533582,Point(77.533582 12.961957),3.138,2,elevated station
http://www.wikidata.org/entity/Q111063753,OYO 78752 Hotel Abhimaani Inn,12.9561735,77.5441185,Point(77.5441185 12.9561735),3.139,0,hotel
http://www.wikidata.org/entity/Q6869655,Minto Eye Hospital,12.961925,77.5719,Point(77.5719 12.961925),3.142,5,hospital
http://www.wikidata.org/entity/Q99454674,Malleshwaram inscription,13.004762,77.571562,Point(77.571562 13.004762),3.154,0,inscription
http://www.wikidata.org/entity/Q111063554,OYO Flagship 17018 Malnad Residency,12.99939,77.57667,Point(77.57667 12.99939),3.162,0,hotel
http://www.wikidata.org/entity/Q111063554,OYO Flagship 17018 Malnad Residency,12.99939,77.57667,Point(77.576669 12.999393),3.162,0,hotel
http://www.wikidata.org/entity/Q111063554,OYO Flagship 17018 Malnad Residency,12.999393,77.576669,Point(77.57667 12.99939),3.162,0,hotel
http://www.wikidata.org/entity/Q111063554,OYO Flagship 17018 Malnad Residency,12.999393,77.576669,Point(77.576669 12.999393),3.162,0,hotel
http://www.wikidata.org/entity/Q6345722,Kadu Malleshwara Temple,13.004966,77.5714462,Point(77.5714462 13.004966),3.163,4,Hindu temple
http://www.wikidata.org/entity/Q7926782,Victoria Hospital,12.963389,77.573819,Point(77.573819 12.963389),3.168,3,hospital
http://www.wikidata.org/entity/Q7943870,Vyalikaval,13.002,77.575,Point(77.575 13.002),3.197,1,human settlement
http://www.wikidata.org/entity/Q30262934,Institute of Nephro Urology,12.962008,77.572824,Point(77.572824 12.962008),3.202,0,medical organization
http://www.wikidata.org/entity/Q6732912,Mahalakshmipuram,13.01136111,77.54669444,Point(77.54669444 13.01136111),3.206,1,human settlement
http://www.wikidata.org/entity/Q111063843,OYO 10479 Sree Sai Comfort,12.95532,77.544752,Point(77.544752 12.95532),3.211,0,hotel
http://www.wikidata.org/entity/Q7292629,"Ranganathaswamy Temple, Bangalore",12.97026111,77.579325,Point(77.579325 12.97026111),3.217,2,Hindu temple
http://www.wikidata.org/entity/Q5500576,"Freedom Park, Bangalore",12.97727222,77.58184444,Point(77.58184444 12.97727222),3.221,5,park
http://www.wikidata.org/entity/Q65403678,Ballapurada Pete inscription,12.97014,77.579355,Point(77.579355 12.97014),3.226,1,inscription
http://www.wikidata.org/entity/Q84998619,"Government First Grade College, Malleswaram",13.0087065,77.5674289,Point(77.5674289 13.0087065),3.259,0,college
http://www.wikidata.org/entity/Q7915030,Vanivilas Women and Children Hospital,12.962137760595,77.573751807935,Point(77.573751807 12.96213776),3.261,4,hospital
http://www.wikidata.org/entity/Q24935415,"Rice Memorial Church, Bengaluru",12.971136,77.5802331,Point(77.5802331 12.971136),3.265,3,church building
http://www.wikidata.org/entity/Q84014230,New Sri Shanthini College of Nursing,12.95691,77.5388618,Point(77.5388618 12.95691),3.28,0,college
http://www.wikidata.org/entity/Q84014406,Sri Shanthini College of Nursing,12.95691,77.5388618,Point(77.5388618 12.95691),3.28,0,college
http://www.wikidata.org/entity/Q6963346,Nandishwara Teertha Temple,13.0050451,77.5731576,Point(77.5731576 13.0050451),3.292,3,Hindu temple
http://www.wikidata.org/entity/Q111402679,Sheraton Grand Bangalore Hotel at Brigade Gateway,13.0127,77.5551,Point(77.5551 13.0127),3.298,0,hotel
http://www.wikidata.org/entity/Q5588792,"Government Dental College, Bangalore",12.96397222,77.57611111,Point(77.57611111 12.96397222),3.31,1,educational institution
http://www.wikidata.org/entity/Q5588792,"Government Dental College, Bangalore",12.963802,77.576027,Point(77.57611111 12.96397222),3.31,1,educational institution
http://www.wikidata.org/entity/Q5588792,"Government Dental College, Bangalore",12.96397222,77.57611111,Point(77.576027 12.963802),3.315,1,educational institution
http://www.wikidata.org/entity/Q5588792,"Government Dental College, Bangalore",12.963802,77.576027,Point(77.576027 12.963802),3.315,1,educational institution
http://www.wikidata.org/entity/Q84999102,S.L.N College of Arts and Commerce,12.9622622,77.5746174,Point(77.5746174 12.9622622),3.318,0,college
http://www.wikidata.org/entity/Q85093624,BNES College,13.011978,77.5447513,Point(77.5447513 13.011978),3.322,0,college
http://www.wikidata.org/entity/Q111063052,OYO 9991 Sai Ram Residency,12.971517,77.581379,Point(77.581379 12.971517),3.362,0,hotel
http://www.wikidata.org/entity/Q84999174,Sri Sai College For Women,13.0025451,77.5765397,Point(77.5765397 13.0025451),3.364,0,college
http://www.wikidata.org/entity/Q16851284,Kaalikaamba Kamatheshwara Temple,12.967222222222,77.579166666667,Point(77.579166666 12.967222222),3.367,1,Hindu temple
http://www.wikidata.org/entity/Q84999170,Sree Omkar College of Commerce and Management,12.9528224,77.5535005,Point(77.5535005 12.9528224),3.371,0,college
http://www.wikidata.org/entity/Q124607399,Fort Assembly constituency,12.962846,77.575889,Point(77.575889 12.962846),3.374,1,former constituency of the Karnataka Legislative Assembly
http://www.wikidata.org/entity/Q4855049,Bengaluru Fort,12.962875,77.575956,Point(77.575956 12.962875),3.377,9,fortification
http://www.wikidata.org/entity/Q19873319,"Fort Church, Bangalore",12.962875,77.575956,Point(77.575956 12.962875),3.377,1,church building
http://www.wikidata.org/entity/Q4887708,Bengaluru Pete,12.9627,77.5758,Point(77.5758 12.9627),3.378,4,human settlement
http://www.wikidata.org/entity/Q15266961,Places of worship in Bangalore,12.9627,77.5758,Point(77.5758 12.9627),3.378,1,metropolis
http://www.wikidata.org/entity/Q6389077,Kendriya Vidyalaya Malleswaram,13.00922222,77.56872222,Point(77.56872222 13.00922222),3.379,2,school
http://www.wikidata.org/entity/Q111602084,Timer Yard Layout,12.95274,77.54869,Point(77.54869 12.95274),3.407,0,serviced office
http://www.wikidata.org/entity/Q16039845,Karnataka Samskrit University,12.958963888889,77.57235,Point(77.57235 12.958963888),3.426,6,university
http://www.wikidata.org/entity/Q111063748,OYO 13029 Hotel Bestend,12.963629,77.577293,Point(77.577293 12.963629),3.433,0,hotel
http://www.wikidata.org/entity/Q64343188,Taj West End Bangalore,12.98,77.58,Point(77.58452 12.98412),3.446,2,hotel
http://www.wikidata.org/entity/Q64343188,Taj West End Bangalore,12.98412,77.58452,Point(77.58452 12.98412),3.446,2,hotel
http://www.wikidata.org/entity/Q111862006,Rosewood International Hotel,12.953025,77.545035,Point(77.545035 12.953025),3.45,0,hotel
http://www.wikidata.org/entity/Q18386400,K. R. Market,12.963611111111,77.5775,Point(77.5775 12.963611111),3.452,4,human settlement
http://www.wikidata.org/entity/Q65090067,Bengaluru City University,12.974980555556,77.583488888889,Point(77.583488888 12.974980555),3.454,2,academic institution
http://www.wikidata.org/entity/Q55435067,Mahalakshmi Layout Vidhan Sabha constituency,13.014,77.549,Point(77.549 13.014),3.456,4,constituency of the Karnataka Legislative Assembly
http://www.wikidata.org/entity/Q84998625,"Government R.C. College, Racecourse Raod",12.983398,77.5846701,Point(77.5846701 12.983398),3.461,0,college
http://www.wikidata.org/entity/Q7809034,Tipu Sultan's Summer Palace,12.959494,77.573572,Point(77.573572 12.959494),3.465,7,palace
http://www.wikidata.org/entity/Q111063824,SPOT ON 63862 Delhi Yatri Nivaas,12.960796990856,77.575155680721,Point(77.57515568 12.96079699),3.474,0,hotel
http://www.wikidata.org/entity/Q85094682,Vivekananda Degree College For Women,13.0128455,77.5425791,Point(77.5425791 13.0128455),3.482,0,college
http://www.wikidata.org/entity/Q6948717,Mysore Road Satellite Bus Station,12.95307778,77.54366111,Point(77.54366111 12.95307778),3.483,2,bus station
http://www.wikidata.org/entity/Q111063736,OYO Flagship 77157 Puttana Chetty Townhall,12.96707,77.58038,Point(77.58038 12.96707),3.488,0,hotel
http://www.wikidata.org/entity/Q111063615,OYO Flagship 16107 SR Royal,12.953401063845,77.541738599539,Point(77.541738599 12.953401063),3.514,0,hotel
http://www.wikidata.org/entity/Q6433914,"Kote Venkataramana Temple, Bangalore",12.959524,77.574305,Point(77.574305 12.959524),3.515,4,temple
http://www.wikidata.org/entity/Q24211039,Sir M. Visveshwaraya metro station,12.9742808,77.5839458,Point(77.5839458 12.9742808),3.522,2,metro station
http://www.wikidata.org/entity/Q24211039,Sir M. Visveshwaraya metro station,12.9742808,77.5839458,Point(77.5839458 12.9742808),3.522,2,underground station
http://www.wikidata.org/entity/Q24211039,Sir M. Visveshwaraya metro station,12.9742808,77.5839458,Point(77.5839458 12.9742808),3.522,2,underground metro station
http://www.wikidata.org/entity/Q17088478,Sandal Soap Factory,13.014793,77.5540211,Point(77.5540211 13.014793),3.523,2,metro station
http://www.wikidata.org/entity/Q17088478,Sandal Soap Factory,13.014793,77.5540211,Point(77.5540211 13.014793),3.523,2,elevated station
http://www.wikidata.org/entity/Q84999168,Sophia Evening College,12.986702,77.5850493,Point(77.5850493 12.986702),3.524,0,college
http://www.wikidata.org/entity/Q7331115,Sankey tank,13.00778,77.57547,Point(77.57 13.01),3.525,5,lake
http://www.wikidata.org/entity/Q7331115,Sankey tank,13.00778,77.57547,Point(77.57 13.01),3.525,5,lagoon
http://www.wikidata.org/entity/Q55435068,Malleshwaram,13.01,77.57,Point(77.57 13.01),3.525,4,constituency of the Karnataka Legislative Assembly
http://www.wikidata.org/entity/Q7331115,Sankey tank,13.01,77.57,Point(77.57 13.01),3.525,5,lake
http://www.wikidata.org/entity/Q7331115,Sankey tank,13.01,77.57,Point(77.57 13.01),3.525,5,lagoon
http://www.wikidata.org/entity/Q6433913,Kote Jalakantheshwara temple,12.96142,77.576486,Point(77.576486 12.96142),3.529,3,Hindu temple
http://www.wikidata.org/entity/Q84013982,"College of Nursing, St. Martha's Hospital",12.9718653,77.5833772,Point(77.5833772 12.9718653),3.549,0,college
http://www.wikidata.org/entity/Q4855062,Bengaluru Medical College and Research Institute,12.95938333,77.57474167,Point(77.57474167 12.95938333),3.558,6,research institute
http://www.wikidata.org/entity/Q4855062,Bengaluru Medical College and Research Institute,12.95938333,77.57474167,Point(77.57474167 12.95938333),3.558,6,educational institution
http://www.wikidata.org/entity/Q111402701,Radisson Blu Atria Bengaluru,12.980335,77.58582,Point(77.58582 12.980335),3.599,0,hotel
http://www.wikidata.org/entity/Q84014385,Sri Kalabhyraveshwara Swamy College of Nursing,12.9618626,77.5272711,Point(77.5272711 12.9618626),3.633,0,college
http://www.wikidata.org/entity/Q107639034,Kempambudhi Lake,12.951388888889,77.560833333333,Point(77.560833333 12.951388888),3.637,1,lake
http://www.wikidata.org/entity/Q73993772,Indian Bank New Timber Yard Layout branch,12.95069,77.54806,Point(77.54806 12.95069),3.642,0,Indian Bank branch
http://www.wikidata.org/entity/Q18126036,Institute of Wood Science and Technology,13.0112,77.5702,Point(77.5702 13.0112),3.65,2,government agency
http://www.wikidata.org/entity/Q111063096,OYO 10924 Hotel Janpath,12.958764,77.575417,Point(77.575417 12.958764),3.658,0,hotel
http://www.wikidata.org/entity/Q111063792,OYO Flagship 15777 Basvanagudi,12.9588,77.5755004,Point(77.5755004 12.9588),3.661,0,hotel
http://www.wikidata.org/entity/Q7331115,Sankey tank,13.00778,77.57547,Point(77.57547 13.00778),3.685,5,lake
http://www.wikidata.org/entity/Q7331115,Sankey tank,13.00778,77.57547,Point(77.57547 13.00778),3.685,5,lagoon
http://www.wikidata.org/entity/Q7331115,Sankey tank,13.01,77.57,Point(77.57547 13.00778),3.685,5,lake
http://www.wikidata.org/entity/Q7331115,Sankey tank,13.01,77.57,Point(77.57547 13.00778),3.685,5,lagoon
http://www.wikidata.org/entity/Q7894978,University Visvesvaraya College of Engineering,12.976055555556,77.586055555556,Point(77.586055555 12.976055555),3.695,3,engineering school
http://www.wikidata.org/entity/Q4741433,Chamrajpet,12.95,77.55,Point(77.55 12.95),3.696,1,Vorort
http://www.wikidata.org/entity/Q124818611,Cubbonpet Assembly constituency,12.969272,77.583949,Point(77.583949 12.969272),3.717,1,former constituency of the Karnataka Legislative Assembly
http://www.wikidata.org/entity/Q49703576,Q49703576,13.009444444444,77.573888888889,Point(77.573888888 13.009444444),3.717,1,intermittent reservoir
http://www.wikidata.org/entity/Q24912918,Krishna Rajendra Market metro station,12.9564453,77.5735999,Point(77.5735999 12.9564453),3.731,1,metro station
http://www.wikidata.org/entity/Q24912918,Krishna Rajendra Market metro station,12.9564453,77.5735999,Point(77.5735999 12.9564453),3.731,1,underground station
http://www.wikidata.org/entity/Q111117623,Locul.Uptown,12.992565,77.58607,Point(77.58607 12.992565),3.761,0,hostel
http://www.wikidata.org/entity/Q6387052,Kempegowda Institute of Medical Sciences,12.9565,77.57427778,Point(77.57427778 12.9565),3.771,2,institute
http://www.wikidata.org/entity/Q55454365,Micro Labs (India),13.013641,77.56799,Point(77.56799 13.013641),3.774,0,business
http://www.wikidata.org/entity/Q111063712,Capital O 79118 Green Residency,12.9945821,77.519778,Point(77.519778 12.9945821),3.79,0,hotel
http://www.wikidata.org/entity/Q111117641,Tulip Inn Bengaluru,12.9991584,77.5836491,Point(77.5836491 12.9991584),3.794,0,hotel
http://www.wikidata.org/entity/Q84998321,C.B. Bandari Jain College,12.9541138,77.5712831,Point(77.5712831 12.9541138),3.801,0,college
http://www.wikidata.org/entity/Q111063817,SPOT ON 77398 Shree Srinivasa Residency,12.957682488521,77.576361391693,Point(77.576361391 12.957682488),3.816,0,hotel
http://www.wikidata.org/entity/Q84014137,Kempegowda Institute of Physiotherapy,12.9543947,77.5720764,Point(77.5720764 12.9543947),3.821,0,college
http://www.wikidata.org/entity/Q39046388,Deepanjali Nagar metro station,12.9522153,77.5371011,Point(77.5371011 12.9522153),3.832,2,metro station
http://www.wikidata.org/entity/Q39046388,Deepanjali Nagar metro station,12.9522153,77.5371011,Point(77.5371011 12.9522153),3.832,2,elevated station
http://www.wikidata.org/entity/Q116959448,Sri Shankara Cancer Hospital and Research Center,12.955197331297,77.573576595584,Point(77.573576595 12.955197331),3.84,0,medical organization
http://www.wikidata.org/entity/Q30281164,Vokkaligara Sangha Dental College & Hospital,12.954357,77.5724983,Point(77.5724983 12.954357),3.85,0,hospital
http://www.wikidata.org/entity/Q30281164,Vokkaligara Sangha Dental College & Hospital,12.954319,77.574737,Point(77.5724983 12.954357),3.85,0,hospital
http://www.wikidata.org/entity/Q30281164,Vokkaligara Sangha Dental College & Hospital,12.954357,77.5724983,Point(77.5724983 12.954357),3.85,0,college
http://www.wikidata.org/entity/Q30281164,Vokkaligara Sangha Dental College & Hospital,12.954319,77.574737,Point(77.5724983 12.954357),3.85,0,college
http://www.wikidata.org/entity/Q30281164,Vokkaligara Sangha Dental College & Hospital,12.954357,77.5724983,Point(77.5724983 12.954357),3.85,0,medical organization
http://www.wikidata.org/entity/Q30281164,Vokkaligara Sangha Dental College & Hospital,12.954319,77.574737,Point(77.5724983 12.954357),3.85,0,medical organization
http://www.wikidata.org/entity/Q111063637,SPOT ON 73621 Srinivasa Boarding And Lodging,12.987826,77.51751,Point(77.51751 12.987826),3.852,0,hotel
http://www.wikidata.org/entity/Q107419247,Mythic Society,12.9723,77.58658,Point(77.58658 12.9723),3.86,0,organization
http://www.wikidata.org/entity/Q2065042,Dharmaraya Swamy Temple,12.965444444444,77.583388888889,Point(77.583388888 12.965444444),3.86,9,temple
http://www.wikidata.org/entity/Q4855053,"Bengaluru Institute of Technology, Bengaluru",12.95516944,77.57429167,Point(77.57429167 12.95516944),3.889,2,engineering school
http://www.wikidata.org/entity/Q111063371,OYO Flagship 18338 White Fort,12.956802121559,77.576371952891,Point(77.576371952 12.956802121),3.89,0,hotel
http://www.wikidata.org/entity/Q84014135,Kempegowda College of Nursing,12.9536616,77.5721321,Point(77.5721321 12.9536616),3.893,0,college
http://www.wikidata.org/entity/Q30262855,St.Martha's College Of Nursing,12.970528,77.586376,Point(77.586376 12.970528),3.906,0,educational institution
http://www.wikidata.org/entity/Q17077814,"National Gallery of Modern Art, Bengaluru",12.989747,77.58815,Point(77.58815 12.989705),3.907,4,museum
http://www.wikidata.org/entity/Q17077814,"National Gallery of Modern Art, Bengaluru",12.989747,77.58815,Point(77.58815 12.989747),3.907,4,museum
http://www.wikidata.org/entity/Q17077814,"National Gallery of Modern Art, Bengaluru",12.989705,77.58815,Point(77.58815 12.989705),3.907,4,museum
http://www.wikidata.org/entity/Q17077814,"National Gallery of Modern Art, Bengaluru",12.989705,77.58815,Point(77.58815 12.989747),3.907,4,museum
http://www.wikidata.org/entity/Q17077814,"National Gallery of Modern Art, Bengaluru",12.989747,77.58815,Point(77.58815 12.989705),3.907,4,art museum
http://www.wikidata.org/entity/Q17077814,"National Gallery of Modern Art, Bengaluru",12.989747,77.58815,Point(77.58815 12.989747),3.907,4,art museum
http://www.wikidata.org/entity/Q17077814,"National Gallery of Modern Art, Bengaluru",12.989705,77.58815,Point(77.58815 12.989705),3.907,4,art museum
http://www.wikidata.org/entity/Q17077814,"National Gallery of Modern Art, Bengaluru",12.989705,77.58815,Point(77.58815 12.989747),3.907,4,art museum
http://www.wikidata.org/entity/Q17077814,"National Gallery of Modern Art, Bengaluru",12.989747,77.58815,Point(77.58815 12.989705),3.907,4,national museum
http://www.wikidata.org/entity/Q17077814,"National Gallery of Modern Art, Bengaluru",12.989747,77.58815,Point(77.58815 12.989747),3.907,4,national museum
http://www.wikidata.org/entity/Q17077814,"National Gallery of Modern Art, Bengaluru",12.989705,77.58815,Point(77.58815 12.989705),3.907,4,national museum
http://www.wikidata.org/entity/Q17077814,"National Gallery of Modern Art, Bengaluru",12.989705,77.58815,Point(77.58815 12.989747),3.907,4,national museum
http://www.wikidata.org/entity/Q84999240,V.V Puram Arts and Commerce College,12.953357,77.5719661,Point(77.5719661 12.953357),3.912,0,college
http://www.wikidata.org/entity/Q30262919,Indian Institute for Human Settlements,13.006617,77.58089,Point(77.5809 13.005645),3.947,0,educational institution
http://www.wikidata.org/entity/Q30262919,Indian Institute for Human Settlements,13.005645,77.5809,Point(77.5809 13.005645),3.947,0,educational institution
http://www.wikidata.org/entity/Q64828686,Statue of Mahatma Gandhi,12.9789378,77.5889238,Point(77.5889238 12.9789378),3.949,1,statue
http://www.wikidata.org/entity/Q64828686,Statue of Mahatma Gandhi,12.9789378,77.5889238,Point(77.5889238 12.9789378),3.949,1,memorial
http://www.wikidata.org/entity/Q65954399,Reserve Bank of India Bangalore Regional Office,12.972180555556,77.587402777778,Point(77.587402777 12.972180555),3.949,0,Reserve Bank of India branch
http://www.wikidata.org/entity/Q83513326,Smt. Manjula Mallesh College of Education,12.9648042,77.5213307,Point(77.5213307 12.9648042),3.966,0,college
http://www.wikidata.org/entity/Q19898544,Swami Vivekananda Yoga Anusandhana Samsthana,12.948913888889,77.563208333333,Point(77.563208333 12.948913888),3.97,2,organization
http://www.wikidata.org/entity/Q19898544,Swami Vivekananda Yoga Anusandhana Samsthana,12.948913888889,77.563208333333,Point(77.563208333 12.948913888),3.97,2,deemed university
http://www.wikidata.org/entity/Q19898544,Swami Vivekananda Yoga Anusandhana Samsthana,12.948913888889,77.563208333333,Point(77.563208333 12.948913888),3.97,2,open-access publisher
http://www.wikidata.org/entity/Q16884941,Sri Pralayakala Veerabadrar temple,12.947777777778,77.558055555556,Point(77.558055555 12.947777777),3.973,2,Hindu temple
http://www.wikidata.org/entity/Q63811319,Kalpana Chawla Award,13.018259,77.560054,Point(77.560054 13.018259),3.986,0,award
http://www.wikidata.org/entity/Q111402690,Shangri-La Bengaluru,12.9919,77.58848,Point(77.58848 12.9919),3.994,0,hotel
http://www.wikidata.org/entity/Q30281164,Vokkaligara Sangha Dental College & Hospital,12.954357,77.5724983,Point(77.574737 12.954319),3.994,0,hospital
http://www.wikidata.org/entity/Q30281164,Vokkaligara Sangha Dental College & Hospital,12.954319,77.574737,Point(77.574737 12.954319),3.994,0,hospital
http://www.wikidata.org/entity/Q30281164,Vokkaligara Sangha Dental College & Hospital,12.954357,77.5724983,Point(77.574737 12.954319),3.994,0,college
http://www.wikidata.org/entity/Q30281164,Vokkaligara Sangha Dental College & Hospital,12.954319,77.574737,Point(77.574737 12.954319),3.994,0,college
http://www.wikidata.org/entity/Q30281164,Vokkaligara Sangha Dental College & Hospital,12.954357,77.5724983,Point(77.574737 12.954319),3.994,0,medical organization
http://www.wikidata.org/entity/Q30281164,Vokkaligara Sangha Dental College & Hospital,12.954319,77.574737,Point(77.574737 12.954319),3.994,0,medical organization
http://www.wikidata.org/entity/Q83513118,Mount Carmel PU College,12.9938974,77.5879189,Point(77.5879189 12.9938974),3.996,0,college
http://www.wikidata.org/entity/Q65109682,Vikasa Soudha,12.9783181,77.5892973,Point(77.5892973 12.9783181),3.998,1,building
http://www.wikidata.org/entity/Q111063628,OYO 11683 Hotel YMCA,12.970977,77.587597,Point(77.587597 12.970977),4.012,0,hotel
http://www.wikidata.org/entity/Q16893245,"Kendriya Vidyalaya, IISc Bangalore",13.0186,77.5596,Point(77.5596 13.0186),4.014,0,research institute
http://www.wikidata.org/entity/Q30262919,Indian Institute for Human Settlements,13.006617,77.58089,Point(77.58089 13.006617),4.016,0,educational institution
http://www.wikidata.org/entity/Q30262919,Indian Institute for Human Settlements,13.005645,77.5809,Point(77.58089 13.006617),4.016,0,educational institution
http://www.wikidata.org/entity/Q13112147,"Jawaharlal Nehru Planetarium, Bengaluru",12.984733333333,77.589788888889,Point(77.589788888 12.984733333),4.019,3,planetarium
http://www.wikidata.org/entity/Q84998235,Abbas Khan College For Women,12.9661317,77.5854854,Point(77.5854854 12.9661317),4.021,0,college
http://www.wikidata.org/entity/Q6920020,"Mount Carmel College, Bangalore",12.9930006,77.5885022,Point(77.5885022 12.9930006),4.028,3,educational institution
http://www.wikidata.org/entity/Q6372872,Karnataka Public Works Department,12.97783333,77.58952778,Point(77.58952778 12.97783333),4.03,2,government agency
http://www.wikidata.org/entity/Q5528052,Gavi Gangadhareshwara Temple,12.94819444,77.563,Point(77.563 12.94819444),4.041,5,Hindu temple
http://www.wikidata.org/entity/Q6963333,Nandini Layout,13.01666667,77.53833333,Point(77.53833333 13.01666667),4.042,2,geographical feature
http://www.wikidata.org/entity/Q6732908,Mahalakshmi Layout,13.016666666667,77.538333333333,Point(77.538333333 13.016666666),4.042,2,human settlement
http://www.wikidata.org/entity/Q65984559,"State Bank of India, Malagala Road, Bangalore branch",12.9765,77.5159,Point(77.5159 12.9765),4.058,0,State Bank of India branch
http://www.wikidata.org/entity/Q84014412,Sri Soubhagaya Lalitha College of Nursing,12.9467357,77.5497674,Point(77.5497674 12.9467357),4.059,0,college
http://www.wikidata.org/entity/Q30266688,Udupi Shri Admar Mutt Education Council,13.006719,77.581422,Point(77.581422 13.006719),4.067,0,educational institution
http://www.wikidata.org/entity/Q111063639,OYO 11097 Hotel Grand Arabian,13.019774,77.554715,Point(77.554715 13.019774),4.08,0,hotel
http://www.wikidata.org/entity/Q56437192,statue of Jamsetji Tata,13.0173244,77.5666112,Point(77.5666112 13.0173244),4.089,0,work
http://www.wikidata.org/entity/Q56437192,statue of Jamsetji Tata,13.0173244,77.5666112,Point(77.5666112 13.0173244),4.089,0,monument
http://www.wikidata.org/entity/Q84999207,United Mission Degree College,12.9642034,77.5851435,Point(77.5851435 12.9642034),4.094,0,college
http://www.wikidata.org/entity/Q64935951,Dr Ambedkar Veedhi,12.9797021,77.5903584,Point(77.5903584 12.9797021),4.095,1,road
http://www.wikidata.org/entity/Q18379547,National Military Memorial,12.985521,77.590458,Point(77.590458 12.985521),4.096,2,park
http://www.wikidata.org/entity/Q4866287,Basavanagudi Aquatic Centre,12.951751,77.572703,Point(77.572703 12.951751),4.106,1,swimming center
http://www.wikidata.org/entity/Q56437366,cenotaph in Bangalore,12.9673428,77.5871231,Point(77.5871231 12.9673428),4.119,0,monument
http://www.wikidata.org/entity/Q283257,Vidhana Soudha,12.979693,77.590658,Point(77.590658 12.979693),4.127,9,architectural structure
http://www.wikidata.org/entity/Q7650488,Suvarna Vidhana Soudha,12.9797,77.5907,Point(77.5907 12.9797),4.132,4,architectural structure
http://www.wikidata.org/entity/Q84998277,Bapu College of Education,13.020136,77.5563205,Point(77.5563205 13.020136),4.133,0,college
http://www.wikidata.org/entity/Q111063062,OYO 15358 Hotel Townhall,12.961537,77.583802,Point(77.583802 12.961537),4.135,0,hotel
http://www.wikidata.org/entity/Q111063413,OYO BLR2467 Urban Inn,13.020306833369,77.555533032864,Point(77.555533032 13.020306833),4.145,0,hotel
http://www.wikidata.org/entity/Q111063269,SPOT ON 76191 Sahara Lodge,13.02074,77.554242,Point(77.554242 13.02074),4.185,0,hotel
http://www.wikidata.org/entity/Q7285259,Raj Bhavan,12.982257,77.59136,Point(77.59136 12.982257),4.187,5,building
http://www.wikidata.org/entity/Q111063832,OYO 6516 Chevron Orchards,13.010902,77.578871,Point(77.578871 13.010902),4.19,0,hotel
http://www.wikidata.org/entity/Q7397583,Sadashivanagar,13.009325,77.58055556,Point(77.58055556 13.009325),4.192,2,human settlement
http://www.wikidata.org/entity/Q65984304,"State Bank of India, Srinagar, Bangalore branch",12.9456,77.5489,Point(77.5489 12.9456),4.194,0,State Bank of India branch
http://www.wikidata.org/entity/Q24937604,"Hudson Memorial Church, Bengaluru",12.9674008,77.5879109,Point(77.5879109 12.9674008),4.194,2,church building
http://www.wikidata.org/entity/Q16218065,Bangalore City Lok Sabha constituency,12.967389,77.587959,Point(77.587959 12.967389),4.199,2,Lok Sabha constituency
http://www.wikidata.org/entity/Q126203705,Bangalore Lok Sabha constituency,12.967389,77.587959,Point(77.587959 12.967389),4.199,2,former constituency of the Lok Sabha
http://www.wikidata.org/entity/Q1355,Bengaluru,12.9791198,77.5912997,Point(77.5912997 12.9791198),4.203,154,city
http://www.wikidata.org/entity/Q1355,Bengaluru,12.9791198,77.5912997,Point(77.5912997 12.9791198),4.203,154,megacity
http://www.wikidata.org/entity/Q1355,Bengaluru,12.9791198,77.5912997,Point(77.5912997 12.9791198),4.203,154,global city
http://www.wikidata.org/entity/Q1355,Bengaluru,12.9791198,77.5912997,Point(77.5912997 12.9791198),4.203,154,business cluster
http://www.wikidata.org/entity/Q1355,Bengaluru,12.9791198,77.5912997,Point(77.5912997 12.9791198),4.203,154,big city
http://www.wikidata.org/entity/Q1355,Bengaluru,12.9791198,77.5912997,Point(77.5912997 12.9791198),4.203,154,state capital
http://www.wikidata.org/entity/Q279343,Namma Metro,12.9791198,77.5912997,Point(77.5912997 12.9791198),4.203,23,rapid transit
http://www.wikidata.org/entity/Q299459,Kingfisher Airlines Tennis Open,12.9791198,77.5912997,Point(77.5912997 12.9791198),4.203,17,tennis tournament
http://www.wikidata.org/entity/Q869067,Bangalore International Film Festival,12.9791198,77.5912997,Point(77.5912997 12.9791198),4.203,4,film festival
http://www.wikidata.org/entity/Q105299369,Global Research Online,12.9791198,77.5912997,Point(77.5912997 12.9791198),4.203,0,organization
http://www.wikidata.org/entity/Q111063595,OYO 12985 Sabharwal Viceroy,12.955553,77.579334,Point(77.579334 12.955553),4.209,0,hotel
http://www.wikidata.org/entity/Q64897816,Ambedkar statue,12.9795601,77.5914247,Point(77.5914247 12.9795601),4.211,1,statue
http://www.wikidata.org/entity/Q64897816,Ambedkar statue,12.9795601,77.5914247,Point(77.5914247 12.9795601),4.211,1,memorial
http://www.wikidata.org/entity/Q65038128,K Seshadri Iyer statue,12.973514,77.590362,Point(77.590362 12.973514),4.215,0,statue
http://www.wikidata.org/entity/Q65038128,K Seshadri Iyer statue,12.973514,77.590362,Point(77.590362 12.973514),4.215,0,memorial
http://www.wikidata.org/entity/Q111063713,SPOT ON 48822 Balaji Residency,13.020894,77.556152,Point(77.556152 13.020894),4.215,0,hotel
http://www.wikidata.org/entity/Q84998341,Devanga Sangha First Grade College,12.966297,77.5876245,Point(77.5876245 12.966297),4.219,0,college
http://www.wikidata.org/entity/Q111063567,SPOT ON 80454 Janapriya Lodge,13.021104526696,77.5539890863,Point(77.553989086 13.021104526),4.225,0,hotel
http://www.wikidata.org/entity/Q84998305,Bishop Cotton Women College,12.9623021,77.5854398,Point(77.5854398 12.9623021),4.234,0,college
http://www.wikidata.org/entity/Q111063059,OYO 49249 Pavithraa Deluxe Suites,13.020846,77.558584,Point(77.558584 13.020846),4.241,0,hotel
http://www.wikidata.org/entity/Q5539295,"Dr. B. R. Ambedkar metro station, Vidhana Soudha",12.97874,77.59164,Point(77.59164 12.97874),4.244,3,metro station
http://www.wikidata.org/entity/Q5539295,"Dr. B. R. Ambedkar metro station, Vidhana Soudha",12.97874,77.59164,Point(77.59164 12.97874),4.244,3,underground station
http://www.wikidata.org/entity/Q126598658,Buddha Shanthi Kanive,12.979233333333,77.513638888889,Point(77.513638888 12.979233333),4.258,1,park
http://www.wikidata.org/entity/Q111063357,OYO 12965 Archana INN,12.957795570872,77.582212630659,Point(77.58221263 12.95779557),4.259,0,hotel
http://www.wikidata.org/entity/Q111063134,SPOT ON 65593 Yatra Inn,12.957707024726,77.58218144998,Point(77.582181449 12.957707024),4.263,0,hotel
http://www.wikidata.org/entity/Q53910805,Bangalore Mahanagar Palika Government Hospital,13.021479073656,77.553586136694,Point(77.553586136 13.021479073),4.265,0,hospital
http://www.wikidata.org/entity/Q24912941,National College metro station,12.9506136,77.573736,Point(77.573736 12.9506136),4.272,2,metro station
http://www.wikidata.org/entity/Q24912941,National College metro station,12.9506136,77.573736,Point(77.573736 12.9506136),4.272,2,elevated station
http://www.wikidata.org/entity/Q24939457,United Mission School,12.964219,77.587395,Point(77.587395 12.964219),4.305,2,school
http://www.wikidata.org/entity/Q948720,"Indian Institute of Science, Bengaluru",13.01978,77.56605,Point(77.56605 13.01978),4.323,44,research institute
http://www.wikidata.org/entity/Q948720,"Indian Institute of Science, Bengaluru",13.01978,77.56605,Point(77.56605 13.01978),4.323,44,higher education institution
http://www.wikidata.org/entity/Q6020663,Indian Institute of Nano Science & Technology,13.01978,77.56605,Point(77.56605 13.01978),4.323,1,engineering school
http://www.wikidata.org/entity/Q84999079,Shri Bhaghavan Mahaveer Jain Evening College,12.9496822,77.5730831,Point(77.5730831 12.9496822),4.324,0,college
http://www.wikidata.org/entity/Q111063488,SPOT ON 63724 Sri Krishna Regency,13.0219932,77.5513959,Point(77.5513959 13.0219932),4.324,0,hotel
http://www.wikidata.org/entity/Q4855080,Bangalore Town Hall,12.9581,77.5833,Point(77.5833 12.9581),4.326,4,Rathaus
http://www.wikidata.org/entity/Q85094322,Siddaganga College of Management and Science,13.0104517,77.5242113,Point(77.5242113 13.0104517),4.333,0,college
http://www.wikidata.org/entity/Q111063531,SPOT ON 68841 Ashraya Comforts,13.022104,77.553864,Point(77.553864 13.022104),4.335,0,hotel
http://www.wikidata.org/entity/Q108737122,Vikram Hospital,12.98882,77.59234,Point(77.59234 12.98882),4.338,0,medical organization
http://www.wikidata.org/entity/Q111063223,OYO 6173 Udupi Park Inn,13.022182,77.553589,Point(77.553589 13.022182),4.343,0,hotel
http://www.wikidata.org/entity/Q104755615,Attara Kacheri,12.978055555556,77.5925,Point(77.5925 12.978055555),4.346,2,building
http://www.wikidata.org/entity/Q104755615,Attara Kacheri,12.978055555556,77.5925,Point(77.5925 12.978055555),4.346,2,civic building
http://www.wikidata.org/entity/Q111063699,OYO 22471 Middle East Residency,13.022168,77.554851,Point(77.554851 13.022168),4.347,0,hotel
http://www.wikidata.org/entity/Q84014454,The Bangalore Social Social College of Nursing,12.9571111,77.5227499,Point(77.5227499 12.9571111),4.35,0,college
http://www.wikidata.org/entity/Q111063362,OYO 62496 Srigandha Party Hall,12.987294224479,77.512770406902,Point(77.512770406 12.987294224),4.354,0,hotel
http://www.wikidata.org/entity/Q2443381,Karnataka High Court,12.977836,77.592572,Point(77.592572 12.977836),4.357,10,court
http://www.wikidata.org/entity/Q111063226,OYO 80174 Prakrathi Grand,12.95447650839,77.580191586167,Point(77.580191586 12.954476508),4.359,0,hotel
http://www.wikidata.org/entity/Q6973066,"National High School, Basavanagudi",12.9491,77.5728,Point(77.5728 12.9491),4.364,3,high school
http://www.wikidata.org/entity/Q111063117,OYO 14424 Saarang Forever,13.022339,77.555008,Point(77.555008 13.022339),4.367,0,hotel
http://www.wikidata.org/entity/Q111063666,SPOT ON 76312 Sri Balaji Comforts,12.957325721429,77.583175376058,Point(77.583175376 12.957325721),4.372,0,hotel
http://www.wikidata.org/entity/Q6389070,"Kendriya Vidyalaya Hebbal, Bangalore",13.01555556,77.57583333,Point(77.57583333 13.01555556),4.389,4,school
http://www.wikidata.org/entity/Q30270609,Vivus Heart Hospital,12.989647,77.592755,Point(77.592755 12.989647),4.397,0,hospital
http://www.wikidata.org/entity/Q30270609,Vivus Heart Hospital,12.989647,77.592755,Point(77.592755 12.989647),4.397,0,medical organization
http://www.wikidata.org/entity/Q8052904,Yesvantpur Junction railway station,13.022839,77.551174,Point(77.551174 13.022839),4.418,5,railway station
http://www.wikidata.org/entity/Q8052904,Yesvantpur Junction railway station,13.022839,77.551174,Point(77.551174 13.022839),4.418,5,station located on surface
http://www.wikidata.org/entity/Q111063667,SPOT ON 78462 A Class Suites,13.022711992665,77.556661237031,Point(77.556661237 13.022711992),4.422,0,hotel
http://www.wikidata.org/entity/Q84998666,"Jain College, V.V. Puram",12.9496062,77.5747708,Point(77.5747708 12.9496062),4.427,0,college
http://www.wikidata.org/entity/Q84014073,Government College of Pharmacy,12.96219,77.5875973,Point(77.5875973 12.96219),4.438,0,college
http://www.wikidata.org/entity/Q111117637,Springs Hotel and Spa,12.956688,77.58348,Point(77.583453 12.956667),4.443,0,hotel
http://www.wikidata.org/entity/Q111117637,Springs Hotel and Spa,12.956667,77.583453,Point(77.583453 12.956667),4.443,0,hotel
http://www.wikidata.org/entity/Q111117637,Springs Hotel and Spa,12.956688,77.58348,Point(77.58348 12.956688),4.444,0,hotel
http://www.wikidata.org/entity/Q111117637,Springs Hotel and Spa,12.956667,77.583453,Point(77.58348 12.956688),4.444,0,hotel
http://www.wikidata.org/entity/Q84999209,Vasavi Vidyaniketana Evening College,12.948646,77.5736154,Point(77.5736154 12.948646),4.452,0,college
http://www.wikidata.org/entity/Q16904094,Yeshwanthpur metro station,13.0232,77.5499,Point(77.5499 13.0232),4.466,2,metro station
http://www.wikidata.org/entity/Q16904094,Yeshwanthpur metro station,13.0232,77.5499,Point(77.5499 13.0232),4.466,2,elevated station
http://www.wikidata.org/entity/Q6365381,Kanteerava Indoor Stadium,12.968819,77.591308,Point(77.591308 12.968819),4.473,4,stadium
http://www.wikidata.org/entity/Q111063235,Capital O 70534 Habitat Suites And Rooms,13.023371,77.552831,Point(77.552831 13.023371),4.474,0,hotel
http://www.wikidata.org/entity/Q84014372,Sofia College of Nursing,12.9715987,77.592374,Point(77.592374 12.9715987),4.483,0,college
http://www.wikidata.org/entity/Q111063321,OYO 14520 Habitat Hotel & Suites,13.023513,77.552734,Point(77.552734 13.023513),4.49,0,hotel
http://www.wikidata.org/entity/Q3633776,Cubbon Park,12.975,77.593333333333,Point(77.593333333 12.975),4.491,12,park
http://www.wikidata.org/entity/Q30286577,HCG Cancer Hospital,12.964593215726,77.589608182282,Point(77.589608182 12.964593215),4.496,0,hospital
http://www.wikidata.org/entity/Q30286577,HCG Cancer Hospital,12.964593215726,77.589608182282,Point(77.589608182 12.964593215),4.496,0,medical organization
http://www.wikidata.org/entity/Q111861994,The Capitol,12.98213,77.59429,Point(77.59429 12.98213),4.504,0,hotel
http://www.wikidata.org/entity/Q104843630,Jayamahal,13.003,77.589,Point(77.589 13.003),4.508,2,former constituency of the Karnataka Legislative Assembly
http://www.wikidata.org/entity/Q111063670,Spot On 23032 New Hotel Mayur Paradise,13.023498,77.556946,Point(77.556946 13.023498),4.512,0,hotel
http://www.wikidata.org/entity/Q1259644,Raman Research Institute,13.01291944,77.58105,Point(77.58105 13.01291944),4.515,13,research institute
http://www.wikidata.org/entity/Q1259644,Raman Research Institute,13.01291944,77.58105,Point(77.58105 13.01291944),4.515,13,academic institution
http://www.wikidata.org/entity/Q111063349,OYO 73485 Krishna Comfort K,13.023776,77.557013,Point(77.557013 13.023776),4.543,0,hotel
http://www.wikidata.org/entity/Q19457916,"Cunningham Road, Bangalore",12.987694,77.594465,Point(77.594465 12.987694),4.55,2,street
http://www.wikidata.org/entity/Q73864533,"Canara Bank, Nagarbhavi Ii Stage, Bangalore Branch",12.98028,77.51083,Point(77.51083 12.98028),4.551,0,Canara Bank branch
http://www.wikidata.org/entity/Q84014105,Indian Institute Ayurvedic Medical College,13.0021805,77.5900168,Point(77.5900168 13.0021805),4.561,0,college
http://www.wikidata.org/entity/Q111861979,Comfort Inn Insys,13.02395,77.55715,Point(77.55715 13.02395),4.564,0,hotel
http://www.wikidata.org/entity/Q84999166,Smt. Kamala Bai Degree College,12.9871916,77.5946874,Point(77.5946874 12.9871916),4.568,0,college
http://www.wikidata.org/entity/Q2095533,Indian Academy of Sciences,13.01442,77.58011,Point(77.58011 13.01442),4.572,14,academy of sciences
http://www.wikidata.org/entity/Q2095533,Indian Academy of Sciences,13.01442,77.58011,Point(77.58011 13.01442),4.572,14,open-access publisher
http://www.wikidata.org/entity/Q22330294,Statue of Edward VII,12.9802988,77.5949334,Point(77.5949334 12.9802988),4.583,2,statue
http://www.wikidata.org/entity/Q49006234,Q49006234,13.0125,77.5825,Point(77.5825 13.0125),4.59,1,monument
http://www.wikidata.org/entity/Q84014055,Gayathri College of Nursing,12.9844653,77.5103604,Point(77.5103604 12.9844653),4.593,0,college
http://www.wikidata.org/entity/Q6365386,Kanteerava Studios,13.019796079473,77.533196609436,Point(77.533196609 13.019796079),4.593,3,film studio
http://www.wikidata.org/entity/Q3520057,Bengaluru Palace,12.998529,77.592103,Point(77.592103 12.998529),4.597,9,palace
http://www.wikidata.org/entity/Q111063757,Capital O 79690 Hotel Metro View Inn,12.947626935772,77.530953604728,Point(77.530953604 12.947626935),4.599,0,hotel
http://www.wikidata.org/entity/Q111063654,OYO 22836 Hotel Amster Inn,12.947654219635,77.530842125416,Point(77.530842125 12.947654219),4.603,0,hotel
http://www.wikidata.org/entity/Q111402691,Fortune Select JP Cosmos - Member ITC Hotel Group,12.989707,77.59472,Point(77.59472 12.989707),4.608,0,hotel
http://www.wikidata.org/entity/Q19459480,"Kasturba Road, Bangalore",12.971907,77.593679,Point(77.593679 12.971907),4.609,1,human settlement
http://www.wikidata.org/entity/Q6958544,Nagarbhavi,12.958138888889,77.518761111111,Point(77.518761111 12.958138888),4.612,2,neighborhood
http://www.wikidata.org/entity/Q6958544,Nagarbhavi,12.958138888889,77.518761111111,Point(77.518761111 12.958138888),4.612,2,human settlement
http://www.wikidata.org/entity/Q111601043,VasanthaNagar,12.99145,77.59444,Point(77.59444 12.99145),4.613,0,human settlement
http://www.wikidata.org/entity/Q84999015,P.E.S. Evening College,12.9416168,77.5517583,Point(77.5517583 12.9416168),4.617,0,college
http://www.wikidata.org/entity/Q84998307,B.M.S. College For Womens,12.944272,77.5678054,Point(77.5678054 12.944272),4.619,0,college
http://www.wikidata.org/entity/Q52843718,Sparsh Hospital,12.993456,77.594028,Point(77.594028 12.993456),4.619,0,hospital
http://www.wikidata.org/entity/Q52843718,Sparsh Hospital,12.993456,77.594028,Point(77.594028 12.993456),4.619,0,medical organization
http://www.wikidata.org/entity/Q5564283,Girinagar,12.9421,77.5456,Point(77.5456 12.9421),4.627,4,human settlement
http://www.wikidata.org/entity/Q84014261,PES College of Pharmacy,12.9415213,77.552163,Point(77.552163 12.9415213),4.627,0,college
http://www.wikidata.org/entity/Q111402693,Citrus Cunningham Road,12.98614,77.5955,Point(77.5955 12.98614),4.646,0,hotel
http://www.wikidata.org/entity/Q7585638,Sree Kanteerava Stadium,12.969556,77.593469,Point(77.593469 12.969556),4.665,16,stadium
http://www.wikidata.org/entity/Q65984741,"State Bank of India, Girinagar 3rd Phase, Bangalore branch",12.9424,77.5422,Point(77.5422 12.9424),4.67,0,State Bank of India branch
http://www.wikidata.org/entity/Q111063319,OYO 8385 Udupi Inn,13.02516,77.557457,Point(77.557457 13.02516),4.701,0,hotel
http://www.wikidata.org/entity/Q108737469,Bhagwan Mahaveer Jain Hospital,12.99179,77.59526,Point(77.59526 12.99179),4.707,0,medical organization
http://www.wikidata.org/entity/Q111402713,JW Marriott Hotel Bengaluru,12.97245,77.59479,Point(77.59479 12.97245),4.709,0,hotel
http://www.wikidata.org/entity/Q4678378,Adagodi,12.9715987,77.5945627,Point(77.5945627 12.9715987),4.71,5,village in India
http://www.wikidata.org/entity/Q19898480,"St. Pauls Church, Bangalore",12.9716,77.5946,Point(77.5946 12.9716),4.714,2,church building
http://www.wikidata.org/entity/Q3595524,UB City,12.9726,77.5949,Point(77.5949 12.9726),4.717,3,commercial property
http://www.wikidata.org/entity/Q84998301,Bharath Matha Womens College,12.9413195,77.5602739,Point(77.5602739 12.9413195),4.72,0,college
http://www.wikidata.org/entity/Q6794121,Mavalli Tiffin Room,12.955163888889,77.585537777778,Point(77.585537777 12.955163888),4.723,5,business
http://www.wikidata.org/entity/Q5589028,"Government Pharmacy College, Bangalore",12.96210833,77.59063611,Point(77.59063611 12.96210833),4.726,2,college
http://www.wikidata.org/entity/Q111063561,Capital O 76460 Rk Grand,13.021817939703,77.534577269107,Point(77.534577269 13.021817939),4.73,0,hotel
http://www.wikidata.org/entity/Q23838580,Mysore Road metro station,12.9467266,77.5300737,Point(77.5300737 12.9467266),4.734,2,metro station
http://www.wikidata.org/entity/Q23838580,Mysore Road metro station,12.9467266,77.5300737,Point(77.5300737 12.9467266),4.734,2,elevated station
http://www.wikidata.org/entity/Q55454414,Stempeutics (India),12.972307,77.595025,Point(77.595025 12.972307),4.738,0,business
http://www.wikidata.org/entity/Q4702181,Al-Ameen College of Education,12.9535306,77.5842786,Point(77.5842786 12.9535306),4.745,1,university
http://www.wikidata.org/entity/Q84968809,"Al-ameen College of Law, Bangalore",12.9535306,77.5842786,Point(77.5842786 12.9535306),4.745,0,college
http://www.wikidata.org/entity/Q73861099,"Canara Bank, Giri Nagar,Bangalore Branch",12.94098,77.54581,Point(77.54581 12.94098),4.746,0,Canara Bank branch
http://www.wikidata.org/entity/Q85093907,D.V.S. Shilpashree Degree Evening College,12.985918,77.5089823,Point(77.5089823 12.985918),4.75,0,college
http://www.wikidata.org/entity/Q65403049,Agara inscription,12.974773,77.595795,Point(77.595795 12.974773),4.758,1,inscription
http://www.wikidata.org/entity/Q65403363,Krishnarajpura herostone inscription,12.974773,77.595795,Point(77.595795 12.974773),4.758,1,inscription
http://www.wikidata.org/entity/Q99440067,Saddarmangala Batayi land inscription,12.974773,77.595795,Point(77.595795 12.974773),4.758,0,inscription
http://www.wikidata.org/entity/Q99454901,Nageshwara temple inscription of 890 AD,12.974773,77.595795,Point(77.595795 12.974773),4.758,0,inscription
http://www.wikidata.org/entity/Q372869,"Government Museum, Bengaluru",12.9747,77.5958,Point(77.5958 12.9747),4.76,5,museum
http://www.wikidata.org/entity/Q111063764,OYO 78474 Usuru Comforts,13.0218299,77.5338967,Point(77.5338967 13.0218299),4.762,0,hotel
http://www.wikidata.org/entity/Q85094005,M Basavaiah Institute of Management Studies,12.9822006,77.508731,Point(77.508731 12.9822006),4.768,0,college
http://www.wikidata.org/entity/Q111063769,SPOT ON 47801 S.G Comforts,13.022009686653,77.534155827016,Point(77.534155827 13.022009686),4.768,0,hotel
http://www.wikidata.org/entity/Q74164660,"ICICI Bank Limited, Nagarbhavi branch",12.97364,77.5098,Point(77.5098 12.97364),4.77,0,ICICI Bank branch
http://www.wikidata.org/entity/Q4833841,B.M.S. College of Engineering,12.942138888889,77.565833333333,Point(77.565833333 12.942138888),4.774,5,engineering school
http://www.wikidata.org/entity/Q1531614,Dodda Ganeshana Gudi,12.94289444,77.56820833,Point(77.56820833 12.94289444),4.778,8,Hindu temple
http://www.wikidata.org/entity/Q63329150,"Consulate-General of Japan, Bengaluru",12.982611111111,77.596833333333,Point(77.596833333 12.982611111),4.779,2,consulate general
http://www.wikidata.org/entity/Q7943137,Vrishabhavathi River,12.942777777778,77.568055555556,Point(77.568055555 12.942777777),4.784,5,river
http://www.wikidata.org/entity/Q111402719,Ibis Bengaluru City Centre,12.967349,77.593826,Point(77.593826 12.967349),4.786,0,hotel
http://www.wikidata.org/entity/Q84014383,Sri Basavaraja Swamy College of Nursing,13.0099795,77.5180551,Point(77.5180551 13.0099795),4.798,0,college
http://www.wikidata.org/entity/Q111063322,OYO 18626 Royal Residency,13.021636524294,77.5327495,Point(77.5327495 13.021636524),4.798,0,hotel
http://www.wikidata.org/entity/Q111063224,OYO 25121 Bns Lodge,12.944389,77.57237,Point(77.57237 12.944389),4.805,0,hotel
http://www.wikidata.org/entity/Q111063797,OYO 46067 Sree Lakshmi Residency,13.026097,77.557642,Point(77.557642 13.026097),4.807,0,hotel
http://www.wikidata.org/entity/Q111063289,OYO 38410 Hotel Hsr Comforts,13.022105560639,77.533510588109,Point(77.533510588 13.02210556),4.808,0,hotel
http://www.wikidata.org/entity/Q65987575,"State Bank of India, Banashankari Bangalore branch",12.9404,77.5455,Point(77.5455 12.9404),4.815,0,State Bank of India branch
http://www.wikidata.org/entity/Q3537014,Visvesvaraya Industrial and Technological Museum,12.9751,77.5964,Point(77.5964 12.9751),4.815,6,science museum
http://www.wikidata.org/entity/Q7589194,St. Joseph's Indian High School,12.969625,77.59501389,Point(77.59501389 12.969625),4.821,1,secondary school
http://www.wikidata.org/entity/Q111063380,OYO 78266 Collection O Sathyajyothi Comforts,12.939981,77.547602,Point(77.547602 12.939981),4.83,0,hotel
http://www.wikidata.org/entity/Q52856709,Karnataka Medical Council,12.991914,77.596458,Point(77.596458 12.991914),4.837,0,government agency
http://www.wikidata.org/entity/Q84013964,B M S Hospital College of Nursing,12.9412583,77.5650818,Point(77.5650818 12.9412583),4.844,0,college
http://www.wikidata.org/entity/Q111462406,Minsk Square,12.9808948,77.5973998,Point(77.5973998 12.9808948),4.846,1,square
http://www.wikidata.org/entity/Q55454352,Lotus Labs (India),12.990496,77.596825,Point(77.596825 12.990496),4.847,0,business
http://www.wikidata.org/entity/Q38251941,"St. Joseph's Community College, Bangalore",12.96923889,77.59515278,Point(77.59515278 12.96923889),4.849,1,university
http://www.wikidata.org/entity/Q111063340,Collection O 13595 VT Residency,12.9553276,77.5872216,Point(77.5872216 12.9553276),4.85,0,hotel
http://www.wikidata.org/entity/Q84998259,Anugraha B.Ed. College,12.9399378,77.5463954,Point(77.5463954 12.9399378),4.851,0,college
http://www.wikidata.org/entity/Q5192189,Cubbon Park metro station,12.9809006,77.5974655,Point(77.5974655 12.9809006),4.853,3,metro station
http://www.wikidata.org/entity/Q5192189,Cubbon Park metro station,12.9809006,77.5974655,Point(77.5974655 12.9809006),4.853,3,underground station
http://www.wikidata.org/entity/Q65404751,Doddabasavana temple basement inscription,12.942058,77.568051,Point(77.568051 12.942058),4.859,1,inscription
http://www.wikidata.org/entity/Q17060179,"Kumara Swamy Devasthana, Bangalore",12.940467,77.562578,Point(77.562578 12.940467),4.862,3,Hindu temple
http://www.wikidata.org/entity/Q85787143,Museum of Art & Photography,12.974549,77.596832,Point(77.596832 12.974549),4.873,2,museum
http://www.wikidata.org/entity/Q83513446,Vogue Institute of Fashion Technology,12.9648546,77.5936073,Point(77.5936073 12.9648546),4.873,0,college
http://www.wikidata.org/entity/Q4702185,Al-Ameen College of Pharmacy,12.9542,77.5866,Point(77.5866 12.9542),4.88,2,college
http://www.wikidata.org/entity/Q4702184,Al-Ameen College of Law,12.9544,77.5868,Point(77.5868 12.9544),4.882,2,higher education institution
http://www.wikidata.org/entity/Q111063301,Oyo Townhouse 251 Richmond Circle,12.966731872547,77.594690099359,Point(77.594690099 12.966731872),4.898,0,hotel
http://www.wikidata.org/entity/Q111063759,OYO 5590 Ujwal Residency,13.0269386,77.5581728,Point(77.5581728 13.0269386),4.907,0,hotel
http://www.wikidata.org/entity/Q111402714,Oakwood Premier Prestige Bangalore,12.97198,77.59663,Point(77.59663 12.97198),4.915,0,hotel
http://www.wikidata.org/entity/Q3067635,National Law School of India University,12.955149,77.517305,Point(77.517305 12.955149),4.941,10,law school
http://www.wikidata.org/entity/Q3067635,National Law School of India University,12.955149,77.517305,Point(77.517305 12.955149),4.941,10,academic department
http://www.wikidata.org/entity/Q65005928,"The Glass House, Lal Bagh Botanical Gardens",12.950267,77.5835211,Point(77.5835211 12.950267),4.948,1,event venue
http://www.wikidata.org/entity/Q111063169,OYO Flagship 18793 Prasad Residency,13.026903,77.54404,Point(77.54404 13.026903),4.957,0,hotel
http://www.wikidata.org/entity/Q111402720,"ITC Gardenia, a Luxury Collection Hotel, Bengaluru",12.96697,77.59556,Point(77.59556 12.96697),4.976,0,hotel
http://www.wikidata.org/entity/Q111063057,Collection O 13901 Trishul Paradise,13.027663,77.558575,Point(77.558575 13.027663),4.992,0,hotel
http://www.wikidata.org/entity/Q84999055,RVD College of Management and Information Technology,12.938187,77.553957,Point(77.553957 12.938187),4.999,0,college
http://www.wikidata.org/entity/Q84998238,Acharya Patashala College of Arts and Science,12.9398251,77.5654434,Point(77.5654434 12.9398251),5.008,0,college
http://www.wikidata.org/entity/Q4702192,Al-Ameen Pre University College,12.9533,77.5874,Point(77.5874 12.9533),5.011,0,university
http://www.wikidata.org/entity/Q84014392,"Srilakshmi College of Nursing, Bangalore",12.9873788,77.5066814,Point(77.5066814 12.9873788),5.012,0,college
http://www.wikidata.org/entity/Q31502,Bengaluru Aquarium,12.9765,77.5985,Point(77.5985 12.9765),5.014,5,public aquarium
http://www.wikidata.org/entity/Q111063237,OYO 3023 Compact Suites,12.9684116,77.5965254,Point(77.5965254 12.9684116),5.02,0,hotel
http://www.wikidata.org/entity/Q48726783,Basavanagudi Vidhan Sabha constituency,12.942,77.572,Point(77.572 12.942),5.027,4,constituency of the Karnataka Legislative Assembly
http://www.wikidata.org/entity/Q84998685,Kanaka College of Management Studies and Science,12.9380462,77.5562701,Point(77.5562701 12.9380462),5.028,0,college
http://www.wikidata.org/entity/Q22116770,Statue of Queen Victoria,12.9768354,77.5988017,Point(77.5988017 12.9768354),5.041,2,statue
http://www.wikidata.org/entity/Q22116770,Statue of Queen Victoria,12.9768354,77.5988017,Point(77.5988017 12.9768354),5.041,2,memorial
http://www.wikidata.org/entity/Q111063449,OYO 74173 Shree Ganesh Regency,12.941414162594,77.571111135185,Point(77.571111135 12.941414162),5.048,0,hotel
http://www.wikidata.org/entity/Q111063836,SPOT ON 73789 Hotel Grand Residency,12.954650857479,77.589014880359,Point(77.58901488 12.954650857),5.048,0,hotel
http://www.wikidata.org/entity/Q15260447,Muthyalanagar,13.0285,77.555,Point(77.555 13.0285),5.051,1,neighborhood
http://www.wikidata.org/entity/Q39045921,Lalbagh metro station,12.9462868,77.5800613,Point(77.5800613 12.9462868),5.055,1,metro station
http://www.wikidata.org/entity/Q39045921,Lalbagh metro station,12.9462868,77.5800613,Point(77.5800613 12.9462868),5.055,1,elevated station
http://www.wikidata.org/entity/Q4673540,Acharya Pathasala Public School,12.94011,77.567938,Point(77.567938 12.94011),5.059,1,university
http://www.wikidata.org/entity/Q84014479,Vijayanagar College of Nursing,12.9587815,77.513284,Point(77.513284 12.9587815),5.059,0,college
http://www.wikidata.org/entity/Q17068593,Lavelle Road,12.9711522,77.5978612,Point(77.5978612 12.9711522),5.068,1,human settlement
http://www.wikidata.org/entity/Q29026994,Jayamahal Palace Hotel,12.997,77.5974,Point(77.59747 12.99669),5.076,3,hotel
http://www.wikidata.org/entity/Q29026994,Jayamahal Palace Hotel,12.99669,77.59747,Point(77.59747 12.99669),5.076,3,hotel
http://www.wikidata.org/entity/Q29026994,Jayamahal Palace Hotel,12.997,77.5974,Point(77.59747 12.99669),5.076,3,building
http://www.wikidata.org/entity/Q29026994,Jayamahal Palace Hotel,12.99669,77.59747,Point(77.59747 12.99669),5.076,3,building
http://www.wikidata.org/entity/Q29026994,Jayamahal Palace Hotel,12.997,77.5974,Point(77.5974 12.997),5.08,3,hotel
http://www.wikidata.org/entity/Q29026994,Jayamahal Palace Hotel,12.99669,77.59747,Point(77.5974 12.997),5.08,3,hotel
http://www.wikidata.org/entity/Q29026994,Jayamahal Palace Hotel,12.997,77.5974,Point(77.5974 12.997),5.08,3,building
http://www.wikidata.org/entity/Q29026994,Jayamahal Palace Hotel,12.99669,77.59747,Point(77.5974 12.997),5.08,3,building
http://www.wikidata.org/entity/Q50040194,Institute of Public Health,12.937811944444,77.546566944444,Point(77.546566944 12.937811944),5.083,0,nonprofit organization
http://www.wikidata.org/entity/Q5320606,Yeswanthpur,13.0285,77.54625,Point(77.54625 13.0285),5.093,5,suburb
http://www.wikidata.org/entity/Q1861907,M. Chinnaswamy Stadium,12.978806,77.599556,Point(77.599556 12.978806),5.096,17,cricket field
http://www.wikidata.org/entity/Q111063683,OYO 4691 Sai Comforts,13.02809,77.56186,Point(77.56186 13.02809),5.096,0,hotel
http://www.wikidata.org/entity/Q4853948,Banashankari,12.9373,77.5543,Point(77.5543 12.9373),5.099,4,suburb
http://www.wikidata.org/entity/Q4616719,2010 Bangalore stadium bombing,12.9788,77.5996,Point(77.5996 12.9788),5.101,1,bomb attack
http://www.wikidata.org/entity/Q111601530,Cantonment,12.99435,77.59839,Point(77.59839 12.99435),5.102,0,neighborhood
http://www.wikidata.org/entity/Q7509848,Siege of Bangalore,12.969907,77.597963,Point(77.597963 12.969907),5.117,2,siege
http://www.wikidata.org/entity/Q85094630,"Surana College, Peenya",13.021187,77.5261473,Point(77.5261473 13.021187),5.119,0,college
http://www.wikidata.org/entity/Q111063151,CAPITAL O75993 Hotel Shanti Nivas,13.0285579,77.5450258,Point(77.5450258 13.0285579),5.12,0,hotel
http://www.wikidata.org/entity/Q111063840,OYO 16585 Venkat Presidency,13.02861,77.545025,Point(77.545025 13.02861),5.125,0,hotel
http://www.wikidata.org/entity/Q85093967,Karunya First Grade College,12.9929813,77.5063468,Point(77.5063468 12.9929813),5.143,0,college
http://www.wikidata.org/entity/Q111402694,Regenta Place,12.98433,77.60021,Point(77.60021 12.98433),5.146,0,hotel
http://www.wikidata.org/entity/Q1531304,Basavanagudi,12.94,77.57,Point(77.57 12.94),5.148,6,Vorort
http://www.wikidata.org/entity/Q4986214,Bugle Rock,12.94,77.57,Point(77.57 12.94),5.148,3,human settlement
http://www.wikidata.org/entity/Q111601523,TV Station,13.00968,77.59176,Point(77.59176 13.00968),5.157,0,human settlement
http://www.wikidata.org/entity/Q84014190,Matru College of Nursing,12.9828119,77.5050456,Point(77.5050456 12.9828119),5.167,0,college
http://www.wikidata.org/entity/Q84014223,Netrajyothi College of Health Sciences,12.9377108,77.5629329,Point(77.5629329 12.9377108),5.17,0,college
http://www.wikidata.org/entity/Q111063724,OYO 12024 Sree Nandanam Residency,13.029222,77.559194,Point(77.559194 13.029222),5.173,0,hotel
http://www.wikidata.org/entity/Q17049564,Bengaluru Cantt railway station,12.9936735,77.5993269,Point(77.5993269 12.9936735),5.183,5,railway station
http://www.wikidata.org/entity/Q17049564,Bengaluru Cantt railway station,12.9936735,77.5993269,Point(77.5993269 12.9936735),5.183,5,station located on surface
http://www.wikidata.org/entity/Q17100227,Goraguntepalya,13.0284805,77.5408622,Point(77.5408622 13.0284805),5.204,2,metro station
http://www.wikidata.org/entity/Q17100227,Goraguntepalya,13.0284805,77.5408622,Point(77.5408622 13.0284805),5.204,2,elevated station
http://www.wikidata.org/entity/Q84999059,Sambram Academi of Management Studies,13.0276822,77.5374674,Point(77.5374674 13.0276822),5.222,0,college
http://www.wikidata.org/entity/Q7893600,"United Theological College, Bangalore",12.99621,77.59912,Point(77.59912 12.99621),5.232,2,seminary
http://www.wikidata.org/entity/Q84999056,R.V (rashtreeya Vidyalaya) Teachers College,12.9431834,77.578422,Point(77.578422 12.9431834),5.242,0,college
http://www.wikidata.org/entity/Q4917523,Bishop Cotton Boys' School,12.96861111,77.59877778,Point(77.59877778 12.96861111),5.244,3,school
http://www.wikidata.org/entity/Q4917523,Bishop Cotton Boys' School,12.96861111,77.59877778,Point(77.59877778 12.96861111),5.244,3,boarding school
http://www.wikidata.org/entity/Q111063622,OYO Flagship 83384 Vijaya Grand,12.96924520419,77.506312150508,Point(77.50631215 12.969245204),5.261,0,hotel
http://www.wikidata.org/entity/Q111063243,OYO 66437 Champion Grand,12.960818,77.509854,Point(77.509854 12.960818),5.267,0,hotel
http://www.wikidata.org/entity/Q111063415,SPOT ON 36102 Akshara Regency,13.0300799,77.5592931,Point(77.5592931 13.0300799),5.269,0,hotel
http://www.wikidata.org/entity/Q16281719,"Sree Dandu Mariamman Temple, Bangalore",12.984722222222,77.601388888889,Point(77.601388888 12.984722222),5.275,2,Hindu temple
http://www.wikidata.org/entity/Q111063131,SPOT ON 47477 Hotel Maurya Paradise Inn,13.0296464,77.5623876,Point(77.5623876 13.0296464),5.277,0,hotel
http://www.wikidata.org/entity/Q111402673,Taj Yeshwantpur Bengaluru,13.02906,77.54044,Point(77.54044 13.02906),5.278,0,hotel
http://www.wikidata.org/entity/Q111063774,OYO 76339 Sai Orchid,13.030173289514,77.55950069055,Point(77.55950069 13.030173289),5.282,0,hotel
http://www.wikidata.org/entity/Q55435064,Yeshvanthapura Vidhan Sabha constituency,13.029,77.54,Point(77.54 13.029),5.283,4,constituency of the Karnataka Legislative Assembly
http://www.wikidata.org/entity/Q30271575,Bempu,12.962022,77.596486,Point(77.596486 12.962022),5.29,0,nonprofit organization
http://www.wikidata.org/entity/Q111063056,OYO 12083 Hotel Champion Inn,13.030244008817,77.559736892581,Point(77.559736892 13.030244008),5.293,0,hotel
http://www.wikidata.org/entity/Q111861977,Sanctum Suites BEL Road Bangalore,13.02502,77.57614,Point(77.57614 13.02502),5.303,0,hotel
http://www.wikidata.org/entity/Q111402721,The Chancery Pavilion,12.96605,77.59846,Point(77.59846 12.96605),5.306,0,hotel
http://www.wikidata.org/entity/Q24590299,M S Ramaiah University of Applied Sciences,13.028580555556,77.567786111111,Point(77.567786111 13.028580555),5.31,1,private university
http://www.wikidata.org/entity/Q7589124,"St Joseph's College, Bengaluru",12.9627,77.5971,Point(77.5971 12.9627),5.317,3,college
http://www.wikidata.org/entity/Q7589147,St. Joseph's College of Commerce,12.9627,77.5971,Point(77.5971 12.9627),5.317,2,college
http://www.wikidata.org/entity/Q7589147,St. Joseph's College of Commerce,12.9627,77.5971,Point(77.5971 12.9627),5.317,2,academic institution
http://www.wikidata.org/entity/Q6973599,National Institute of Advanced Studies,13.029833,77.563276,Point(77.563276 13.029833),5.317,6,institute
http://www.wikidata.org/entity/Q85094227,"NRI Institute, Papareddypalya",12.9698915,77.5055612,Point(77.5055612 12.9698915),5.318,0,college
http://www.wikidata.org/entity/Q26793790,LalBagh,12.94848,77.58657,Point(77.58657 12.94848),5.319,1,park
http://www.wikidata.org/entity/Q111861978,Four Seasons Hotel Bengaluru at Embassy ONE,13.01978,77.58428,Point(77.58428 13.01978),5.319,0,hotel
http://www.wikidata.org/entity/Q84014201,"M S Ramaiah Institute of Nursing Sciences, Education & Research",13.0290016,77.5667611,Point(77.5667611 13.0290016),5.322,0,college
http://www.wikidata.org/entity/Q104861781,Ritz-Carlton Bangalore,12.97,77.6,Point(77.6 12.97),5.326,1,hotel
http://www.wikidata.org/entity/Q104861781,Ritz-Carlton Bangalore,12.9676,77.60154,Point(77.6 12.97),5.326,1,hotel
http://www.wikidata.org/entity/Q30262881,Church of South India Hospital,12.990883,77.601251,Point(77.601251 12.990883),5.327,0,hospital
http://www.wikidata.org/entity/Q30262881,Church of South India Hospital,12.990883,77.601251,Point(77.601251 12.990883),5.327,0,medical organization
http://www.wikidata.org/entity/Q84013966,Bowring And Lady Curzon Medical College And Research Institute,12.9826804,77.6019566,Point(77.6019566 12.9826804),5.334,0,college
http://www.wikidata.org/entity/Q111402725,Adarsh Hamilton,12.964481,77.59809,Point(77.59809 12.964481),5.334,0,hotel
http://www.wikidata.org/entity/Q111063464,Capital O 23481 Rmv Savera Hotels,13.030338408674,77.562158927321,Point(77.562158927 13.030338408),5.348,0,hotel
http://www.wikidata.org/entity/Q66769515,Corporation Bank Bangalore - Nagarbhavi branch,12.9623,77.5082,Point(77.5082 12.9623),5.352,0,Corporation Bank branch
http://www.wikidata.org/entity/Q111063481,Collection O 81290 Visitors Comfort,13.030142877453,77.563361059874,Point(77.563361059 13.030142877),5.353,0,hotel
http://www.wikidata.org/entity/Q111600967,ShantiNagar,12.95469,77.59268,Point(77.59268 12.95469),5.361,0,human settlement
http://www.wikidata.org/entity/Q112003316,Nahar Heritage Hotel,12.9711669,77.6006778,Point(77.6006778 12.9711669),5.363,0,hotel
http://www.wikidata.org/entity/Q7489090,Shantinagar Bus Station,12.95426944,77.59240278,Point(77.59240278 12.95426944),5.364,1,bus station
http://www.wikidata.org/entity/Q84998634,GRV Business Management Academy,13.021549,77.5826943,Point(77.5826943 13.021549),5.365,0,college
http://www.wikidata.org/entity/Q111862003,Melange Astris,12.96464,77.59848,Point(77.59848 12.96464),5.366,0,hotel
http://www.wikidata.org/entity/Q30270051,M S Ramaiah Memorial Hospital,13.028545,77.569479,Point(77.569479 13.028545),5.366,0,hospital
http://www.wikidata.org/entity/Q30270051,M S Ramaiah Memorial Hospital,13.028545,77.569479,Point(77.569479 13.028545),5.366,0,medical organization
http://www.wikidata.org/entity/Q6713103,M. S. Ramaiah Institute of Technology,13.02997222,77.56497222,Point(77.56497222 13.02997222),5.375,3,engineering school
http://www.wikidata.org/entity/Q60749343,Ramaiah Institute of Management,13.029972222222,77.564972222222,Point(77.564972222 13.029972222),5.375,1,academic institution
http://www.wikidata.org/entity/Q111063350,SPOT ON 78834 Isnas Residency,13.0306289,77.5619962,Point(77.5619962 13.0306289),5.376,0,hotel
http://www.wikidata.org/entity/Q84014249,Padmashree College of Hopspital Management,12.9598722,77.5092214,Point(77.5092214 12.9598722),5.377,0,college
http://www.wikidata.org/entity/Q99454820,Devasandra Anjaneya temple inscription,13.027571,77.572341,Point(77.572341 13.027571),5.379,0,inscription
http://www.wikidata.org/entity/Q62079130,Spandana Hospital,12.942042794767,77.526325066936,Point(77.526325066 12.942042794),5.39,0,private hospital
http://www.wikidata.org/entity/Q111402716,St. Mark's Hotel,12.96908,77.60034,Point(77.60034 12.96908),5.39,0,hotel
http://www.wikidata.org/entity/Q111063245,OYO 85735 Hotel Nestinn,13.030651169094,77.562781702727,Point(77.562781702 13.030651169),5.395,0,hotel
http://www.wikidata.org/entity/Q56449200,Mysore Lancers memorial,13.0124937,77.5925724,Point(77.5925724 13.0124937),5.412,1,memorial
http://www.wikidata.org/entity/Q111063330,OYO Flagship 7558 Galaxy Comfort In,12.9813291,77.602654,Point(77.602654 12.9813291),5.413,0,hotel
http://www.wikidata.org/entity/Q30260522,M. S. Ramaiah Dental College and Hospital,13.029061,77.569303,Point(77.569303 13.029061),5.413,0,educational institution
http://www.wikidata.org/entity/Q73527278,Andhra Bank Nagarbhavi branch,12.96756,77.50532,Point(77.50532 12.96756),5.421,0,Andhra Bank branch
http://www.wikidata.org/entity/Q5164561,"Consulate General of Germany, Bangalore",12.9683,77.6004,Point(77.6004 12.9683),5.422,2,consulate general
http://www.wikidata.org/entity/Q111063257,Capital O 37517 Withinn Hotel,13.030888,77.562911,Point(77.562911 13.030888),5.424,0,hotel
http://www.wikidata.org/entity/Q111862001,HM Suites & Studios Bangalore,12.96923,77.60085,Point(77.60085 12.96923),5.438,0,hotel
http://www.wikidata.org/entity/Q85093933,G.T. Institute of Advanced Studies,12.9895681,77.5029288,Point(77.5029288 12.9895681),5.443,0,college
http://www.wikidata.org/entity/Q111063538,OYO 75449 Aishwarya Luxury Rooms,13.02865994764,77.571286987513,Point(77.571286987 13.028659947),5.447,0,hotel
http://www.wikidata.org/entity/Q111063146,OYO 74972 Galaxy,12.980978,77.602971,Point(77.602971 12.980978),5.449,0,hotel
http://www.wikidata.org/entity/Q111063698,OYO 71675 New Aishwarya Comforts,13.028519653547,77.571693174541,Point(77.571693174 13.028519653),5.449,0,hotel
http://www.wikidata.org/entity/Q111117622,Locul.Central,12.9756789,77.6024686,Point(77.6024686 12.9756789),5.452,0,hostel
http://www.wikidata.org/entity/Q125292396,Shivaji Nagar metro station,12.98358,77.60306,Point(77.60306 12.98358),5.453,1,metro station
http://www.wikidata.org/entity/Q85305055,Sri Poornaprajna Vidyapeetha Samskrita College,12.9343508,77.558381,Point(77.558381 12.9343508),5.458,0,college
http://www.wikidata.org/entity/Q4917524,Bishop Cotton Girls' School,12.9704,77.6014,Point(77.6014 12.9704),5.46,2,private school
http://www.wikidata.org/entity/Q111402724,"The Pride Hotel, Bangalore",12.96476,77.59946,Point(77.59946 12.96476),5.46,0,hotel
http://www.wikidata.org/entity/Q73612555,Central Bank Of India Nagarbhavi branch,12.95994,77.50828,Point(77.50828 12.95994),5.463,0,Central Bank of India branch
http://www.wikidata.org/entity/Q73846383,"Indian Overseas Bank, Nagarbhavi branch",12.95994,77.50828,Point(77.50828 12.95994),5.463,0,Indian Overseas Bank branch
http://www.wikidata.org/entity/Q111063551,Capital O 11927 Varcity Imperium,12.991639,77.602417,Point(77.602417 12.991639),5.466,0,hotel
http://www.wikidata.org/entity/Q200711,Lal Bagh,12.95,77.59,Point(77.59 12.95),5.466,18,botanical garden
http://www.wikidata.org/entity/Q25340047,"MS Ramaiah Medical College, Bangalore",13.0305,77.5663,Point(77.5663 13.0305),5.468,2,medical school
http://www.wikidata.org/entity/Q7162983,Peninsular Gneiss,12.946,77.586,Point(77.586 12.946),5.481,2,geographical feature
http://www.wikidata.org/entity/Q83513156,Padma College of Management and Science,12.9858814,77.5022159,Point(77.5022159 12.9858814),5.482,0,college
http://www.wikidata.org/entity/Q127105221,Nayandahalli,12.9426237234,77.52375283076,Point(77.52375283 12.942623723),5.49,1,human settlement
http://www.wikidata.org/entity/Q125101745,Broadway Assembly constituency,12.988271,77.60315,Point(77.60315 12.988271),5.493,1,former constituency of the Karnataka Legislative Assembly
http://www.wikidata.org/entity/Q73721452,Industrial Development Bank of India Banashankari branch,12.93453,77.54352,Point(77.54352 12.93453),5.495,0,Industrial Development Bank of India branch
http://www.wikidata.org/entity/Q108336508,Pantharapalya - Nayandahalli metro station,12.94167,77.52512,Point(77.52512 12.94167),5.496,2,metro station
http://www.wikidata.org/entity/Q66769463,Corporation Bank Bangalore Padmanabhanagar branch,12.9337,77.55,Point(77.55 12.9337),5.504,0,Corporation Bank branch
http://www.wikidata.org/entity/Q30280788,M.S. Ramaiah Medical College,13.030785,77.566638,Point(77.566638 13.030785),5.509,0,educational institution
http://www.wikidata.org/entity/Q111601177,JC Nagar,13.00725,77.59719,Point(77.59719 13.00725),5.513,0,human settlement
http://www.wikidata.org/entity/Q30264799,Panchajanya Vidya Peetha Welfare Trust,12.963513,77.505868,Point(77.505868 12.963513),5.526,0,educational institution
http://www.wikidata.org/entity/Q111063815,OYO 27859 Agi Dynasty Suites,12.979423,77.603646,Point(77.603646 12.979423),5.532,0,hotel
http://www.wikidata.org/entity/Q83512832,Bengaluru Dr. B.R. Ambedkar School of Economics,12.9490468,77.515411,Point(77.515411 12.9490468),5.542,0,college
http://www.wikidata.org/entity/Q111063810,Capital O 5641 Hotel Corporate Park Inn,13.030291,77.569721,Point(77.569721 13.030291),5.558,0,hotel
http://www.wikidata.org/entity/Q104861781,Ritz-Carlton Bangalore,12.97,77.6,Point(77.60154 12.9676),5.563,1,hotel
http://www.wikidata.org/entity/Q104861781,Ritz-Carlton Bangalore,12.9676,77.60154,Point(77.60154 12.9676),5.563,1,hotel
http://www.wikidata.org/entity/Q85093599,Baghirathi Bai Narayana Rao Mane College,12.9330556,77.5504256,Point(77.5504256 12.9330556),5.573,0,college
http://www.wikidata.org/entity/Q7929226,"Vijaya College, Bengaluru",12.9411,77.5809,Point(77.5809 12.9411),5.582,1,academic institution
http://www.wikidata.org/entity/Q7590089,"St. Mary's Basilica, Bangalore",12.984416666667,77.60425,Point(77.60425 12.984416666),5.584,8,church building
http://www.wikidata.org/entity/Q84999035,"RBANMS Evening,college",12.9813671,77.6042488,Point(77.6042488 12.9813671),5.585,0,college
http://www.wikidata.org/entity/Q73528796,Andhra Bank Annapoorneswarinagar branch,12.9342,77.54097,Point(77.54097 12.9342),5.588,0,Andhra Bank branch
http://www.wikidata.org/entity/Q6126761,Jalhalli,13.03333333,77.55,Point(77.55 13.03333333),5.59,4,village in India
http://www.wikidata.org/entity/Q19898472,"St. Andrew's Church, Bangalore",12.9792,77.6042,Point(77.6042 12.9792),5.594,3,church building
http://www.wikidata.org/entity/Q4850551,Baldwin Girls High School,12.964166666667,77.600555555556,Point(77.600555555 12.964166666),5.595,1,secondary school
http://www.wikidata.org/entity/Q111063703,OYO Townhouse 364 Richmond Road,12.96525,77.60113,Point(77.60113 12.96525),5.608,0,hotel
http://www.wikidata.org/entity/Q111063181,OYO 9605 Hotel Golden Inn,12.987045,77.604356,Point(77.604356 12.987045),5.61,0,hotel
http://www.wikidata.org/entity/Q73527722,Andhra Bank Banasankari branch,12.934,77.54082,Point(77.54082 12.934),5.613,0,Andhra Bank branch
http://www.wikidata.org/entity/Q111063392,OYO 68738 Hotel Skv Residency,13.033583,77.555662,Point(77.555662 13.033583),5.619,0,hotel
http://www.wikidata.org/entity/Q19898479,"St. Mark's Cathedral, Bangalore",12.9757,77.6041,Point(77.6041 12.9757),5.627,3,church building
http://www.wikidata.org/entity/Q19898479,"St. Mark's Cathedral, Bangalore",12.9757,77.6041,Point(77.6041 12.9757),5.627,3,Anglican or Episcopal cathedral
http://www.wikidata.org/entity/Q84013906,"Acharya College of Imaging Technology, Bangalore",13.0184262,77.5900599,Point(77.5900599 13.0184262),5.635,0,college
http://www.wikidata.org/entity/Q73528563,Andhra Bank Poorna Pragna Layout branch,12.96361,77.50471,Point(77.50471 12.96361),5.638,0,Andhra Bank branch
http://www.wikidata.org/entity/Q48733514,"St Josephs College of Law, Bangalore",12.97053333,77.60313056,Point(77.60313056 12.97053333),5.638,1,academic institution
http://www.wikidata.org/entity/Q73529241,Andhra Bank Ullal Main Road branch,12.96365,77.50467,Point(77.50467 12.96365),5.64,0,Andhra Bank branch
http://www.wikidata.org/entity/Q73990659,Indian Bank Giri Nagar branch,12.93321,77.54349,Point(77.54349 12.93321),5.64,0,Indian Bank branch
http://www.wikidata.org/entity/Q84999040,Reva Institute of Management Studies,13.0219661,77.5862592,Point(77.5862592 13.0219661),5.643,0,college
http://www.wikidata.org/entity/Q84014163,K.T.G Ayurvedic Medical College And Hospital,13.0012968,77.5040542,Point(77.5040542 13.0012968),5.647,0,college
http://www.wikidata.org/entity/Q85094301,Shanti Dhama College,12.9869714,77.5007585,Point(77.5007585 12.9869714),5.647,0,college
