,item,articleDE,articleEN,location,distance,lat,lon,sitelinks,thing,itemLabel,thingLabel,tier,color,placeLabel,ao_link,ao_description,address,url,description,fetched_coordinates
0,http://www.wikidata.org/entity/Q1348,https://de.wikipedia.org/wiki/Kolkata,https://en.wikipedia.org/wiki/Kolkata,Point(88.3638815 22.5726723),0.003,22.5726723,88.3638815,188.0,http://www.wikidata.org/entity/Q174844,Kolkata,megacity,S,orange,,,,,,,
4,http://www.wikidata.org/entity/Q1356,https://de.wikipedia.org/wiki/Westbengalen,https://en.wikipedia.org/wiki/West_Bengal,Point(88.366666666 22.566666666),0.723,22.566666666667,88.366666666667,146.0,http://www.wikidata.org/entity/Q12443800,West Bengal,state of India,S,orange,,,,,,,
5,http://www.wikidata.org/entity/Q129286,,https://en.wikipedia.org/wiki/British_Raj,Point(88.337777777 22.541111111),4.414,22.541111111111,88.337777777778,93.0,http://www.wikidata.org/entity/Q133156,British Raj,colony,S,orange,,,,,,,
6,http://www.wikidata.org/entity/Q205697,https://de.wikipedia.org/wiki/Haora,https://en.wikipedia.org/wiki/Howrah,Point(88.329444444 22.58),3.63,22.58,88.329444444444,74.0,http://www.wikidata.org/entity/Q105074756,Howrah,municipal corporation of West Bengal,S,orange,,,,,,,
7,http://www.wikidata.org/entity/Q1145306,https://de.wikipedia.org/wiki/University_of_Calcutta,https://en.wikipedia.org/wiki/University_of_Calcutta,Point(88.3628 22.575),0.285,22.575,88.3628,64.0,http://www.wikidata.org/entity/Q875538,University of Calcutta,public university,S,orange,,,,,,,
9,http://www.wikidata.org/entity/Q787124,https://de.wikipedia.org/wiki/Yuba_Bharati_Krirangan,https://en.wikipedia.org/wiki/Salt_Lake_Stadium,Point(88.409167 22.568889),4.667,22.568889,88.409167,33.0,http://www.wikidata.org/entity/Q1154710,Vivekananda Yuba Bharati Krirangan,association football venue,S,orange,,,,,,,
10,http://www.wikidata.org/entity/Q1356352,https://de.wikipedia.org/wiki/Victoria_Memorial_(Indien),"https://en.wikipedia.org/wiki/Victoria_Memorial,_Kolkata",Point(88.3425 22.5449),3.787,22.5449,88.3425,31.0,http://www.wikidata.org/entity/Q5003624,Victoria Memorial,memorial,S,orange,,,,,,,
12,http://www.wikidata.org/entity/Q817165,https://de.wikipedia.org/wiki/Bengalen_(Pr%C3%A4sidentschaft),https://en.wikipedia.org/wiki/Bengal_Presidency,Point(88.337778 22.541111),4.414,22.541111,88.337778,26.0,http://www.wikidata.org/entity/Q15646712,Bengal Presidency,province of British India,S,orange,,,,,,,
14,http://www.wikidata.org/entity/Q739641,https://de.wikipedia.org/wiki/Howrah_Bridge,https://en.wikipedia.org/wiki/Howrah_Bridge,Point(88.34694 22.58527),2.236,22.58527,88.34694,26.0,http://www.wikidata.org/entity/Q1429218,Howrah Bridge,cantilever bridge,S,orange,,,,,,,
16,http://www.wikidata.org/entity/Q1202492,,https://en.wikipedia.org/wiki/Black_Hole_of_Calcutta,Point(88.348 22.5734),1.634,22.5734,88.348,25.0,http://www.wikidata.org/entity/Q89753,Black Hole of Calcutta,dungeon,S,orange,,,,,,,
18,http://www.wikidata.org/entity/Q1364900,https://de.wikipedia.org/wiki/Indian_Museum,https://en.wikipedia.org/wiki/Indian_Museum,Point(88.350833333 22.558055555),2.105,22.558055555556,88.350833333333,25.0,http://www.wikidata.org/entity/Q17431399,Indian Museum,national museum,S,orange,,,,,,,
19,http://www.wikidata.org/entity/Q2035004,https://de.wikipedia.org/wiki/Ranji_Stadium,https://en.wikipedia.org/wiki/Eden_Gardens,Point(88.343333333 22.564444444),2.3,22.564444444444,88.343333333333,25.0,http://www.wikidata.org/entity/Q682943,Eden Gardens,cricket field,S,orange,,,,,,,
20,http://www.wikidata.org/entity/Q122981749,https://de.wikipedia.org/wiki/East_Bengal_FC,https://en.wikipedia.org/wiki/East_Bengal_FC,Point(88.343236111 22.559461111),2.579,22.559461111111,88.343236111111,25.0,http://www.wikidata.org/entity/Q476028,East Bengal FC,association football club,S,orange,,,,,,,
21,http://www.wikidata.org/entity/Q2750027,,"https://en.wikipedia.org/wiki/Fort_William,_India",Point(88.338055555 22.557777777),3.126,22.557777777778,88.338055555556,22.0,http://www.wikidata.org/entity/Q1785071,Fort William,fort,S,orange,,,,,,,
22,http://www.wikidata.org/entity/Q129094549,,https://en.wikipedia.org/wiki/2024_Kolkata_rape_and_murder,Point(88.3782948 22.6041254),3.8,22.6041254,88.3782948,20.0,http://www.wikidata.org/entity/Q132821,2024 R. G. Kar Medical College and Hospital rape and murder,murder,S,orange,,,,,,,
26,http://www.wikidata.org/entity/Q2096814,https://de.wikipedia.org/wiki/Unruhen_in_Kalkutta_1946,https://en.wikipedia.org/wiki/Direct_Action_Day,Point(88.36 22.58),0.91,22.58,88.36,17.0,http://www.wikidata.org/entity/Q1190554,Direct Action Day,occurrence,A,green,,,,,,,
27,http://www.wikidata.org/entity/Q2428745,,https://en.wikipedia.org/wiki/Fort_William_College,Point(88.349634 22.57369),1.469,22.57369,88.349634,15.0,http://www.wikidata.org/entity/Q189004,Fort William College,college,A,green,,,,,,,
28,http://www.wikidata.org/entity/Q1145433,https://de.wikipedia.org/wiki/Vidyasagar_Setu,https://en.wikipedia.org/wiki/Vidyasagar_Setu,Point(88.327777777 22.556944444),4.099,22.556944444444,88.327777777778,15.0,http://www.wikidata.org/entity/Q158555,Vidyasagar Setu,cable-stayed bridge,A,green,,,,,,,
29,http://www.wikidata.org/entity/Q1898467,https://de.wikipedia.org/wiki/St.-Pauls-Kathedrale_(Kolkata),"https://en.wikipedia.org/wiki/St._Paul%27s_Cathedral,_Kolkata",Point(88.34667 22.54417),3.627,22.54417,88.34667,14.0,http://www.wikidata.org/entity/Q2977,St. Paul's Cathedral,cathedral,A,green,,,,,,,
30,http://www.wikidata.org/entity/Q987578,,https://en.wikipedia.org/wiki/Maidan_(Kolkata),Point(88.347222222 22.551388888),2.918,22.551388888889,88.347222222222,13.0,http://www.wikidata.org/entity/Q22746,Maidan,urban park,A,green,,,,,,,
31,http://www.wikidata.org/entity/Q3349172,,https://en.wikipedia.org/wiki/Tipu_Sultan_Mosque,Point(88.3520934 22.5655184),1.448,22.5655184,88.3520934,13.0,http://www.wikidata.org/entity/Q32815,Tipu Sultan Mosque,mosque,A,green,,,,,,,
32,http://www.wikidata.org/entity/Q474265,https://de.wikipedia.org/wiki/Kolkata_Film_Festival,https://en.wikipedia.org/wiki/Kolkata_International_Film_Festival,Point(88.341666666 22.566127777),2.395,22.566127777778,88.341666666667,13.0,http://www.wikidata.org/entity/Q220505,Kolkata International Film Festival,film festival,A,green,,,,,,,
34,http://www.wikidata.org/entity/Q3349812,https://de.wikipedia.org/wiki/Metropolregion_Kolkata,https://en.wikipedia.org/wiki/Kolkata_metropolitan_region,Point(88.337777777 22.541111111),4.414,22.541111111111,88.337777777778,13.0,http://www.wikidata.org/entity/Q245260,Kolkata Metropolitan Area,conurbation,A,green,,,,,,,
36,http://www.wikidata.org/entity/Q3124866,,https://en.wikipedia.org/wiki/Sonagachi,Point(88.3597 22.5875),1.707,22.5875,88.3597,12.0,http://www.wikidata.org/entity/Q123705,Sonagachi,neighborhood,A,green,,,,,,,
37,http://www.wikidata.org/entity/Q2749583,,"https://en.wikipedia.org/wiki/Presidency_University,_Kolkata",Point(88.363201 22.576319),0.415,22.576319,88.363201,11.0,http://www.wikidata.org/entity/Q875538,Presidency University,public university,A,green,,,,,,,
38,http://www.wikidata.org/entity/Q5052457,,"https://en.wikipedia.org/wiki/Holy_Rosary_Cathedral,_Kolkata",Point(88.352721 22.578664),1.328,22.578664,88.352721,11.0,http://www.wikidata.org/entity/Q2977,Cathedral of the Most Holy Rosary,cathedral,A,green,,,,,,,
39,http://www.wikidata.org/entity/Q15217311,,"https://en.wikipedia.org/wiki/Great_Eastern_Hotel,_Kolkata",Point(88.3495 22.5684),1.552,22.5684,88.3495,11.0,http://www.wikidata.org/entity/Q27686,Great Eastern Hotel,hotel,A,green,,,,,,,
40,http://www.wikidata.org/entity/Q1132340,https://de.wikipedia.org/wiki/Presidency_(Division),https://en.wikipedia.org/wiki/Presidency_division,Point(88.36666667 22.56666667),0.723,22.56666667,88.36666667,11.0,http://www.wikidata.org/entity/Q5284624,Presidency division,division of West Bengal,A,green,,,,,,,
41,http://www.wikidata.org/entity/Q3349690,,"https://en.wikipedia.org/wiki/Raj_Bhavan,_Kolkata",Point(88.34752 22.567261),1.785,22.567261,88.34752,10.0,http://www.wikidata.org/entity/Q41176,Raj Bhavan,building,A,green,,,,,,,
42,http://www.wikidata.org/entity/Q3350524,,https://en.wikipedia.org/wiki/Rabindra_Bharati_University,Point(88.359444444 22.584444444),1.389,22.584444444444,88.359444444444,10.0,http://www.wikidata.org/entity/Q875538,Rabindra Bharati University,public university,A,green,,,,,,,
44,http://www.wikidata.org/entity/Q7152833,,https://en.wikipedia.org/wiki/R._G._Kar_Medical_College_and_Hospital,Point(88.378333 22.604167),3.805,22.604167,88.378333,10.0,http://www.wikidata.org/entity/Q7705274,R. G. Kar Medical College and Hospital,tertiary referral hospital,A,green,,,,,,,
46,http://www.wikidata.org/entity/Q12062296,,https://en.wikipedia.org/wiki/Nakhoda_Mosque,Point(88.35583333 22.57638889),0.926,22.57638889,88.35583333,10.0,http://www.wikidata.org/entity/Q32815,Nakhoda Masjid,mosque,A,green,,,,,,,
47,http://www.wikidata.org/entity/Q7711913,https://de.wikipedia.org/wiki/The_42,https://en.wikipedia.org/wiki/The_42_(Kolkata),Point(88.34975 22.54835),3.067,22.54835,88.34975,10.0,http://www.wikidata.org/entity/Q11303,The 42,skyscraper,A,green,,,,,,,
48,http://www.wikidata.org/entity/Q3347163,,https://en.wikipedia.org/wiki/Jorasanko_Thakur_Bari,Point(88.3592 22.585),1.456,22.585,88.3592,9.0,http://www.wikidata.org/entity/Q16560,Jorasanko Thakur Bari,palace,B,violet,,,,,,,
49,http://www.wikidata.org/entity/Q4682601,,https://en.wikipedia.org/wiki/Adi_Ganga,Point(88.32527778 22.54972222),4.714,22.54972222,88.32527778,9.0,http://www.wikidata.org/entity/Q4022,Adi Ganga,river,B,violet,,,,,,,
50,http://www.wikidata.org/entity/Q6755210,,https://en.wikipedia.org/wiki/Marble_Palace_(Kolkata),Point(88.360143 22.582378),1.149,22.582378,88.360143,9.0,http://www.wikidata.org/entity/Q16560,Marble Palace,palace,B,violet,,,,,,,
52,http://www.wikidata.org/entity/Q1026391,https://de.wikipedia.org/wiki/Calcutta_High_Court,https://en.wikipedia.org/wiki/Calcutta_High_Court,Point(88.34333333 22.56833333),2.165,22.56833333,88.34333333,9.0,http://www.wikidata.org/entity/Q3128539,Calcutta High Court,high court,B,violet,,,,,,,
54,http://www.wikidata.org/entity/Q3347406,,https://en.wikipedia.org/wiki/Sealdah_railway_station,Point(88.3711047 22.5679661),0.905,22.5679661,88.3711047,8.0,http://www.wikidata.org/entity/Q11606300,Sealdah railway station,last station,B,violet,,,,,,,
56,http://www.wikidata.org/entity/Q3347945,,https://en.wikipedia.org/wiki/Socialist_Unity_Centre_of_India_(Communist),Point(88.35558333 22.56386111),1.297,22.56386111,88.35558333,8.0,http://www.wikidata.org/entity/Q233591,Socialist Unity Centre of India (Communist),communist party,B,violet,,,,,,,
61,http://www.wikidata.org/entity/Q7419011,,https://en.wikipedia.org/wiki/Sanskrit_College_and_University,Point(88.364286111 22.575727777),0.345,22.575727777778,88.364286111111,8.0,http://www.wikidata.org/entity/Q875538,The Sanskrit College and University,public university,B,violet,,,,,,,
63,http://www.wikidata.org/entity/Q7461557,,"https://en.wikipedia.org/wiki/Shaheed_Minar,_Kolkata",Point(88.34923 22.56286),1.858,22.56286,88.34923,8.0,http://www.wikidata.org/entity/Q4989906,Shaheed Minar,monument,B,violet,,,,,,,
65,http://www.wikidata.org/entity/Q3051967,https://de.wikipedia.org/wiki/St_John%E2%80%99s_(Kolkata),"https://en.wikipedia.org/wiki/St._John%27s_Church,_Kolkata",Point(88.34594727 22.56990433),1.868,22.56990433,88.34594727,8.0,http://www.wikidata.org/entity/Q16970,St. John's Church,church building,B,violet,,,,,,,
66,http://www.wikidata.org/entity/Q621824,,https://en.wikipedia.org/wiki/East_Bengal_Club,Point(88.343236111 22.559461111),2.579,22.559461111111,88.343236111111,7.0,http://www.wikidata.org/entity/Q13580678,East Bengal Club,multisports club,B,violet,,,,,,,
67,http://www.wikidata.org/entity/Q985758,,https://en.wikipedia.org/wiki/Writers%27_Building,Point(88.349634 22.57369),1.469,22.57369,88.349634,7.0,http://www.wikidata.org/entity/Q41176,Writers' Building,building,B,violet,,,,,,,
68,http://www.wikidata.org/entity/Q3348933,,"https://en.wikipedia.org/wiki/Medical_College_%26_Hospital,_Kolkata",Point(88.3619 22.5736),0.231,22.5736,88.3619,7.0,http://www.wikidata.org/entity/Q7705274,"Medical College and Hospital, Kolkata",tertiary referral hospital,B,violet,,,,,,,
70,http://www.wikidata.org/entity/Q3585462,,https://en.wikipedia.org/wiki/Armenian_Church_of_the_Holy_Nazareth,Point(88.351 22.579),1.501,22.579,88.351,7.0,http://www.wikidata.org/entity/Q16970,Armenian Church of the Holy Nazareth,church building,B,violet,,,,,,,
72,http://www.wikidata.org/entity/Q4887610,,https://en.wikipedia.org/wiki/Bengal_Chemicals_and_Pharmaceuticals,Point(88.399444444 22.578888888),3.715,22.578888888889,88.399444444444,7.0,http://www.wikidata.org/entity/Q4830453,Bengal Chemicals and Pharmaceuticals,business,B,violet,,,,,,,
73,http://www.wikidata.org/entity/Q4916530,,"https://en.wikipedia.org/wiki/Birla_Mandir,_Kolkata",Point(88.365 22.53055556),4.681,22.53055556,88.365,7.0,http://www.wikidata.org/entity/Q44539,Birla Mandir,temple,B,violet,,,,,,,
74,http://www.wikidata.org/entity/Q4947204,,https://en.wikipedia.org/wiki/Bose_Institute,Point(88.3937 22.5861),3.406,22.5861,88.3937,7.0,http://www.wikidata.org/entity/Q31855,Bose Institute,research institute,B,violet,,,,,,,
79,http://www.wikidata.org/entity/Q6730097,,https://en.wikipedia.org/wiki/Magen_David_Synagogue_(Kolkata),Point(88.35194397 22.57768059),1.349,22.57768059,88.35194397,7.0,http://www.wikidata.org/entity/Q34627,Magen David Synagogue,synagogue,B,violet,,,,,,,
81,http://www.wikidata.org/entity/Q23674556,,https://en.wikipedia.org/wiki/2016_Kolkata_flyover_collapse,Point(88.358255555 22.586366666),1.632,22.586366666667,88.358255555556,7.0,http://www.wikidata.org/entity/Q3839081,Kolkata flyover collapse,disaster,B,violet,,,,,,,
84,http://www.wikidata.org/entity/Q3350705,,https://en.wikipedia.org/wiki/Siege_of_Calcutta,Point(88.337777777 22.541111111),4.414,22.541111111111,88.337777777778,6.0,http://www.wikidata.org/entity/Q188055,Siege of Calcutta,siege,B,violet,,,,,,,
85,http://www.wikidata.org/entity/Q3532605,,https://en.wikipedia.org/wiki/Birla_Industrial_%26_Technological_Museum,Point(88.363360611 22.534817194),4.207,22.534817194444,88.363360611111,6.0,http://www.wikidata.org/entity/Q588140,Birla Industrial & Technological Museum,science museum,B,violet,,,,,,,
86,http://www.wikidata.org/entity/Q3584578,,"https://en.wikipedia.org/wiki/St._Thomas_Church,_Kolkata",Point(88.352222222 22.55),2.789,22.55,88.352222222222,6.0,http://www.wikidata.org/entity/Q16970,St. Thomas Church,church building,B,violet,,,,,,,
87,http://www.wikidata.org/entity/Q4728949,,https://en.wikipedia.org/wiki/All_India_Institute_of_Hygiene_and_Public_Health,Point(88.360033 22.575306),0.495,22.575306,88.360033,6.0,http://www.wikidata.org/entity/Q494230,All India Institute of Hygiene and Public Health,medical school,B,violet,,,,,,,
89,http://www.wikidata.org/entity/Q4916536,,"https://en.wikipedia.org/wiki/Birla_Planetarium,_Kolkata",Point(88.34519444 22.54553333),3.574,22.54553333,88.34519444,6.0,http://www.wikidata.org/entity/Q148319,M. P. Birla Planetarium,planetarium,B,violet,,,,,,,
90,http://www.wikidata.org/entity/Q5328741,,https://en.wikipedia.org/wiki/East_Kolkata,Point(88.3638815 22.5726723),0.003,22.5726723,88.3638815,6.0,http://www.wikidata.org/entity/Q82794,East Kolkata,geographic region,B,violet,,,,,,,
91,http://www.wikidata.org/entity/Q7010004,,"https://en.wikipedia.org/wiki/New_Market,_Kolkata",Point(88.3532 22.5607),1.723,22.5607,88.3532,6.0,http://www.wikidata.org/entity/Q132510,New Market,market,B,violet,,,,,,,
92,http://www.wikidata.org/entity/Q7037794,,https://en.wikipedia.org/wiki/Nimtala_Crematorium,Point(88.351692 22.593521),2.638,22.593521,88.351692,6.0,http://www.wikidata.org/entity/Q157570,Nimtala crematorium,crematorium,B,violet,,,,,,,
94,http://www.wikidata.org/entity/Q7245233,,https://en.wikipedia.org/wiki/Prinsep_Ghat,Point(88.3316 22.55678),3.756,22.55678,88.3316,6.0,http://www.wikidata.org/entity/Q1010155,Prinsep Ghat,ghat,B,violet,,,,,,,
96,http://www.wikidata.org/entity/Q7592175,,"https://en.wikipedia.org/wiki/St._Xavier%27s_College,_Kolkata",Point(88.356 22.5484),2.815,22.5484,88.356,6.0,http://www.wikidata.org/entity/Q43229,St. Xavier's College,organization,B,violet,,,,,,,
97,http://www.wikidata.org/entity/Q11325387,,https://en.wikipedia.org/wiki/Netaji_Bhawan,Point(88.351246 22.537586),4.109,22.537586,88.351246,6.0,http://www.wikidata.org/entity/Q33506,Netaji Bhawan,museum,B,violet,,,,,,,
98,http://www.wikidata.org/entity/Q14221200,,https://en.wikipedia.org/wiki/North_Kolkata,Point(88.3638815 22.5726723),0.003,22.5726723,88.3638815,6.0,http://www.wikidata.org/entity/Q82794,North Kolkata,geographic region,B,violet,,,,,,,
99,http://www.wikidata.org/entity/Q18697337,,https://en.wikipedia.org/wiki/Haqqani_Anjuman,Point(88.3838 22.5839),2.396,22.5839,88.3838,6.0,http://www.wikidata.org/entity/Q43229,Haqqani Anjuman,organization,B,violet,,,,,,,
100,http://www.wikidata.org/entity/Q2972549,,https://en.wikipedia.org/wiki/South_Park_Street_Cemetery,Point(88.36039 22.546568),2.922,22.546568,88.36039,5.0,http://www.wikidata.org/entity/Q39614,South Park Street Cemetery,cemetery,B,violet,,,,,,,
102,http://www.wikidata.org/entity/Q3350712,,"https://en.wikipedia.org/wiki/General_Post_Office,_Kolkata",Point(88.347769444 22.573052777),1.656,22.573052777778,88.347769444444,5.0,http://www.wikidata.org/entity/Q61443591,"General Post Office, Kolkata",head post office,B,violet,,,,,,,
104,http://www.wikidata.org/entity/Q4671456,,"https://en.wikipedia.org/wiki/Academy_of_Fine_Arts,_Kolkata",Point(88.3453662 22.5429508),3.811,22.5429508,88.3453662,5.0,http://www.wikidata.org/entity/Q43229,"Academy of Fine Arts, Kolkata",organization,B,violet,,,,,,,
106,http://www.wikidata.org/entity/Q4811954,,https://en.wikipedia.org/wiki/Asutosh_Museum_of_Indian_Art,Point(88.36087 22.56983),0.441,22.56983,88.36087,5.0,http://www.wikidata.org/entity/Q33506,Asutosh Museum of Indian Art,museum,B,violet,,,,,,,
107,http://www.wikidata.org/entity/Q4838076,,https://en.wikipedia.org/wiki/Babughat,Point(88.3398 22.5663),2.573,22.5663,88.3398,5.0,http://www.wikidata.org/entity/Q1010155,Babughat,ghat,B,violet,,,,,,,
110,http://www.wikidata.org/entity/Q5018942,,https://en.wikipedia.org/wiki/Calcutta_National_Medical_College,Point(88.3698861 22.5464277),2.979,22.5464277,88.3698861,5.0,http://www.wikidata.org/entity/Q17072837,Calcutta National Medical College,medical college in India,B,violet,,,,,,,
113,http://www.wikidata.org/entity/Q5146558,,https://en.wikipedia.org/wiki/College_Street_(Kolkata),Point(88.363354 22.575514),0.324,22.575514,88.363354,5.0,http://www.wikidata.org/entity/Q79007,College Street,street,B,violet,,,,,,,
114,http://www.wikidata.org/entity/Q5455830,,https://en.wikipedia.org/wiki/Kolkata_Race_Course,Point(88.33648333 22.54431111),4.225,22.54431111,88.33648333,5.0,http://www.wikidata.org/entity/Q11822917,Kolkata Race Course,horse racing venue,B,violet,,,,,,,
115,http://www.wikidata.org/entity/Q5922533,,https://en.wikipedia.org/wiki/Howrah_Sadar_subdivision,Point(88.3251045 22.5736296),3.984,22.5736296,88.3251045,5.0,http://www.wikidata.org/entity/Q13058507,Howrah Sadar subdivision,subdivision of West Bengal,B,violet,,,,,,,
120,http://www.wikidata.org/entity/Q6427313,,https://en.wikipedia.org/wiki/Kolkata_Town_Hall,Point(88.345 22.568055555),2.006,22.568055555556,88.345,5.0,http://www.wikidata.org/entity/Q25550691,Kolkata Town Hall,town hall,B,violet,,,,,,,
122,http://www.wikidata.org/entity/Q6480048,,https://en.wikipedia.org/wiki/Lal_Dighi,Point(88.349 22.572),1.531,22.572,88.349,5.0,http://www.wikidata.org/entity/Q3253281,Lal Dighi,artificial pond,B,violet,,,,,,,
123,http://www.wikidata.org/entity/Q6823351,,https://en.wikipedia.org/wiki/Metcalfe_Hall,Point(88.34477234 22.57160378),1.967,22.57160378,88.34477234,5.0,http://www.wikidata.org/entity/Q41176,Metcalfe Hall,building,B,violet,,,,,,,
124,http://www.wikidata.org/entity/Q6825020,,https://en.wikipedia.org/wiki/Metropolitan_Building_(Kolkata),Point(88.3516 22.5637),1.607,22.5637,88.3516,5.0,http://www.wikidata.org/entity/Q41176,Metropolitan Building,building,B,violet,,,,,,,
125,http://www.wikidata.org/entity/Q6998605,,https://en.wikipedia.org/wiki/Netaji_Indoor_Stadium,Point(88.34166667 22.56612778),2.395,22.56612778,88.34166667,5.0,http://www.wikidata.org/entity/Q483110,Netaji Indoor Stadium,stadium,B,violet,,,,,,,
126,http://www.wikidata.org/entity/Q7102369,,https://en.wikipedia.org/wiki/Oriental_Seminary,Point(88.360099999 22.592499999),2.242,22.592499999921,88.360099999616,5.0,http://www.wikidata.org/entity/Q64062731,Oriental Seminary,higher secondary school,B,violet,,,,,,,
130,http://www.wikidata.org/entity/Q7433497,,"https://en.wikipedia.org/wiki/Science_City,_Kolkata",Point(88.395833333 22.540555555),4.846,22.540555555556,88.395833333333,5.0,http://www.wikidata.org/entity/Q588140,Science City,science museum,B,violet,,,,,,,
132,http://www.wikidata.org/entity/Q7567630,,,Point(88.3638815 22.5726723),0.003,22.5726723,88.3638815,5.0,http://www.wikidata.org/entity/Q82794,South Kolkata,geographic region,B,violet,,,,,,,
134,http://www.wikidata.org/entity/Q7649902,,https://en.wikipedia.org/wiki/Sutanuti,Point(88.365833333 22.5975),2.771,22.5975,88.365833333333,5.0,http://www.wikidata.org/entity/Q21507948,Sutanuti,former village,B,violet,,,,,,,
135,http://www.wikidata.org/entity/Q7710629,,https://en.wikipedia.org/wiki/Thanthania_Kalibari,Point(88.365555555 22.580833333),0.926,22.580833333333,88.365555555556,5.0,http://www.wikidata.org/entity/Q44539,Thanthania Kalibari,temple,B,violet,,,,,,,
138,http://www.wikidata.org/entity/Q56683370,,"https://en.wikipedia.org/wiki/Rail_Museum,_Howrah",Point(88.3404447 22.5786933),2.5,22.5786933,88.3404447,5.0,http://www.wikidata.org/entity/Q18704634,Regional Railway Museum,railway museum,B,violet,,,,,,,
139,http://www.wikidata.org/entity/Q580740,,"https://en.wikipedia.org/wiki/Minerva_Theatre,_Kolkata",Point(88.36194444 22.59027778),1.971,22.59027778,88.36194444,4.0,http://www.wikidata.org/entity/Q2085381,Minerva Theatre,publishing company,C,yellow,,,,,,,
142,http://www.wikidata.org/entity/Q2408126,,https://en.wikipedia.org/wiki/East_Bengal_Ground,Point(88.343854 22.559479),2.525,22.559479,88.343854,4.0,http://www.wikidata.org/entity/Q1154710,East Bengal Ground,association football venue,C,yellow,,,,,,,
143,http://www.wikidata.org/entity/Q2983685,,https://en.wikipedia.org/wiki/St._Xavier%27s_Collegiate_School,Point(88.35596 22.54837),2.82,22.54837,88.35596,4.0,http://www.wikidata.org/entity/Q3580134,St. Xavier's Collegiate School,Jesuit school,C,yellow,,,,,,,
145,http://www.wikidata.org/entity/Q4711938,,https://en.wikipedia.org/wiki/College_Street_Coffee_House,Point(88.36179722 22.57615),0.445,22.57615,88.36179722,4.0,http://www.wikidata.org/entity/Q30022,College Street Coffee House,coffeehouse,C,yellow,,,,,,,
150,http://www.wikidata.org/entity/Q5018955,,https://en.wikipedia.org/wiki/Calcutta_School_of_Tropical_Medicine,Point(88.359927 22.575243),0.499,22.575243,88.359927,4.0,http://www.wikidata.org/entity/Q494230,Calcutta School of Tropical Medicine,medical school,C,yellow,,,,,,,
153,http://www.wikidata.org/entity/Q5564294,,https://en.wikipedia.org/wiki/Girish_Mancha,Point(88.36476944 22.604075),3.496,22.604075,88.36476944,4.0,http://www.wikidata.org/entity/Q41176,Girish Mancha,building,C,yellow,,,,,,,
154,http://www.wikidata.org/entity/Q5588733,,https://en.wikipedia.org/wiki/Government_College_of_Art_%26_Craft,Point(88.350602777 22.557191666),2.194,22.557191666667,88.350602777778,4.0,http://www.wikidata.org/entity/Q383092,Government College of Art & Craft,art academy,C,yellow,,,,,,,
155,http://www.wikidata.org/entity/Q5922511,,https://en.wikipedia.org/wiki/Sailen_Manna_Stadium,Point(88.33488889 22.58341667),3.21,22.58341667,88.33488889,4.0,http://www.wikidata.org/entity/Q483110,Sailen Manna Stadium,stadium,C,yellow,,,,,,,
156,http://www.wikidata.org/entity/Q5973023,,https://en.wikipedia.org/wiki/IPGMER_and_SSKM_Hospital,Point(88.3399914 22.5396672),4.413,22.5396672,88.3399914,4.0,http://www.wikidata.org/entity/Q494230,IPGMER and SSKM Hospital,medical school,C,yellow,,,,,,,
159,http://www.wikidata.org/entity/Q6352686,,https://en.wikipedia.org/wiki/Kalikata,Point(88.36666667 22.56666667),0.723,22.56666667,88.36666667,4.0,http://www.wikidata.org/entity/Q21507948,Kalikata,former village,C,yellow,,,,,,,
161,http://www.wikidata.org/entity/Q6858910,,https://en.wikipedia.org/wiki/Millennium_Park_(Kolkata),Point(88.3453 22.5745),1.92,22.5745,88.3453,4.0,http://www.wikidata.org/entity/Q22698,Millennium Park,park,C,yellow,,,,,,,
162,http://www.wikidata.org/entity/Q6894297,,https://en.wikipedia.org/wiki/Mohor_Kunja,Point(88.3425 22.5449),3.787,22.5449,88.3425,4.0,http://www.wikidata.org/entity/Q22698,Mohor Kunja,park,C,yellow,,,,,,,
163,http://www.wikidata.org/entity/Q7107209,,https://en.wikipedia.org/wiki/Osmond_Memorial_Church,Point(88.36305 22.56027),1.379,22.56027,88.36305,4.0,http://www.wikidata.org/entity/Q16970,Osmond Memorial Church,church building,C,yellow,,,,,,,
164,http://www.wikidata.org/entity/Q7278763,,https://en.wikipedia.org/wiki/Rabindra_Sadan,Point(88.344667 22.541912),3.947,22.541912,88.344667,4.0,http://www.wikidata.org/entity/Q1329623,Rabindra Sadan,cultural center,C,yellow,,,,,,,
165,http://www.wikidata.org/entity/Q7288812,,https://en.wikipedia.org/wiki/Ramakrishna_Mission_Swami_Vivekananda%27s_Ancestral_House_and_Cultural_Centre,Point(88.36736111 22.58633333),1.563,22.58633333,88.36736111,4.0,http://www.wikidata.org/entity/Q33506,Swami Vivekananda's Ancestral House & Cultural Centre,museum,C,yellow,,,,,,,
171,http://www.wikidata.org/entity/Q7600935,,"https://en.wikipedia.org/wiki/Star_Theatre,_Kolkata",Point(88.37045 22.593638888),2.429,22.593638888889,88.37045,4.0,http://www.wikidata.org/entity/Q24354,"Star Theatre, Kolkata",theatre building,C,yellow,,,,,,,
173,http://www.wikidata.org/entity/Q7631200,,"https://en.wikipedia.org/wiki/Subhas_Chandra_Bose_statue_(Shyambazar,_Kolkata)",Point(88.37363 22.60179),3.391,22.60179,88.37363,4.0,http://www.wikidata.org/entity/Q860861,Subhas Chandra Bose statue,sculpture,C,yellow,,,,,,,
178,http://www.wikidata.org/entity/Q7984454,,https://en.wikipedia.org/wiki/West_Bengal_University_of_Animal_and_Fishery_Sciences,Point(88.3872554 22.6065406),4.467,22.6065406,88.3872554,4.0,http://www.wikidata.org/entity/Q875538,West Bengal University of Animal and Fishery Sciences,public university,C,yellow,,,,,,,
179,http://www.wikidata.org/entity/Q11044609,,https://en.wikipedia.org/wiki/Calcutta_Cricket_and_Football_Club,Point(88.363746 22.53346),4.357,22.53346,88.363746,4.0,http://www.wikidata.org/entity/Q476028,Calcutta Cricket and Football Club,association football club,C,yellow,,,,,,,
182,http://www.wikidata.org/entity/Q13059169,,https://en.wikipedia.org/wiki/Basri_Shah_Mosque,Point(88.369722222 22.608444444),4.025,22.608444444444,88.369722222222,4.0,http://www.wikidata.org/entity/Q32815,Basri Shah Mosque,mosque,C,yellow,,,,,,,
183,http://www.wikidata.org/entity/Q13059486,,https://en.wikipedia.org/wiki/Maulana_Azad_College,Point(88.358022222 22.560719444),1.457,22.560719444444,88.358022222222,4.0,http://www.wikidata.org/entity/Q1377182,Maulana Azad College,liberal arts college,C,yellow,,,,,,,
184,http://www.wikidata.org/entity/Q14957107,,https://en.wikipedia.org/wiki/Nil_Ratan_Sircar_Medical_College_and_Hospital,Point(88.370542 22.561894),1.377,22.561894,88.370542,4.0,http://www.wikidata.org/entity/Q7705274,Nil Ratan Sircar Medical College and Hospital,tertiary referral hospital,C,yellow,,,,,,,
186,http://www.wikidata.org/entity/Q15241748,,https://en.wikipedia.org/wiki/Lascar_War_Memorial,Point(88.33 22.55),4.296,22.55,88.33,4.0,http://www.wikidata.org/entity/Q3238324,Lascar War Memorial,World War I memorial,C,yellow,,,,,,,
187,http://www.wikidata.org/entity/Q15720491,,https://en.wikipedia.org/wiki/Milan_Mela,Point(88.3941984 22.5450227),4.372,22.5450227,88.3941984,4.0,http://www.wikidata.org/entity/Q1378975,Biswa Bangla Mela Prangan,convention center,C,yellow,,,,,,,
188,http://www.wikidata.org/entity/Q17054319,,https://en.wikipedia.org/wiki/Gwalior_Monument,Point(88.33385 22.56068),3.36,22.56068,88.33385,4.0,http://www.wikidata.org/entity/Q575759,Gwalior Monument,war memorial,C,yellow,,,,,,,
189,http://www.wikidata.org/entity/Q19893393,,https://en.wikipedia.org/wiki/Lower_Circular_Road_cemetery,Point(88.3637 22.5478),2.763,22.5478,88.3637,4.0,http://www.wikidata.org/entity/Q39614,Lower Circular Road cemetery,cemetery,C,yellow,,,,,,,
194,http://www.wikidata.org/entity/Q30282165,,https://en.wikipedia.org/wiki/National_Institute_for_Research_in_Bacterial_Infections,Point(88.398635 22.564118),3.691,22.564118,88.398635,4.0,http://www.wikidata.org/entity/Q31855,National Institute of Cholera and Enteric Diseases,research institute,C,yellow,,,,,,,
198,http://www.wikidata.org/entity/Q56245193,,https://en.wikipedia.org/wiki/Currency_Building,Point(88.350277777 22.570555555),1.417,22.570555555556,88.350277777778,4.0,http://www.wikidata.org/entity/Q41176,Currency Building,building,C,yellow,,,,,,,
199,http://www.wikidata.org/entity/Q60752059,,https://en.wikipedia.org/wiki/Bankshall_Court,Point(88.346913 22.57116),1.751,22.57116,88.346913,4.0,http://www.wikidata.org/entity/Q1137809,Bankshall Court,courthouse,C,yellow,,,,,,,
200,http://www.wikidata.org/entity/Q60761242,,https://en.wikipedia.org/wiki/Gaudiya_Mission,Point(88.37352 22.60284),3.5,22.60284,88.37352,4.0,http://www.wikidata.org/entity/Q2061186,Gaudiya Mission,religious order,C,yellow,,,,,,,
202,http://www.wikidata.org/entity/Q68470889,,"https://en.wikipedia.org/wiki/Esplanade_Mansions,_Kolkata",Point(88.348888888 22.566388888),1.691,22.566388888889,88.348888888889,4.0,http://www.wikidata.org/entity/Q41176,Esplanade Mansions,building,C,yellow,,,,,,,
203,http://www.wikidata.org/entity/Q849950,https://de.wikipedia.org/wiki/Scottish_Church_College,https://en.wikipedia.org/wiki/Scottish_Church_College,Point(88.369805555 22.588277777),1.841,22.588277777778,88.369805555556,4.0,http://www.wikidata.org/entity/Q1377182,Scottish Church College,liberal arts college,C,yellow,,,,,,,
204,http://www.wikidata.org/entity/Q107657111,,https://en.wikipedia.org/wiki/Hindi_University,Point(88.3358928 22.596728),3.929,22.596728,88.3358928,4.0,http://www.wikidata.org/entity/Q875538,"Hindi University, Howrah",public university,C,yellow,,,,,,,
205,http://www.wikidata.org/entity/Q3585996,,"https://en.wikipedia.org/wiki/Church_of_the_Lord_Jesus,_Kolkata",Point(88.3577435 22.5585114),1.694,22.5585114,88.3577435,3.0,http://www.wikidata.org/entity/Q16970,Church of the Lord Jesus,church building,C,yellow,,,,,,,
207,http://www.wikidata.org/entity/Q4600674,,https://en.wikipedia.org/wiki/2002_attack_on_American_cultural_centre_in_Kolkata,Point(88.3493367 22.5512931),2.806,22.5512931,88.3493367,3.0,http://www.wikidata.org/entity/Q1190554,2002 attack on American cultural centre in Kolkata,occurrence,C,yellow,,,,,,,
208,http://www.wikidata.org/entity/Q4607142,,https://en.wikipedia.org/wiki/2006_West_Bengal_train_explosion,Point(88.369 22.569),0.663,22.569,88.369,3.0,http://www.wikidata.org/entity/Q1078765,2006 West Bengal train explosion,train wreck,C,yellow,,,,,,,
210,http://www.wikidata.org/entity/Q4852149,,https://en.wikipedia.org/wiki/Ballygunge_Government_High_School,Point(88.3549 22.53),4.831,22.530000000512,88.354900000084,3.0,http://www.wikidata.org/entity/Q1713379,Ballygunge Government High School,boys' school,C,yellow,,,,,,,
215,http://www.wikidata.org/entity/Q4890913,,https://en.wikipedia.org/wiki/Bepin_Behari_Ganguly_Street,Point(88.357922222 22.569775),0.691,22.569775,88.357922222222,3.0,http://www.wikidata.org/entity/Q79007,Bepin Behari Ganguly Street,street,C,yellow,,,,,,,
217,http://www.wikidata.org/entity/Q4916519,,https://en.wikipedia.org/wiki/Birla_Institute_of_Liberal_Arts_and_Management_Sciences,Point(88.351591666 22.540225),3.82,22.540225,88.351591666667,3.0,http://www.wikidata.org/entity/Q1664720,Birla Institute of Liberal Arts and Management Sciences,institute,C,yellow,,,,,,,
218,http://www.wikidata.org/entity/Q5018918,,https://en.wikipedia.org/wiki/Calcutta_Boys%27_School,Point(88.3671 22.562789),1.144,22.562789,88.3671,3.0,http://www.wikidata.org/entity/Q67388747,Calcutta Boys' School,urban school,C,yellow,,,,,,,
220,http://www.wikidata.org/entity/Q5018937,,https://en.wikipedia.org/wiki/Calcutta_Jain_Temple,Point(88.377842 22.591621),2.55,22.591621,88.377842,3.0,http://www.wikidata.org/entity/Q58621988,Calcutta Jain Temple,temple complex,C,yellow,,,,,,,
225,http://www.wikidata.org/entity/Q5073228,,https://en.wikipedia.org/wiki/Chaplin_Cinema_(Kolkata),Point(88.3508 22.5615),1.829,22.5615,88.3508,3.0,http://www.wikidata.org/entity/Q41253,Chaplin Cinema,movie theater,C,yellow,,,,,,,
234,http://www.wikidata.org/entity/Q5416955,,https://en.wikipedia.org/wiki/Everest_House_(Kolkata),Point(88.34606667 22.54657778),3.428,22.54657778,88.34606667,3.0,http://www.wikidata.org/entity/Q41176,Everest House,building,C,yellow,,,,,,,
235,http://www.wikidata.org/entity/Q5535166,,https://en.wikipedia.org/wiki/Geography_of_Kolkata,Point(88.3638815 22.5726723),0.003,22.5726723,88.3638815,3.0,http://www.wikidata.org/entity/Q46865913,geography of Kolkata,geography of geographic location,C,yellow,,,,,,,
237,http://www.wikidata.org/entity/Q5656757,,https://en.wikipedia.org/wiki/Hare_School,Point(88.36298 22.575648),0.347,22.575648,88.36298,3.0,http://www.wikidata.org/entity/Q1713379,Hare School,boys' school,C,yellow,,,,,,,
240,http://www.wikidata.org/entity/Q5766377,,"https://en.wikipedia.org/wiki/Hindu_School,_Kolkata",Point(88.363499999 22.5761),0.386,22.576100000628,88.363499999897,3.0,http://www.wikidata.org/entity/Q1713379,Hindu School,boys' school,C,yellow,,,,,,,
243,http://www.wikidata.org/entity/Q6020723,,https://en.wikipedia.org/wiki/Indian_Institute_of_Social_Welfare_and_Business_Management,Point(88.3608 22.5762),0.507,22.5762,88.3608,3.0,http://www.wikidata.org/entity/Q1143635,Indian Institute of Social Welfare and Business Management,business school,C,yellow,,,,,,,
247,http://www.wikidata.org/entity/Q6427300,,https://en.wikipedia.org/wiki/Kolkata_Little_Magazine_Library_And_Research_Center,Point(88.36503 22.57682),0.479,22.57682,88.36503,3.0,http://www.wikidata.org/entity/Q7075,Kolkata Little Magazine Library And Research Center,library,C,yellow,,,,,,,
248,http://www.wikidata.org/entity/Q6680900,,"https://en.wikipedia.org/wiki/Loreto_College,_Kolkata",Point(88.352263888 22.550169444),2.77,22.550169444444,88.352263888889,3.0,http://www.wikidata.org/entity/Q3660535,Loreto College,women's college,C,yellow,,,,,,,
249,http://www.wikidata.org/entity/Q6732833,,https://en.wikipedia.org/wiki/Mahajati_Sadan,Point(88.361886111 22.581147222),0.968,22.581147222222,88.361886111111,3.0,http://www.wikidata.org/entity/Q41176,Mahajati Sadan,building,C,yellow,,,,,,,
252,http://www.wikidata.org/entity/Q6755206,,https://en.wikipedia.org/wiki/Marble_Palace_Zoo,Point(88.3595 22.582),1.134,22.582,88.3595,3.0,http://www.wikidata.org/entity/Q43501,Marble Palace Zoo,zoo,C,yellow,,,,,,,
253,http://www.wikidata.org/entity/Q6792417,,https://en.wikipedia.org/wiki/Maulana_Abul_Kalam_Azad_Institute_of_Asian_Studies,Point(88.356568 22.533024),4.469,22.533024,88.356568,3.0,http://www.wikidata.org/entity/Q31855,Maulana Abul Kalam Azad Institute of Asian Studies,research institute,C,yellow,,,,,,,
254,http://www.wikidata.org/entity/Q6824536,,https://en.wikipedia.org/wiki/Metro_Cinema_(Kolkata),Point(88.3494 22.5641),1.766,22.5641,88.3494,3.0,http://www.wikidata.org/entity/Q41253,Metro Cinema,movie theater,C,yellow,,,,,,,
255,http://www.wikidata.org/entity/Q6963179,,https://en.wikipedia.org/wiki/Nandan_(Kolkata),Point(88.3455 22.5421),3.886,22.5421,88.3455,3.0,http://www.wikidata.org/entity/Q41253,Nandan,movie theater,C,yellow,,,,,,,
256,http://www.wikidata.org/entity/Q6973689,,"https://en.wikipedia.org/wiki/National_Institute_of_Pharmaceutical_Education_and_Research,_Kolkata",Point(88.398897555 22.580055),3.687,22.580055000594,88.398897555572,3.0,http://www.wikidata.org/entity/Q2085148,"National Institute of Pharmaceutical Education & Research, Kolkata",pharmacy school,C,yellow,,,,,,,
260,http://www.wikidata.org/entity/Q7007106,,https://en.wikipedia.org/wiki/New_Empire_Cinema_(Kolkata),Point(88.3493 22.5605),2.017,22.5605,88.3493,3.0,http://www.wikidata.org/entity/Q41253,New Empire Cinema,movie theater,C,yellow,,,,,,,
266,http://www.wikidata.org/entity/Q7285591,,"https://en.wikipedia.org/wiki/University_College_of_Science,_Technology_and_Agriculture",Point(88.373147 22.578863),1.175,22.578863,88.373147,3.0,http://www.wikidata.org/entity/Q30785519,"University College of Science, Technology & Agriculture",university campus,C,yellow,,,,,,,
268,http://www.wikidata.org/entity/Q7437647,,https://en.wikipedia.org/wiki/Scottish_Cemetery_at_Calcutta,Point(88.362621 22.544835),3.095,22.544835,88.362621,3.0,http://www.wikidata.org/entity/Q39614,Scottish Cemetery,cemetery,C,yellow,,,,,,,
281,http://www.wikidata.org/entity/Q15254588,,https://en.wikipedia.org/wiki/Mohun_Bagan_Ground,Point(88.342223 22.562035),2.519,22.562035,88.342223,3.0,http://www.wikidata.org/entity/Q1154710,Mohun Bagan Ground,association football venue,C,yellow,,,,,,,
286,http://www.wikidata.org/entity/Q19950963,,"https://en.wikipedia.org/wiki/Old_Mission_Church,_Kolkata",Point(88.351466 22.5717),1.28,22.5717,88.351466,3.0,http://www.wikidata.org/entity/Q16970,Old Mission Church,church building,C,yellow,,,,,,,
287,http://www.wikidata.org/entity/Q21190905,,https://en.wikipedia.org/wiki/Maa_Flyover,Point(88.3879076 22.5414815),4.253,22.5414815,88.3879076,3.0,http://www.wikidata.org/entity/Q1425560,Maa Flyover,overpass,C,yellow,,,,,,,
290,http://www.wikidata.org/entity/Q28172108,,https://en.wikipedia.org/wiki/Calcutta_International_Exhibition,Point(88.350833333 22.558055555),2.105,22.558055555556,88.350833333333,3.0,http://www.wikidata.org/entity/Q172754,Calcutta International Exhibition,world's fair,C,yellow,,,,,,,
301,http://www.wikidata.org/entity/Q30639601,,https://en.wikipedia.org/wiki/Victoria_metro_station_(Kolkata),Point(88.341615 22.551344),3.293,22.551344,88.341615,3.0,http://www.wikidata.org/entity/Q28109487,Victoria metro station,proposed railway station,C,yellow,,,,,,,
302,http://www.wikidata.org/entity/Q31726001,,https://en.wikipedia.org/wiki/Tala_tank,Point(88.378888888 22.61),4.429,22.61,88.378888888889,3.0,http://www.wikidata.org/entity/Q274153,Tala Tank,water tower,C,yellow,,,,,,,
303,http://www.wikidata.org/entity/Q54317695,,"https://en.wikipedia.org/wiki/Dhakeshwari_Mata_Temple,_Kumortuli",Point(88.36 22.6),3.068,22.6,88.36,3.0,http://www.wikidata.org/entity/Q842402,"Dhakeshwari Mata Temple, Kumortuli",Hindu temple,C,yellow,,,,,,,
314,http://www.wikidata.org/entity/Q56682439,,"https://en.wikipedia.org/wiki/Boat_Museum,_Kolkata",Point(88.3908211 22.5818776),2.949,22.582,88.391,3.0,http://www.wikidata.org/entity/Q33506,Boat museum,museum,C,yellow,,,,,,,
325,http://www.wikidata.org/entity/Q84347413,,https://en.wikipedia.org/wiki/Tala_Bridge,Point(88.3756963 22.6087115),4.189,22.6087115,88.3756963,3.0,http://www.wikidata.org/entity/Q19860854,Tala Bridge,destroyed building or structure,C,yellow,,,,,,,
328,http://www.wikidata.org/entity/Q115705087,,https://en.wikipedia.org/wiki/Howrah_Planetarium_and_Astronomical_Research_Centre,Point(88.331262 22.5822313),3.516,22.5822313,88.331262,3.0,http://www.wikidata.org/entity/Q148319,Howrah Planetarium and Astronomical Research Centre,planetarium,C,yellow,,,,,,,
332,http://www.wikidata.org/entity/Q4841997,,https://en.wikipedia.org/wiki/Bagmari-Manicktala_Government_Sponsored_Higher_Secondary_School,Point(88.3928 22.5816),3.13,22.58160000041,88.392800000075,2.0,http://www.wikidata.org/entity/Q64062731,Bagmari-Manicktala Government Sponsored Higher Secondary School,higher secondary school,C,yellow,,,,,,,
336,http://www.wikidata.org/entity/Q4901500,,https://en.wikipedia.org/wiki/Bhavan%27s_Gangabux_Kanoria_Vidyamandir,Point(88.402844 22.577344),4.033,22.577344,88.402844,2.0,http://www.wikidata.org/entity/Q159334,Bhavan's Gangabux Kanoria Vidyamandir,secondary school,C,yellow,,,,,,,
339,http://www.wikidata.org/entity/Q5018954,,https://en.wikipedia.org/wiki/Calcutta_School_of_Music,Point(88.361438888 22.531769444),4.552,22.531769444444,88.361438888889,2.0,http://www.wikidata.org/entity/Q1021290,Calcutta School of Music,music school,C,yellow,,,,,,,
340,http://www.wikidata.org/entity/Q5087933,,https://en.wikipedia.org/wiki/Chatterjee_International_Center,Point(88.34800556 22.55325278),2.704,22.55325278,88.34800556,2.0,http://www.wikidata.org/entity/Q41176,Chatterjee International Center,building,C,yellow,,,,,,,
346,http://www.wikidata.org/entity/Q5577135,,https://en.wikipedia.org/wiki/Goenka_College_of_Commerce_and_Business_Administration,Point(88.361394444 22.569827777),0.405,22.569827777778,88.361394444444,2.0,http://www.wikidata.org/entity/Q1143635,Goenka College of Commerce and Business Administration,business school,C,yellow,,,,,,,
347,http://www.wikidata.org/entity/Q5608247,,https://en.wikipedia.org/wiki/Aurobindo_Sarani,Point(88.371019444 22.594686111),2.557,22.594686111111,88.371019444444,2.0,http://www.wikidata.org/entity/Q79007,Sri Aurobindo Sarani,street,C,yellow,,,,,,,
349,http://www.wikidata.org/entity/Q6319406,,https://en.wikipedia.org/wiki/Jyoti_Cinema_(Kolkata),Point(88.3535 22.5636),1.467,22.5636,88.3535,2.0,http://www.wikidata.org/entity/Q41253,Jyoti Cinema,movie theater,C,yellow,,,,,,,
355,http://www.wikidata.org/entity/Q6893503,,https://en.wikipedia.org/wiki/Mohammedan_Sporting_Ground,Point(88.345871 22.562342),2.177,22.562342,88.345871,2.0,http://www.wikidata.org/entity/Q1154710,Mohammedan Sporting Ground,association football venue,C,yellow,,,,,,,
357,http://www.wikidata.org/entity/Q7112897,,https://en.wikipedia.org/wiki/Outram_Ghat,Point(88.338263 22.564167),2.796,22.564167,88.338263,2.0,http://www.wikidata.org/entity/Q1010155,Outram Ghat,ghat,C,yellow,,,,,,,
359,http://www.wikidata.org/entity/Q7289695,,https://en.wikipedia.org/wiki/Ramakrishna_Sarada_Mission_Sister_Nivedita_Girls%27_School,Point(88.366012 22.602737),3.353,22.602737,88.366012,2.0,http://www.wikidata.org/entity/Q22713629,Ramkrishna Sarada Mission Sister Nivedita Girls' School,girls' school,C,yellow,,,,,,,
360,http://www.wikidata.org/entity/Q7372457,,https://en.wikipedia.org/wiki/Roxy_Cinema_(Kolkata),Point(88.3499 22.5622),1.848,22.5622,88.3499,2.0,http://www.wikidata.org/entity/Q41253,Roxy Cinema,movie theater,C,yellow,,,,,,,
361,http://www.wikidata.org/entity/Q7400183,,https://en.wikipedia.org/wiki/Sailendra_Sircar_Vidyalaya,Point(88.3685 22.5976),2.815,22.59760000013,88.368500000311,2.0,http://www.wikidata.org/entity/Q1713379,Sailendra Sirkar Vidyalaya,boys' school,C,yellow,,,,,,,
365,http://www.wikidata.org/entity/Q7419009,,https://en.wikipedia.org/wiki/Sanskrit_Collegiate_School,Point(88.364499999 22.575599999),0.334,22.575599999641,88.36449999998,2.0,http://www.wikidata.org/entity/Q1713379,Sanskrit Collegiate School,boys' school,C,yellow,,,,,,,
371,http://www.wikidata.org/entity/Q7588404,,https://en.wikipedia.org/wiki/St._James%27_School_(Kolkata),Point(88.3656 22.555),1.97,22.555,88.3656,2.0,http://www.wikidata.org/entity/Q67388747,St. James' School,urban school,C,yellow,,,,,,,
381,http://www.wikidata.org/entity/Q7937622,,https://en.wikipedia.org/wiki/Vivekananda_Institution,Point(88.31651 22.5784),4.907,22.578400000551,88.316510000547,2.0,http://www.wikidata.org/entity/Q1713379,Vivekananda Institution,boys' school,C,yellow,,,,,,,
385,http://www.wikidata.org/entity/Q11826456,,https://en.wikipedia.org/wiki/2011_AMRI_Hospital_fire,Point(88.3697 22.5697),0.68,22.5697,88.3697,2.0,http://www.wikidata.org/entity/Q7625093,2011 AMRI Hospital fire,structure fire,C,yellow,,,,,,,
391,http://www.wikidata.org/entity/Q16344888,,,Point(88.353055555 22.593055555),2.528,22.593055555556,88.353055555556,2.0,http://www.wikidata.org/entity/Q44539,Anandamoyee Kalibari,temple,C,yellow,,,,,,,
392,http://www.wikidata.org/entity/Q16893587,,https://en.wikipedia.org/wiki/Kolkata_Eye,Point(88.3453 22.5745),1.92,22.5745,88.3453,2.0,http://www.wikidata.org/entity/Q811979,Kolkata Eye,architectural structure,C,yellow,,,,,,,
393,http://www.wikidata.org/entity/Q16899442,,https://en.wikipedia.org/wiki/Royal_Calcutta_Turf_Club,Point(88.3509 22.5509),2.762,22.5509,88.3509,2.0,http://www.wikidata.org/entity/Q988108,Royal Calcutta Turf Club,club,C,yellow,,,,,,,
395,http://www.wikidata.org/entity/Q17016720,,"https://en.wikipedia.org/wiki/St._Lawrence_High_School,_Kolkata",Point(88.3558 22.52871944),4.954,22.52871944,88.3558,2.0,http://www.wikidata.org/entity/Q3580134,"St. Lawrence High School, Kolkata",Jesuit school,C,yellow,,,,,,,
397,http://www.wikidata.org/entity/Q17021121,,"https://en.wikipedia.org/wiki/St._James%27_Church,_Kolkata",Point(88.36295 22.55505),1.959,22.55505,88.36295,2.0,http://www.wikidata.org/entity/Q16970,St. James' Church,church building,C,yellow,,,,,,,
399,http://www.wikidata.org/entity/Q17198882,,https://en.wikipedia.org/wiki/Central_Calcutta_Polytechnic,Point(88.3717488 22.5599632),1.624,22.5599632,88.3717488,2.0,http://www.wikidata.org/entity/Q845392,Central Calcutta Polytechnic,polytechnic,C,yellow,,,,,,,
400,http://www.wikidata.org/entity/Q18164352,,https://en.wikipedia.org/wiki/Scottish_Church_Collegiate_School,Point(88.360180555 22.5971),2.746,22.5971,88.360180555556,2.0,http://www.wikidata.org/entity/Q1713379,Scottish Church Collegiate School,boys' school,C,yellow,,,,,,,
404,http://www.wikidata.org/entity/Q20508340,,,Point(88.351 22.579),1.501,22.579,88.351,2.0,http://www.wikidata.org/entity/Q4989906,Q20508340,monument,C,yellow,,,,,,,
405,http://www.wikidata.org/entity/Q22343101,,,Point(88.350906 22.573081),1.335,22.573081,88.350906,2.0,http://www.wikidata.org/entity/Q16970,St. Andrew's Church,church building,C,yellow,,,,,,,
407,http://www.wikidata.org/entity/Q23022948,,https://en.wikipedia.org/wiki/Abhinav_Bharati_High_School,Point(88.351541 22.544068),3.421,22.544068,88.351541,2.0,http://www.wikidata.org/entity/Q423208,Abhinav Bharti High School,private school,C,yellow,,,,,,,
409,http://www.wikidata.org/entity/Q26791144,,,Point(88.366666666 22.6),3.055,22.6,88.366666666667,2.0,http://www.wikidata.org/entity/Q12284,Circular Canal,canal,C,yellow,,,,,,,
410,http://www.wikidata.org/entity/Q28170257,,,Point(88.4076941 22.560624),4.692,22.560624,88.4076941,2.0,http://www.wikidata.org/entity/Q27556165,Mini TTT and MWT Kolkata 2017,workshop,C,yellow,,,,,,,
411,http://www.wikidata.org/entity/Q30644965,,https://en.wikipedia.org/wiki/Baba_Saheb_Ambedkar_Education_University,Point(88.3559906 22.5302408),4.784,22.5302408,88.3559906,2.0,http://www.wikidata.org/entity/Q875538,Baba Saheb Ambedkar Education University,public university,C,yellow,,,,,,,
412,http://www.wikidata.org/entity/Q31724926,,,Point(88.36694722 22.603),3.39,22.603,88.36694722,2.0,http://www.wikidata.org/entity/Q41176,Residence of Sister Nivedita,building,C,yellow,,,,,,,
413,http://www.wikidata.org/entity/Q34501238,,"https://en.wikipedia.org/wiki/Elite_Cinema_Hall,_Calcutta",Point(88.3538589 22.5629291),1.493,22.5629291,88.3538589,2.0,http://www.wikidata.org/entity/Q41253,Elite Cinema,movie theater,C,yellow,,,,,,,
415,http://www.wikidata.org/entity/Q40443076,,,Point(88.407694111 22.560624),4.692,22.560624,88.407694111111,2.0,http://www.wikidata.org/entity/Q129166943,Wikidata workshop Kolkata 2017,Wikidata workshop,C,yellow,,,,,,,
416,http://www.wikidata.org/entity/Q40670133,,,Point(88.35055542 22.57050514),1.39,22.57050514,88.35055542,2.0,http://www.wikidata.org/entity/Q34627,Beth-El Synagogue,synagogue,C,yellow,,,,,,,
417,http://www.wikidata.org/entity/Q43386512,,,Point(88.407694111 22.560624),4.692,22.560624,88.407694111111,2.0,http://www.wikidata.org/entity/Q1062856,Bangla Wikisource 10th Anniversary Celebration,anniversary,C,yellow,,,,,,,
418,http://www.wikidata.org/entity/Q48727756,,https://en.wikipedia.org/wiki/Howrah_Zilla_School,Point(88.33513 22.57452),2.961,22.574520000639,88.335130000381,2.0,http://www.wikidata.org/entity/Q1713379,Howrah Zilla School,boys' school,C,yellow,,,,,,,
421,http://www.wikidata.org/entity/Q50892513,,https://en.wikipedia.org/wiki/Mitra_Institution_(Main),Point(88.368199999 22.572399999),0.443,22.572399999801,88.368199999837,2.0,http://www.wikidata.org/entity/Q1713379,Mitra Institution (Main),boys' school,C,yellow,,,,,,,
428,http://www.wikidata.org/entity/Q55634621,,"https://en.wikipedia.org/wiki/Taki_House,_Govt_Sponsored_Multipurpose_School_for_Boys",Point(88.3723312 22.57321),0.868,22.57321,88.3723312,2.0,http://www.wikidata.org/entity/Q1713379,Taki House Govt Sponsored Multipurpose School for Boys,boys' school,C,yellow,,,,,,,
437,http://www.wikidata.org/entity/Q58623459,,,Point(88.391297 22.547828),3.941,22.547828,88.391297,2.0,http://www.wikidata.org/entity/Q44539,Chinese Kali Mandir,temple,C,yellow,,,,,,,
438,http://www.wikidata.org/entity/Q60054014,,,Point(88.373078055 22.57505),0.98,22.57505,88.373078055556,2.0,http://www.wikidata.org/entity/Q14827288,Documenting Brahmo Samaj Cemetery-Nabodebalay,Wikimedia projects,C,yellow,,,,,,,
439,http://www.wikidata.org/entity/Q61417193,,,Point(88.361677 22.546414),2.926,22.546414,88.361677,2.0,http://www.wikidata.org/entity/Q27968055,Wikisammelan 2019,recurrent event edition,C,yellow,,,,,,,
442,http://www.wikidata.org/entity/Q67590242,,https://en.wikipedia.org/wiki/Bhot_Bagan_Moth,Point(88.357765 22.614695),4.718,22.614695,88.357765,2.0,http://www.wikidata.org/entity/Q844619,Bhot Bagan Math,vihara,C,yellow,,,,,,,
443,http://www.wikidata.org/entity/Q68023417,,,Point(88.3743365 22.581858),1.483,22.581858,88.3743365,2.0,http://www.wikidata.org/entity/Q7075,Rammohun Library and Free Reading Room,library,C,yellow,,,,,,,
444,http://www.wikidata.org/entity/Q68472164,,,Point(88.352694444 22.564833333),1.441,22.564833333333,88.352694444444,2.0,http://www.wikidata.org/entity/Q16970,Church of the Sacred Heart of Jesus,church building,C,yellow,,,,,,,
445,http://www.wikidata.org/entity/Q79326864,,,Point(88.387361111 22.593222222),3.322,22.593222222222,88.387361111111,2.0,http://www.wikidata.org/entity/Q55426935,Commons Meetup Kolkata 2019,Wikimedia meetups in Kolkata,C,yellow,,,,,,,
446,http://www.wikidata.org/entity/Q86824380,,,Point(88.3404329 22.5683853),2.455,22.5683853,88.3404329,2.0,http://www.wikidata.org/entity/Q863454,Chandpal Ferry Ghat,pier,C,yellow,,,,,,,
448,http://www.wikidata.org/entity/Q90092840,,https://en.wikipedia.org/wiki/Baker_Hostel,Point(88.3589861 22.5588543),1.614,22.5588543,88.3589861,2.0,http://www.wikidata.org/entity/Q3661265,Baker Hostel,university dormitory,C,yellow,,,,,,,
449,http://www.wikidata.org/entity/Q97144282,,"https://en.wikipedia.org/wiki/Electric_Loco_Shed,_Howrah",Point(88.33524 22.604813),4.631,22.604813,88.33524,2.0,http://www.wikidata.org/entity/Q10283556,"Electric Loco Shed, Howrah",motive power depot,C,yellow,,,,,,,
450,http://www.wikidata.org/entity/Q97609952,,https://en.wikipedia.org/wiki/College_Square_Swimming_Pool,Point(88.363539 22.574683),0.229,22.574683,88.363539,2.0,http://www.wikidata.org/entity/Q1501,College Square Swimming Pool,swimming pool,C,yellow,,,,,,,
453,http://www.wikidata.org/entity/Q110984229,,https://en.wikipedia.org/wiki/Nahoum_%26_Sons,Point(88.3530294 22.5602866),1.77,22.5602866,88.3530294,2.0,http://www.wikidata.org/entity/Q274393,Nahoum & Sons,bakery,C,yellow,,,,,,,
455,http://www.wikidata.org/entity/Q112205690,,"https://en.wikipedia.org/wiki/Chandni_Chowk,_Kolkata",Point(88.356666666 22.565555555),1.083,22.565555555556,88.356666666667,2.0,http://www.wikidata.org/entity/Q56061,Chandni Chowk,administrative territorial entity,C,yellow,,,,,,,
456,http://www.wikidata.org/entity/Q4808698,,https://en.wikipedia.org/wiki/Assembly_of_God_Church_School,Point(88.3607142 22.54751),2.814,22.5518798,88.3573435,1.0,http://www.wikidata.org/entity/Q67388747,Assembly of God Church School,urban school,D,blue,,,,,,,
462,http://www.wikidata.org/entity/Q4916516,,https://en.wikipedia.org/wiki/Birla_High_School,Point(88.352131 22.54345),3.464,22.54345,88.352131,1.0,http://www.wikidata.org/entity/Q159334,Birla High School,secondary school,D,blue,,,,,,,
467,http://www.wikidata.org/entity/Q5570972,,https://en.wikipedia.org/wiki/Globe_Cinema_(Kolkata),Point(88.3501 22.5591),2.068,22.5591,88.3501,1.0,http://www.wikidata.org/entity/Q41253,Globe Cinema,movie theater,D,blue,,,,,,,
470,http://www.wikidata.org/entity/Q6546328,,https://en.wikipedia.org/wiki/Lighthouse_Cinema_(Kolkata),Point(88.3495 22.5597),2.063,22.5597,88.3495,1.0,http://www.wikidata.org/entity/Q41253,Lighthouse Cinema,movie theater,D,blue,,,,,,,
472,http://www.wikidata.org/entity/Q6802836,,https://en.wikipedia.org/wiki/Md_Jan_Higher_Secondary_School,Point(88.356999999 22.5767),0.839,22.576700000414,88.356999999809,1.0,http://www.wikidata.org/entity/Q64062731,Md Jan Higher Secondary School,higher secondary school,D,blue,,,,,,,
475,http://www.wikidata.org/entity/Q6966016,,https://en.wikipedia.org/wiki/Narkeldanga_High_School,Point(88.3830524 22.5718104),1.969,22.5718104,88.3830524,1.0,http://www.wikidata.org/entity/Q159334,Narkeldanga High School,secondary school,D,blue,,,,,,,
477,http://www.wikidata.org/entity/Q7134255,,https://en.wikipedia.org/wiki/Paradise_Cinema_(Kolkata),Point(88.3496 22.5668),1.605,22.5668,88.3496,1.0,http://www.wikidata.org/entity/Q41253,Paradise Cinema,movie theater,D,blue,,,,,,,
481,http://www.wikidata.org/entity/Q7404946,,https://en.wikipedia.org/wiki/Salkia_Vikram_Vidyalaya,Point(88.339949999 22.60137),4.03,22.601370000043,88.339949999971,1.0,http://www.wikidata.org/entity/Q64062731,Salkia Vikram Vidyalaya,higher secondary school,D,blue,,,,,,,
486,http://www.wikidata.org/entity/Q7588662,,https://en.wikipedia.org/wiki/St._John%27s_Diocesan_Girls%27_Higher_Secondary_School,Point(88.3542 22.5375),4.033,22.5375,88.3542,1.0,http://www.wikidata.org/entity/Q22713629,St. John's Diocesan Girls' Higher Secondary School,girls' school,D,blue,,,,,,,
493,http://www.wikidata.org/entity/Q15958190,,,Point(88.346297 22.569911),1.832,22.569911,88.346297,1.0,http://www.wikidata.org/entity/Q16970,St. Francis Xavier's Church,church building,D,blue,,,,,,,
494,http://www.wikidata.org/entity/Q16255382,,https://en.wikipedia.org/wiki/Brahmo_Balika_Shikshalaya,Point(88.374 22.579499999),1.287,22.57949999971,88.374000000317,1.0,http://www.wikidata.org/entity/Q22713629,Brahmo Balika Shikshalaya,girls' school,D,blue,,,,,,,
497,http://www.wikidata.org/entity/Q16345573,,,Point(88.363611111 22.573055555),0.054,22.573055555556,88.363611111111,1.0,http://www.wikidata.org/entity/Q44539,Dayamoyee Kalibari,temple,D,blue,,,,,,,
499,http://www.wikidata.org/entity/Q16979533,,"https://en.wikipedia.org/wiki/Ling_Liang_Chinese_Church_Trust,_Calcutta_India",Point(88.356666666 22.572222222),0.744,22.572222222222,88.356666666667,1.0,http://www.wikidata.org/entity/Q16970,Ling Liang Chinese Church Trust,church building,D,blue,,,,,,,
501,http://www.wikidata.org/entity/Q17125179,,https://en.wikipedia.org/wiki/J._D._Birla_Institute,Point(88.3573 22.5388),3.824,22.5388,88.3573,1.0,http://www.wikidata.org/entity/Q4671277,J.D. Birla Institute,academic institution,D,blue,,,,,,,
502,http://www.wikidata.org/entity/Q17509694,,https://en.wikipedia.org/wiki/Bhagini_Nivedita_College,Point(88.3639 22.5726),0.005,22.5726,88.3639,1.0,http://www.wikidata.org/entity/Q4671277,Bhagini Nivedita College,academic institution,D,blue,,,,,,,
503,http://www.wikidata.org/entity/Q19572137,,https://en.wikipedia.org/wiki/Howrah_Ramkrishnapur_High_School,Point(88.328449999 22.57826),3.692,22.578260000239,88.328449999469,1.0,http://www.wikidata.org/entity/Q159334,Howrah Ramkrishnapur High School,secondary school,D,blue,,,,,,,
506,http://www.wikidata.org/entity/Q19600018,,https://en.wikipedia.org/wiki/Taltala_High_School,Point(88.362899999 22.560599999),1.343,22.560599999298,88.362899999848,1.0,http://www.wikidata.org/entity/Q64062731,Taltala High School,higher secondary school,D,blue,,,,,,,
509,http://www.wikidata.org/entity/Q19895602,,https://en.wikipedia.org/wiki/Raghumal_Arya_Vidyalaya,Point(88.3738 22.584199999),1.638,22.584199999585,88.3738000003,1.0,http://www.wikidata.org/entity/Q1713379,Raghumal Arya Vidyalaya,boys' school,D,blue,,,,,,,
513,http://www.wikidata.org/entity/Q23013455,,https://en.wikipedia.org/wiki/Ashok_Hall_Girls%27_Higher_Secondary_School,Point(88.3537765 22.5400433),3.771,22.534061,88.3697818,1.0,http://www.wikidata.org/entity/Q22713629,Ashok Hall Girls' Higher Secondary School,girls' school,D,blue,,,,,,,
525,http://www.wikidata.org/entity/Q23013854,,https://en.wikipedia.org/wiki/Sakhawat_Memorial_Govt._Girls%27_High_School,Point(88.348999999 22.5448),3.453,22.544800000215,88.348999999147,1.0,http://www.wikidata.org/entity/Q22713629,Sakhawat Memorial Govt. Girls' High School,girls' school,D,blue,,,,,,,
528,http://www.wikidata.org/entity/Q23134182,,https://en.wikipedia.org/wiki/Brahmo_Boys_School,Point(88.368199999 22.579899999),0.92,22.579899999941,88.368199999837,1.0,http://www.wikidata.org/entity/Q1713379,Brahmo Boy's School,boys' school,D,blue,,,,,,,
531,http://www.wikidata.org/entity/Q24944119,,https://en.wikipedia.org/wiki/Maheshwari_Girls%27_School,Point(88.3577987 22.5873564),1.751,22.5873564,88.3577987,1.0,http://www.wikidata.org/entity/Q22713629,Maheshwari Girls' School,girls' school,D,blue,,,,,,,
534,http://www.wikidata.org/entity/Q24945327,,https://en.wikipedia.org/wiki/Cathedral_Mission_High_School,Point(88.353099999 22.5376),4.051,22.537600000288,88.353099999936,1.0,http://www.wikidata.org/entity/Q1713379,Cathedral Mission High School,boys' school,D,blue,,,,,,,
537,http://www.wikidata.org/entity/Q24949563,,https://en.wikipedia.org/wiki/Momin_High_School,Point(88.378399999 22.574899999),1.51,22.574899999855,88.378399999782,1.0,http://www.wikidata.org/entity/Q64062731,Momin High School,higher secondary school,D,blue,,,,,,,
540,http://www.wikidata.org/entity/Q28007387,,"https://en.wikipedia.org/wiki/Fatima_Church,_Kolkata",Point(88.371855555 22.554275),2.2,22.554275,88.371855555556,1.0,http://www.wikidata.org/entity/Q16970,Fatima Church,church building,D,blue,,,,,,,
542,http://www.wikidata.org/entity/Q28172494,,https://en.wikipedia.org/wiki/Howrah_Shiksha_Sadan_Boys%27_School,Point(88.33006 22.580589999),3.584,22.580589999352,88.330060000545,1.0,http://www.wikidata.org/entity/Q159334,Howrah Shiksha Sadan Boys' School,secondary school,D,blue,,,,,,,
545,http://www.wikidata.org/entity/Q28172492,,https://en.wikipedia.org/wiki/Howrah_Sangha_Adarsha_Balika_Vidyalaya,Point(88.330719999 22.58672),3.748,22.586720000021,88.330719999971,1.0,http://www.wikidata.org/entity/Q22713629,Howrah Sangha Adarsha Balika Vidyalaya,girls' school,D,blue,,,,,,,
548,http://www.wikidata.org/entity/Q29916985,,,Point(88.3729734 22.5748692),0.964,22.5748692,88.3729734,1.0,http://www.wikidata.org/entity/Q39614,"Brahmo Cemetery, Nabodebalay",cemetery,D,blue,,,,,,,
550,http://www.wikidata.org/entity/Q39046565,,"https://en.wikipedia.org/wiki/National_Institute_of_Technical_Teachers%27_Training_and_Research,_Kolkata",Point(88.4077 22.5815),4.604,22.5815,88.4077,1.0,http://www.wikidata.org/entity/Q4671277,"National Institute of Technical Teachers' Training and Research, Kolkata",academic institution,D,blue,,,,,,,
553,http://www.wikidata.org/entity/Q44143387,,,Point(88.3457724 22.5709157),1.871,22.5709157,88.3457724,1.0,http://www.wikidata.org/entity/Q162875,Job Charnock's Mausoleum,mausoleum,D,blue,,,,,,,
554,http://www.wikidata.org/entity/Q48724925,,,Point(88.31906 22.568059999),4.632,22.568059999671,88.319060000534,1.0,http://www.wikidata.org/entity/Q22713629,Sibpur Hindu Girls High School,girls' school,D,blue,,,,,,,
558,http://www.wikidata.org/entity/Q48731146,,https://en.wikipedia.org/wiki/Shiraz_Golden_Restaurant,Point(88.35986111 22.54643889),2.943,22.54643889,88.35986111,1.0,http://www.wikidata.org/entity/Q11707,Shiraz Golden Restaurant,restaurant,D,blue,,,,,,,
559,http://www.wikidata.org/entity/Q48733888,,https://en.wikipedia.org/wiki/Stephen_Court_fire,Point(88.3522 22.5524),2.551,22.5524,88.3522,1.0,http://www.wikidata.org/entity/Q7625093,Stephen Court Fire,structure fire,D,blue,,,,,,,
560,http://www.wikidata.org/entity/Q48774272,,,Point(88.3686664 22.5668696),0.808,22.5668696,88.3686664,1.0,http://www.wikidata.org/entity/Q16970,Church of our Lady of Dolours,church building,D,blue,,,,,,,
561,http://www.wikidata.org/entity/Q52635401,,https://en.wikipedia.org/wiki/Vidhyanjali_High_School,Point(88.3504493 22.534184),4.494,22.534184,88.3504493,1.0,http://www.wikidata.org/entity/Q64062731,Vidhyanjali High School,higher secondary school,D,blue,,,,,,,
563,http://www.wikidata.org/entity/Q55593163,,,Point(88.3469 22.5851),2.228,22.5851,88.3469,1.0,http://www.wikidata.org/entity/Q2104072,Old Howrah Bridge,pontoon bridge,D,blue,,,,,,,
564,http://www.wikidata.org/entity/Q56244717,,,Point(88.35113525 22.55491257),2.367,22.55491257,88.35113525,1.0,http://www.wikidata.org/entity/Q41176,Asiatic Society building,building,D,blue,,,,,,,
565,http://www.wikidata.org/entity/Q56424794,,,Point(88.3455889 22.5710371),1.888,22.5710371,88.3455889,1.0,http://www.wikidata.org/entity/Q381885,Tomb of Frances Johnson,tomb,D,blue,,,,,,,
566,http://www.wikidata.org/entity/Q56682342,,,Point(88.3562697 22.5335133),4.421,22.5335133,88.3562697,1.0,http://www.wikidata.org/entity/Q33506,Azad Memorabilia Museum,museum,D,blue,,,,,,,
567,http://www.wikidata.org/entity/Q56682413,,,Point(88.374083333 22.583055555),1.56,22.583055555556,88.374083333333,1.0,http://www.wikidata.org/entity/Q7209480,Calcutta Police Museum,police museum,D,blue,,,,,,,
568,http://www.wikidata.org/entity/Q56682452,,,Point(88.34995 22.56525),1.651,22.56525,88.34995,1.0,http://www.wikidata.org/entity/Q33506,Smaranika Tram Museum,museum,D,blue,,,,,,,
569,http://www.wikidata.org/entity/Q56682483,,,Point(88.3690305 22.5829921),1.265,22.5829921,88.3690305,1.0,http://www.wikidata.org/entity/Q33506,Raja Rammohun Roy Memorial Museum,museum,D,blue,,,,,,,
570,http://www.wikidata.org/entity/Q56682945,,,Point(88.3733867 22.5795949),1.244,22.5795949,88.3733867,1.0,http://www.wikidata.org/entity/Q33506,Jagadish Chandra Bose Science Heritage Museum,museum,D,blue,,,,,,,
571,http://www.wikidata.org/entity/Q56683351,,,Point(88.367012 22.603238),3.417,22.603238,88.367012,1.0,http://www.wikidata.org/entity/Q33506,Sri Chaitanya Mahaprabhu Museum,museum,D,blue,,,,,,,
572,http://www.wikidata.org/entity/Q56683358,,,Point(88.3592008 22.5849231),1.448,22.5849231,88.3592008,1.0,http://www.wikidata.org/entity/Q33506,Rabindra Bharati Museum,museum,D,blue,,,,,,,
573,http://www.wikidata.org/entity/Q56683537,,,Point(88.3563618 22.5785127),1.012,22.5785127,88.3563618,1.0,http://www.wikidata.org/entity/Q32815,Hafiz Jamaluddin Masjid,mosque,D,blue,,,,,,,
574,http://www.wikidata.org/entity/Q56761726,,,Point(88.3456747 22.5703959),1.887,22.5703959,88.3456747,1.0,http://www.wikidata.org/entity/Q575759,Second Rohilla War Memorial,war memorial,D,blue,,,,,,,
575,http://www.wikidata.org/entity/Q59645204,,,Point(88.3536717 22.580913),1.395,22.580913,88.3536717,1.0,http://www.wikidata.org/entity/Q337986,Gurdwara Bara Sikh Sangat,gurdwara,D,blue,,,,,,,
576,http://www.wikidata.org/entity/Q64213508,,,Point(88.337136111 22.581555555),2.92,22.581555555556,88.337136111111,1.0,http://www.wikidata.org/entity/Q61443591,Howrah head post office,head post office,D,blue,,,,,,,
581,http://www.wikidata.org/entity/Q65954427,,,Point(88.347943 22.574009),1.645,22.574009,88.347943,1.0,http://www.wikidata.org/entity/Q65954225,Reserve Bank of India Kolkata,Reserve Bank of India branch,D,blue,,,,,,,
582,http://www.wikidata.org/entity/Q66313056,,,Point(88.35512 22.57125),0.914,22.57125,88.35512,1.0,http://www.wikidata.org/entity/Q56242063,Carey Baptist Church,Protestant church building,D,blue,,,,,,,
583,http://www.wikidata.org/entity/Q66980144,,,Point(88.3512596 22.5666996),1.456,22.5666996,88.3512596,1.0,http://www.wikidata.org/entity/Q41176,Aayakar Bhawan,building,D,blue,,,,,,,
584,http://www.wikidata.org/entity/Q66980266,,,Point(88.3437708 22.5649357),2.237,22.5649357,88.3437708,1.0,http://www.wikidata.org/entity/Q41176,Akashvani Bhavan,building,D,blue,,,,,,,
585,http://www.wikidata.org/entity/Q67591916,,,Point(88.333302777 22.581488888),3.291,22.581488888889,88.333302777778,1.0,http://www.wikidata.org/entity/Q41176,"4, Nityadhan Mukherjee Road",building,D,blue,,,,,,,
586,http://www.wikidata.org/entity/Q67633318,,,Point(88.386972222 22.606361111),4.435,22.606361111111,88.386972222222,1.0,http://www.wikidata.org/entity/Q41176,Dhurjoti Bhawan,building,D,blue,,,,,,,
587,http://www.wikidata.org/entity/Q67642356,,,Point(88.3673038 22.6080598),3.953,22.6080598,88.3673038,1.0,http://www.wikidata.org/entity/Q950431,Swing Bridge over Circular Canal,swing bridge,D,blue,,,,,,,
589,http://www.wikidata.org/entity/Q67642423,,,Point(88.374029 22.605409),3.789,22.605409,88.374029,1.0,http://www.wikidata.org/entity/Q12280,Barrackpore bridge,bridge,D,blue,,,,,,,
590,http://www.wikidata.org/entity/Q67642936,,,Point(88.369033 22.605858),3.73,22.605858,88.369033,1.0,http://www.wikidata.org/entity/Q44539,Dochala Shiva temple of Jagatram Haldar,temple,D,blue,,,,,,,
591,http://www.wikidata.org/entity/Q67645656,,,Point(88.373277777 22.604527777),3.673,22.604527777778,88.373277777778,1.0,http://www.wikidata.org/entity/Q32815,Begum Mosque,mosque,D,blue,,,,,,,
592,http://www.wikidata.org/entity/Q67648685,,,Point(88.367758 22.603062),3.405,22.603062,88.367758,1.0,http://www.wikidata.org/entity/Q41176,House of Girish Chandra Ghosh,building,D,blue,,,,,,,
594,http://www.wikidata.org/entity/Q67651735,,,Point(88.359166666 22.600555555),3.141,22.600555555556,88.359166666667,1.0,http://www.wikidata.org/entity/Q1010155,Champatala Ghat,ghat,D,blue,,,,,,,
595,http://www.wikidata.org/entity/Q67842608,,,Point(88.3715 22.5967),2.786,22.596700000015,88.371500000559,1.0,http://www.wikidata.org/entity/Q64062731,Town School,higher secondary school,D,blue,,,,,,,
599,http://www.wikidata.org/entity/Q67862438,,,Point(88.377638 22.591649),2.541,22.591649,88.377638,1.0,http://www.wikidata.org/entity/Q2613100,Sri Sri Shitalnath Swami Garden Temple,Jain temple,D,blue,,,,,,,
600,http://www.wikidata.org/entity/Q67862554,,,Point(88.378747 22.591312),2.575,22.591312,88.378747,1.0,http://www.wikidata.org/entity/Q2613100,Jain Swetamber Dadaji's Temple,Jain temple,D,blue,,,,,,,
601,http://www.wikidata.org/entity/Q67868120,,,Point(88.369111111 22.589055555),1.902,22.589055555556,88.369111111111,1.0,http://www.wikidata.org/entity/Q41176,"55, Avedananda Road",building,D,blue,,,,,,,
602,http://www.wikidata.org/entity/Q67868299,,,Point(88.371638888 22.588277777),1.911,22.588277777778,88.371638888889,1.0,http://www.wikidata.org/entity/Q41176,"34, Avedananda Road",building,D,blue,,,,,,,
603,http://www.wikidata.org/entity/Q67868339,,,Point(88.371166666 22.588388888),1.903,22.588388888889,88.371166666667,1.0,http://www.wikidata.org/entity/Q41176,"37, Avedananda Road",building,D,blue,,,,,,,
605,http://www.wikidata.org/entity/Q67869944,,,Point(88.370771 22.592583),2.326,22.592583,88.370771,1.0,http://www.wikidata.org/entity/Q861951,"1, Raja Rajkrishna street",police station,D,blue,,,,,,,
607,http://www.wikidata.org/entity/Q67871358,,,Point(88.364388888 22.590305555),1.964,22.590305555556,88.364388888889,1.0,http://www.wikidata.org/entity/Q41176,Residence of Ramdulal Sarkar,building,D,blue,,,,,,,
608,http://www.wikidata.org/entity/Q67871483,,,Point(88.364583333 22.590277777),1.962,22.590277777778,88.364583333333,1.0,http://www.wikidata.org/entity/Q41176,Deb Houses,building,D,blue,,,,,,,
609,http://www.wikidata.org/entity/Q67872010,,,Point(88.367555555 22.592944444),2.288,22.592944444444,88.367555555556,1.0,http://www.wikidata.org/entity/Q44539,Bhar's thakurbari,temple,D,blue,,,,,,,
610,http://www.wikidata.org/entity/Q67872429,,,Point(88.368666666 22.590916666),2.09,22.590916666667,88.368666666667,1.0,http://www.wikidata.org/entity/Q41176,House of Hemendra Mohan Bose,building,D,blue,,,,,,,
611,http://www.wikidata.org/entity/Q67875662,,,Point(88.35336 22.596292),2.843,22.596292,88.35336,1.0,http://www.wikidata.org/entity/Q1010155,Ahiritola Ghat,ghat,D,blue,,,,,,,
612,http://www.wikidata.org/entity/Q67882136,,,Point(88.360180555 22.5971),2.746,22.5971,88.360180555556,1.0,http://www.wikidata.org/entity/Q41176,House of Butto Kristo Paul,building,D,blue,,,,,,,
613,http://www.wikidata.org/entity/Q67886466,,,Point(88.353138888 22.593863888),2.605,22.593863888889,88.353138888889,1.0,http://www.wikidata.org/entity/Q44539,Durgeshwar Shiva temple,temple,D,blue,,,,,,,
614,http://www.wikidata.org/entity/Q67903771,,,Point(88.349823 22.587706),2.212,22.587706,88.349823,1.0,http://www.wikidata.org/entity/Q1010155,Jagannath ghat,ghat,D,blue,,,,,,,
615,http://www.wikidata.org/entity/Q67916413,,,Point(88.364263888 22.589838888),1.912,22.589838888889,88.364263888889,1.0,http://www.wikidata.org/entity/Q61443650,Beadon Street sub post office,sub post office,D,blue,,,,,,,
616,http://www.wikidata.org/entity/Q68006298,,,Point(88.368926 22.58803),1.787,22.58803,88.368926,1.0,http://www.wikidata.org/entity/Q3253281,Azad Hind Bag,artificial pond,D,blue,,,,,,,
618,http://www.wikidata.org/entity/Q68006990,,,Point(88.3695 22.587555555),1.755,22.587555555556,88.3695,1.0,http://www.wikidata.org/entity/Q41176,"2, Urquhart Square",building,D,blue,,,,,,,
619,http://www.wikidata.org/entity/Q68007159,,,Point(88.368166666 22.585972222),1.545,22.585972222222,88.368166666667,1.0,http://www.wikidata.org/entity/Q41176,YMCA Vivekananda Road,building,D,blue,,,,,,,
621,http://www.wikidata.org/entity/Q68007706,,,Point(88.370972222 22.585722222),1.625,22.585722222222,88.370972222222,1.0,http://www.wikidata.org/entity/Q41176,House of Janardan Saha,building,D,blue,,,,,,,
622,http://www.wikidata.org/entity/Q68008553,,,Point(88.370083333 22.585972222),1.612,22.585972222222,88.370083333333,1.0,http://www.wikidata.org/entity/Q44539,Sri Sri Jagat Janani temple,temple,D,blue,,,,,,,
623,http://www.wikidata.org/entity/Q68011169,,,Point(88.3695 22.584805555),1.469,22.584805555556,88.3695,1.0,http://www.wikidata.org/entity/Q41176,"16, D. L. Roy street",building,D,blue,,,,,,,
624,http://www.wikidata.org/entity/Q68011455,,,Point(88.369916666 22.586555555),1.666,22.586555555556,88.369916666667,1.0,http://www.wikidata.org/entity/Q16970,Duff Church,church building,D,blue,,,,,,,
625,http://www.wikidata.org/entity/Q68015182,,,Point(88.370083333 22.584833333),1.497,22.584833333333,88.370083333333,1.0,http://www.wikidata.org/entity/Q44539,Thakurbari of Bankubihari Saha,temple,D,blue,,,,,,,
626,http://www.wikidata.org/entity/Q68015336,,,Point(88.36925 22.586638888),1.65,22.586638888889,88.36925,1.0,http://www.wikidata.org/entity/Q41176,"71, Sisir Bhadury Sarani",building,D,blue,,,,,,,
627,http://www.wikidata.org/entity/Q68015418,,,Point(88.370472222 22.587666666),1.801,22.587666666667,88.370472222222,1.0,http://www.wikidata.org/entity/Q41176,"14/1, Duff Street",building,D,blue,,,,,,,
628,http://www.wikidata.org/entity/Q68015417,,,Point(88.37 22.586944444),1.709,22.586944444444,88.37,1.0,http://www.wikidata.org/entity/Q423208,St. Margaret's School,private school,D,blue,,,,,,,
629,http://www.wikidata.org/entity/Q68015770,,,Point(88.372111111 22.587472222),1.852,22.587472222222,88.372111111111,1.0,http://www.wikidata.org/entity/Q41176,"18, Dr. Dhiren Sen Sarani",building,D,blue,,,,,,,
630,http://www.wikidata.org/entity/Q68015980,,,Point(88.368972222 22.584861111),1.455,22.584861111111,88.368972222222,1.0,http://www.wikidata.org/entity/Q41176,House of Dwijendralal Roy,building,D,blue,,,,,,,
631,http://www.wikidata.org/entity/Q68016138,,,Point(88.371305555 22.586666666),1.735,22.586666666667,88.371305555556,1.0,http://www.wikidata.org/entity/Q41176,"25, Rammohan Saha lane",building,D,blue,,,,,,,
633,http://www.wikidata.org/entity/Q68016742,,,Point(88.370111111 22.585611111),1.577,22.585611111111,88.370111111111,1.0,http://www.wikidata.org/entity/Q41176,Saha House,building,D,blue,,,,,,,
634,http://www.wikidata.org/entity/Q68016817,,,Point(88.369638888 22.584722222),1.467,22.584722222222,88.369638888889,1.0,http://www.wikidata.org/entity/Q41176,"15, D. L. Roy street",building,D,blue,,,,,,,
635,http://www.wikidata.org/entity/Q68018111,,,Point(88.3752 22.580499999),1.452,22.580499999769,88.375200000416,1.0,http://www.wikidata.org/entity/Q67383935,Athenaeum Institution,co-educational school,D,blue,,,,,,,
638,http://www.wikidata.org/entity/Q68061808,,,Point(88.372379 22.572338),0.872,22.572338,88.372379,1.0,http://www.wikidata.org/entity/Q16560,Cossimbazar Rajbati,palace,D,blue,,,,,,,
639,http://www.wikidata.org/entity/Q68074254,,,Point(88.364033 22.57782),0.575,22.57782,88.364033,1.0,http://www.wikidata.org/entity/Q132510,College Street Market,market,D,blue,,,,,,,
640,http://www.wikidata.org/entity/Q68074746,,,Point(88.363802 22.574655),0.224,22.574655,88.363802,1.0,http://www.wikidata.org/entity/Q174782,College Square,square,D,blue,,,,,,,
642,http://www.wikidata.org/entity/Q68156673,,,Point(88.368805555 22.588888888),1.875,22.588888888889,88.368805555556,1.0,http://www.wikidata.org/entity/Q179700,Statue of Butto Kristo Paul,statue,D,blue,,,,,,,
643,http://www.wikidata.org/entity/Q68159840,,,Point(88.362616 22.574916),0.285,22.574916,88.362616,1.0,http://www.wikidata.org/entity/Q30785519,Ashutosh Shiksha Prangan,university campus,D,blue,,,,,,,
644,http://www.wikidata.org/entity/Q68272414,,,Point(88.3475105 22.570580305),1.698,22.570580305556,88.3475105,1.0,http://www.wikidata.org/entity/Q41176,Old Reserve Bank of India Central Office building,building,D,blue,,,,,,,
645,http://www.wikidata.org/entity/Q68292112,,,Point(88.346375 22.574513888),1.811,22.574513888889,88.346375,1.0,http://www.wikidata.org/entity/Q41176,Customs House,building,D,blue,,,,,,,
646,http://www.wikidata.org/entity/Q68455460,,,Point(88.347797425 22.571324726),1.659,22.571324726784,88.347797425377,1.0,http://www.wikidata.org/entity/Q179700,Statue of Maharaja Lakshmishwar Singh of Darbhanga,statue,D,blue,,,,,,,
647,http://www.wikidata.org/entity/Q68482484,,,Point(88.349936 22.559887),2.017,22.559887,88.349936,1.0,http://www.wikidata.org/entity/Q3253281,Manohar Das Tarag,artificial pond,D,blue,,,,,,,
648,http://www.wikidata.org/entity/Q68597114,,,Point(88.366676 22.559764),1.461,22.559764,88.366676,1.0,http://www.wikidata.org/entity/Q41176,House of Henry Louis Vivian Derozio,building,D,blue,,,,,,,
649,http://www.wikidata.org/entity/Q68647037,,,Point(88.365653 22.546386),2.925,22.546386,88.365653,1.0,http://www.wikidata.org/entity/Q157570,Gas Crematorium,crematorium,D,blue,,,,,,,
650,http://www.wikidata.org/entity/Q68708889,,,Point(88.351507 22.553666),2.464,22.553666,88.351507,1.0,http://www.wikidata.org/entity/Q41176,Queen's Mansion,building,D,blue,,,,,,,
652,http://www.wikidata.org/entity/Q69265409,,,Point(88.337205 22.535694),4.939,22.535694,88.337205,1.0,http://www.wikidata.org/entity/Q14750991,Bhowanipore Cemetery,Commonwealth War Graves Commission maintained cemetery,D,blue,,,,,,,
653,http://www.wikidata.org/entity/Q74549430,,,Point(88.34238 22.599159999),3.684,22.599159999605,88.342380000307,1.0,http://www.wikidata.org/entity/Q22713629,Salkia Shri Vikram Balika Vidyalaya,girls' school,D,blue,,,,,,,
656,http://www.wikidata.org/entity/Q74549578,,,Point(88.318969999 22.56224),4.756,22.56224000007,88.318969999224,1.0,http://www.wikidata.org/entity/Q64062731,Shibpur Dinobundhoo Institution (Main),higher secondary school,D,blue,,,,,,,
659,http://www.wikidata.org/entity/Q75551988,,,Point(88.372894444 22.574805555),0.955,22.574805555556,88.372894444444,1.0,http://www.wikidata.org/entity/Q41176,Kamal Kutir,building,D,blue,,,,,,,
660,http://www.wikidata.org/entity/Q75738551,,,Point(88.342613 22.583094),2.475,22.583094,88.342613,1.0,http://www.wikidata.org/entity/Q41176,Howrah station building,building,D,blue,,,,,,,
661,http://www.wikidata.org/entity/Q79443012,,,Point(88.36925 22.587111111),1.7,22.587111111111,88.36925,1.0,http://www.wikidata.org/entity/Q41176,Scottish Church College - B.Ed block,building,D,blue,,,,,,,
662,http://www.wikidata.org/entity/Q79458603,,,Point(88.368422222 22.585888888),1.544,22.585888888889,88.368422222222,1.0,http://www.wikidata.org/entity/Q41176,YMCA working hostel,building,D,blue,,,,,,,
664,http://www.wikidata.org/entity/Q85783146,,,Point(88.3475105 22.5705803),1.698,22.5705803,88.3475105,1.0,http://www.wikidata.org/entity/Q33506,RBI Museum,museum,D,blue,,,,,,,
665,http://www.wikidata.org/entity/Q96631584,,,Point(88.367012 22.603238),3.417,22.603238,88.367012,1.0,http://www.wikidata.org/entity/Q44539,Gour Nitai temple,temple,D,blue,,,,,,,
666,http://www.wikidata.org/entity/Q98731732,,,Point(88.357811111 22.598919444),2.987,22.598919444444,88.357811111111,1.0,http://www.wikidata.org/entity/Q3947,House of Adhar Sen,house,D,blue,,,,,,,
667,http://www.wikidata.org/entity/Q99732708,,,Point(88.339611 22.564126),2.667,22.564126,88.339611,1.0,http://www.wikidata.org/entity/Q199451,Tazaung,pagoda,D,blue,,,,,,,
668,http://www.wikidata.org/entity/Q104451592,,,Point(88.366988888 22.574355555),0.37,22.574355555556,88.366988888889,1.0,http://www.wikidata.org/entity/Q672070,Charu Guha Studio,photographic studio,D,blue,,,,,,,
671,http://www.wikidata.org/entity/Q105044529,,https://en.wikipedia.org/wiki/Dr._B_C_Roy_Post_Graduate_Institute_of_Paediatric_Sciences,Point(88.387516666 22.573702777),2.428,22.573702777778,88.387516666667,1.0,http://www.wikidata.org/entity/Q3918,Dr. B C Roy Post Graduate Institute of Paediatric Sciences,university,D,blue,,,,,,,
672,http://www.wikidata.org/entity/Q105653829,,,Point(88.35230255 22.575662611),1.237,22.575662611111,88.35230255,1.0,http://www.wikidata.org/entity/Q207694,Ghare Baire,art museum,D,blue,,,,,,,
673,http://www.wikidata.org/entity/Q105973023,,,Point(88.369133333 22.592033333),2.222,22.592033333333,88.369133333333,1.0,http://www.wikidata.org/entity/Q41176,House of Satyendra Nath Bose,building,D,blue,,,,,,,
674,http://www.wikidata.org/entity/Q106298173,,https://en.wikipedia.org/wiki/Bengal_Solar_Plant,Point(88.366666666 22.566666666),0.723,22.566666666667,88.366666666667,1.0,http://www.wikidata.org/entity/Q1003207,Bengal Solar Plant,photovoltaic power station,D,blue,,,,,,,
675,http://www.wikidata.org/entity/Q107208118,,,Point(88.3626269 22.531512),4.576,22.531512,88.3626269,1.0,http://www.wikidata.org/entity/Q207694,Centre of International Modern Art,art museum,D,blue,,,,,,,
676,http://www.wikidata.org/entity/Q107534329,,,Point(88.370836 22.5695516),0.791,22.5695516,88.370836,1.0,http://www.wikidata.org/entity/Q16970,St. Johns Catholic Church,church building,D,blue,,,,,,,
677,http://www.wikidata.org/entity/Q107584093,,,Point(88.33675 22.55775),3.242,22.55775,88.33675,1.0,http://www.wikidata.org/entity/Q378499,Fort William semaphore tower,semaphore line,D,blue,,,,,,,
678,http://www.wikidata.org/entity/Q108502282,,,Point(88.372997 22.575053),0.972,22.575053,88.372997,1.0,http://www.wikidata.org/entity/Q173387,Sucharu Devi's grave,grave,D,blue,,,,,,,
679,http://www.wikidata.org/entity/Q108502280,,,Point(88.373075 22.575031),0.979,22.575031,88.373075,1.0,http://www.wikidata.org/entity/Q173387,Keshub Chunder Sen's grave,grave,D,blue,,,,,,,
680,http://www.wikidata.org/entity/Q108502281,,,Point(88.372978 22.575033),0.97,22.575033,88.372978,1.0,http://www.wikidata.org/entity/Q173387,Suniti Devi's grave,grave,D,blue,,,,,,,
681,http://www.wikidata.org/entity/Q108502294,,,Point(88.373086 22.575014),0.98,22.575014,88.373086,1.0,http://www.wikidata.org/entity/Q173387,Karuna Chunder Sen's grave,grave,D,blue,,,,,,,
682,http://www.wikidata.org/entity/Q108502295,,,Point(88.373025 22.575008),0.973,22.575008,88.373025,1.0,http://www.wikidata.org/entity/Q173387,Nirmul Chunder Sen's grave,grave,D,blue,,,,,,,
683,http://www.wikidata.org/entity/Q108502292,,,Point(88.373069 22.575039),0.979,22.575039,88.373069,1.0,http://www.wikidata.org/entity/Q173387,Jaganmohinee Devi's grave,grave,D,blue,,,,,,,
684,http://www.wikidata.org/entity/Q108502298,,,Point(88.372956 22.575053),0.968,22.575053,88.372956,1.0,http://www.wikidata.org/entity/Q173387,Subrata Chunder Sen's grave,grave,D,blue,,,,,,,
685,http://www.wikidata.org/entity/Q108502299,,,Point(88.372939 22.57505),0.966,22.57505,88.372939,1.0,http://www.wikidata.org/entity/Q173387,Sujata Devi's grave,grave,D,blue,,,,,,,
686,http://www.wikidata.org/entity/Q108502296,,,Point(88.373033 22.574972),0.973,22.574972,88.373033,1.0,http://www.wikidata.org/entity/Q173387,Prafulla Chunder Sen's grave,grave,D,blue,,,,,,,
687,http://www.wikidata.org/entity/Q108502302,,,Point(88.372928 22.575069),0.966,22.575069,88.372928,1.0,http://www.wikidata.org/entity/Q173387,Sunith Sen's grave,grave,D,blue,,,,,,,
688,http://www.wikidata.org/entity/Q108502300,,,Point(88.372842 22.574939),0.953,22.574939,88.372842,1.0,http://www.wikidata.org/entity/Q173387,Sabitri Devi's grave,grave,D,blue,,,,,,,
689,http://www.wikidata.org/entity/Q108502304,,,Point(88.372931 22.575047),0.965,22.575047,88.372931,1.0,http://www.wikidata.org/entity/Q173387,Pradip Sen's grave,grave,D,blue,,,,,,,
690,http://www.wikidata.org/entity/Q108502305,,,Point(88.372978 22.575031),0.97,22.575031,88.372978,1.0,http://www.wikidata.org/entity/Q173387,Mrinalini Sen's grave,grave,D,blue,,,,,,,
691,http://www.wikidata.org/entity/Q108502402,,,Point(88.372931 22.575044),0.965,22.575044,88.372931,1.0,http://www.wikidata.org/entity/Q173387,Monica Devi's grave,grave,D,blue,,,,,,,
692,http://www.wikidata.org/entity/Q108502400,,,Point(88.372911 22.575003),0.962,22.575003,88.372911,1.0,http://www.wikidata.org/entity/Q173387,Saral Chandra Sen's grave,grave,D,blue,,,,,,,
693,http://www.wikidata.org/entity/Q108504225,,,Point(88.372842 22.574939),0.953,22.574939,88.372842,1.0,http://www.wikidata.org/entity/Q173387,Gajendra Narayan's grave,grave,D,blue,,,,,,,
694,http://www.wikidata.org/entity/Q108504379,,,Point(88.373062222 22.57494),0.975,22.57494,88.373062222222,1.0,http://www.wikidata.org/entity/Q173387,Mohini Devi's grave,grave,D,blue,,,,,,,
695,http://www.wikidata.org/entity/Q108504547,,,Point(88.373062222 22.57494),0.975,22.57494,88.373062222222,1.0,http://www.wikidata.org/entity/Q173387,Sudarshan Sen's grave,grave,D,blue,,,,,,,
701,http://www.wikidata.org/entity/Q108598529,,,Point(88.344219444 22.566769444),2.123,22.566769444444,88.344219444444,1.0,http://www.wikidata.org/entity/Q41176,West Bengal Legislative Assembly building,building,D,blue,,,,,,,
702,http://www.wikidata.org/entity/Q110602708,,,Point(88.3355345 22.5870825),3.325,22.5870825,88.3355345,1.0,http://www.wikidata.org/entity/Q537127,Chandmari Bridge,road bridge,D,blue,,,,,,,
704,http://www.wikidata.org/entity/Q111402414,,,Point(88.34014 22.56648),2.534,22.56648,88.34014,1.0,http://www.wikidata.org/entity/Q5461999,Polo Floatel Kolkata,flotel,D,blue,,,,,,,
705,http://www.wikidata.org/entity/Q111836197,,,Point(88.3431229 22.5696719),2.158,22.5696719,88.3431229,1.0,http://www.wikidata.org/entity/Q41176,New Secretariat Building,building,D,blue,,,,,,,
706,http://www.wikidata.org/entity/Q115714505,,,Point(88.3374517 22.5633782),2.904,22.5633782,88.3374517,1.0,http://www.wikidata.org/entity/Q1664720,Sea Explorers' Institute,institute,D,blue,,,,,,,
707,http://www.wikidata.org/entity/Q117430013,,,Point(88.363666479 22.553067423),2.177,22.553067423749,88.363666479132,1.0,http://www.wikidata.org/entity/Q1128397,Mother House Of The Missionaries Of Charity,convent,D,blue,,,,,,,
708,http://www.wikidata.org/entity/Q120883508,,https://en.wikipedia.org/wiki/State_Bank_Archives_and_Museum,Point(88.343 22.569),2.183,22.569,88.343,1.0,http://www.wikidata.org/entity/Q166118,State Bank Archives and Museum,archive,D,blue,,,,,,,
710,http://www.wikidata.org/entity/Q124681311,,,Point(88.34997 22.56303),1.785,22.56303,88.34997,1.0,http://www.wikidata.org/entity/Q2920759,Esplanade Bus Terminus,bus terminus,D,blue,,,,,,,
0,http://www.wikidata.org/entity/Q30547,,,Point(88.363666479 22.553067423),2.177,22.553067423749,88.363666479132,189.0,,Mother Teresa,,graves,black,Mother House Of The Missionaries Of Charity,,,,,,
35,,,,,,22.545811,88.360592,,,"
South Park Street Cemetery
",,atlas_obscura,gold,,https://www.atlasobscura.com/places/south-park-street-cemetery,"
An eclectic mix of influences rot together in harmony in this India necropolis.
",,,,
37,,,,,,22.576014,88.364466,,,"
College Street
",,atlas_obscura,gold,,https://www.atlasobscura.com/places/college-street,"
The world's largest secondhand book market is a haven for bibliophiles and bargain hunters.
",,,,
40,,,,,,22.560069,88.352468,,,"
Nahoum and Sons
",,atlas_obscura,gold,,https://www.atlasobscura.com/places/nahoum-sons-kolkata-jewish-bakery,"
This Jewish bakery, among the last in the region, sells legendary sweets from a century-old storefront.
",,,,
95,,,,,,22.573307,88.354801,,,"
Terreti Bazaar 
",,atlas_obscura,gold,,https://www.atlasobscura.com/places/terreti-bazaar,"
For just a few hours each morning, this market serves specialties from the city's shrinking Chinese-Indian community.
",,,,
96,,,,,,22.573307,88.354801,,,"
Terreti Bazaar 
",,atlas_obscura,gold,,https://www.atlasobscura.com/places/terreti-bazaar,"
For just a few hours each morning, this market serves specialties from the city's shrinking Chinese-Indian community.
",,,,
132,,,,,,22.554246,88.335874,,,"
The Black Hole of Calcutta
",,atlas_obscura,gold,,https://www.atlasobscura.com/places/the-black-hole-of-calcutta,"
The site of an atrocity that would be used to justify Britains conquest of India.
",,,,
138,,,,,,22.599552,88.362708,,,"
Mud Statues of Kumortuli 
",,atlas_obscura,gold,,https://www.atlasobscura.com/places/mud-statues-of-kumortuli,"
The potters' quarter is packed with artists sculpting clay gods with mud from the sacred Ganges river.
",,,,
153,,,,,,22.57862,88.353388,,,"
Cathedral of the Most Holy Rosary
",,atlas_obscura,gold,,https://www.atlasobscura.com/places/cathedral-of-the-most-holy-rosary,"
Kolkatas only Portuguese church has a curious link with chickens.
",,,,
154,,,,,,22.563299,88.351407,,,"
Pen Hospital
",,atlas_obscura,gold,,https://www.atlasobscura.com/places/kolkata-pen-hospital,"
For more than 70 years, this small shop has been a go-to for Kolkata's fountain pen connoisseurs and collectors.
",,,,
179,,,,,,22.579622,88.351325,,,"
Armenian Church of the Holy Nazareth
",,atlas_obscura,gold,,https://www.atlasobscura.com/places/armenian-church-of-the-holy-nazareth,"
This historic complex is home to the oldest Christian grave in Kolkata, India.
",,,,
188,,,,,,22.540889,88.341482,,,"
Ronald Ross Memorial
",,atlas_obscura,gold,,https://www.atlasobscura.com/places/ronald-ross-memorial,"
A monument to the British doctor who connected mosquitoes to malaria.
",,,,
204,,,,,,22.547651,88.391314,,,"
Chinese Kali Mandir
",,atlas_obscura,gold,,https://www.atlasobscura.com/places/chinese-kali-mandir-temple,"
In Kolkata's China Town, a temple to the Hindu goddess Kali.
",,,,
0,,,,,,0.0,0.0,,,Bishnupur (Rarh)|Bishnupur,Go next,wikivoyage,red,,,,,,"'''Bishnupur (Rarh)|Bishnupur'''  Famous for terracotta temples, clay sculptures and silk sarees.","(0, 0)"
1,,,,,,25.5142686,90.2130565,,,Darjeeling Hills,Go next,wikivoyage,red,,,,,,"'''Darjeeling Hills'''  A mountainous region home to Darjeeling, Kalimpong and Mirik. When Darjeeling is your destination, you could travel the last {{km|72}} by a combination of bus/train and the famous Darjeeling Himalayan Railway.","(25.5142686, 90.2130565)"
2,,,,,,21.623077,87.5082534,,,Digha,Go next,wikivoyage,red,,,,,,'''Digha'''  A beach town in the southern part of the state. Buses from Esplanade Bus Station.,"(21.623077, 87.5082534)"
3,,,,,,6.1212013,-75.6275627,,,Santiniketan,Go next,wikivoyage,red,,,,,,"'''Santiniketan'''  Famous for the ''ashramik'' school and university founded by Bengali poet Rabindranath Tagore, the town is also known for its handmade leather crafts and ''kantha'' stitch sarees.","(6.1212013, -75.6275627)"
4,,,,,,0.0,0.0,,,Sundarbans National Park,Go next,wikivoyage,red,,,,,,"'''Sundarbans National Park'''  Part of the largest littoral mangrove in the world, and home to the famous Bengal Tigers.","(0, 0)"
0,,,,,,-0.2864982,36.0514231,,,Bangladesh,Go next,wikivoyage,red,,,,,,"'''Bangladesh'''  Tickets for buses running to the border and Dhaka can be reserved at Shyamoli Yatri Paribahan. Beware that several travel agencies around this area also sell tickets for these buses, but at very inflated prices. At the border, it's best to change money on the Indian side.","(-0.2864982, 36.0514231)"
1,,,,,,27.549511,90.5119273,,,Bhutan,Go next,wikivoyage,red,,,,,,"'''Bhutan'''  Tucked away in the corner of the bus station is a small Bhutanese Government kiosk selling tickets for buses running to the Bhutanese border town of Phuentsholing. Buses depart Tu Th Sa at 9PM, and the 18-hr journey costs 300.","(27.549511, 90.5119273)"
